#-------------------------------------------------------------------------------------
~VERSION INFORMATION
#MNEM.UNIT                          DATA                            DESCRIPTION
#---- ----- -------------------------------------------- -----------------------------
VERS .          2.0                                      : CWLS Log ASCII Standard - VERSION 2.0
WRAP .          NO                                       : One Line per depth step
PROD .          CROCKER DATA PROCESSING                  : LAS Producer
PROG .          LAS Viewer v0                            : LAS Program name and version
CREA .          2019/04/03 21-02                         : LAS Creation date {YYYY/MM/DD hh-mm}
DLIS_CREA.          2009-Aug-25 10-09                        : DLIS Creation date and time {YYYY-MMM-DD hh-mm}
SOURCE.          WLC_PETRO_COMPUTED_OUTPUT_1.DLIS         : DLIS File Name
FILE-ID.          CPI_OUTPUT.logdata                       : File Identification Number
#-------------------------------------------------------------------------------------
~WELL INFORMATION
#MNEM.UNIT                          DATA                            DESCRIPTION
#---- ----- -------------------------------------------- -----------------------------
STRT .m         2788.92                                  : START DEPTH
STOP .m         3231.95                                  : STOP DEPTH
STEP .m         0.1524                                   : STEP
NULL .          -999.25                                  : NULL VALUE
COMP .          STATOILHYDRO                             : COMPANY
WELL .          15/9-F-15 C                              : WELL
FIELD.          VOLVE                                    : FIELD
LOC  .                                                   : LOCATION
CNTY .                                                   : COUNTY
STAT .                                                   : STATE
NATI .                                                   : COUNTRY
API  .                                                   : API NUMBER
UWI  .                                                   : UNIQUE WELL ID
SRVC .                                                   : SERVICE COMPANY
LATI .          058 26' 29.706" N    DMS                 : LATITUDE
LONG .          001 53' 15.149" E    DMS                 : LONGITUDE
GDAT .          MSL                                      : GeoDetic Datum
#-------------------------------------------------------------------------------------
~PARAMETER INFORMATION
#MNEM.UNIT                          DATA                            DESCRIPTION
#---- ----- -------------------------------------------- -----------------------------
RUN  .          MWD RUN 12-13                            : Run number
PDAT .          MSL                                      : Perm. Datum
#-------------------------------------------------------------------------------------
~CURVE INFORMATION
#MNEM.UNIT                          DATA                            DESCRIPTION
#---- ----- -------------------------------------------- -----------------------------
DEPTH.m                                                  : Measured Depth
BVW  .V/V                                                : 
CARB_FLAG.UNITLESS                                           : 
COAL_FLAG.UNITLESS                                           : 
KLOGH.mD                                                 : 
PHIF .V/V                                                : 
SAND_FLAG.UNITLESS                                           : 
SW   .V/V                                                : 
VSH  .V/V                                                : 
#--------------------------------------------------------------------------------------------------------------------------------------
#DEPTH          BVW            CARB_FLAG      COAL_FLAG      KLOGH          PHIF           SAND_FLAG      SW             VSH            
#--------------------------------------------------------------------------------------------------------------------------------------
~ASCII Log Data
# ...
3193.542000    0.059100       0.000000       0.000000       0.006100       0.059100       0.000000       1.000000       0.552300       
3193.694400    0.053700       0.000000       0.000000       0.003200       0.053700       0.000000       1.000000       0.610100       
3193.846800    0.053400       0.000000       0.000000       0.002900       0.053400       0.000000       1.000000       0.625100       
3193.999200    0.061400       0.000000       0.000000       0.005100       0.061400       0.000000       1.000000       0.628600       
3194.151600    0.079000       0.000000       0.000000       0.018100       0.079000       0.000000       1.000000       0.636000       
3194.304000    0.090800       0.000000       0.000000       0.040800       0.090800       0.000000       1.000000       0.647400       
3194.456400    0.099600       0.000000       0.000000       0.080800       0.099600       0.000000       1.000000       0.640000       
3194.608800    0.110700       0.000000       0.000000       0.204500       0.110700       0.000000       1.000000       0.615600       
3194.761200    0.126200       0.000000       0.000000       0.689400       0.126200       0.000000       1.000000       0.599500       
3194.913600    0.131200       0.000000       0.000000       6.894000       0.155000       0.000000       0.846100       0.561200       
3195.066000    0.136400       0.000000       0.000000       228.089401     0.199900       0.000000       0.682300       0.519500       
3195.218400    0.146500       0.000000       0.000000       692.429688     0.213800       0.000000       0.685100       0.500400       
3195.370800    0.164900       0.000000       0.000000       833.500671     0.215500       1.000000       0.765300       0.488200       
3195.523200    0.170800       0.000000       0.000000       441.060394     0.206400       1.000000       0.827500       0.480700       
3195.675600    0.171300       0.000000       0.000000       295.361206     0.200000       1.000000       0.856300       0.465000       
3195.828000    0.165700       0.000000       0.000000       112.863701     0.186200       1.000000       0.890100       0.452400       
3195.980400    0.168600       0.000000       0.000000       153.682999     0.191100       1.000000       0.882000       0.464900       
3196.132800    0.179700       0.000000       0.000000       408.260406     0.203700       1.000000       0.882100       0.454500       
3196.285200    0.184500       0.000000       0.000000       791.760925     0.212200       1.000000       0.869600       0.446000       
3196.437600    0.193800       0.000000       0.000000       1194.212036    0.217000       1.000000       0.892800       0.433800       
3196.590000    0.188600       0.000000       0.000000       323.270996     0.200200       1.000000       0.942100       0.448000       
3196.742400    0.180000       0.000000       0.000000       222.040298     0.197800       1.000000       0.909900       0.491100       
3196.894800    0.168700       0.000000       0.000000       117.180496     0.191300       0.000000       0.882000       0.525900       
3197.047200    0.172000       0.000000       0.000000       352.923798     0.207100       0.000000       0.830100       0.540500       
3197.199600    0.179900       0.000000       0.000000       565.957214     0.213700       0.000000       0.841700       0.543300       
3197.352000    0.188400       0.000000       0.000000       546.433472     0.213300       0.000000       0.883300       0.543300       
3197.504400    0.173100       0.000000       0.000000       274.754089     0.205100       0.000000       0.844100       0.561800       
3197.656800    0.151000       0.000000       0.000000       11.320200      0.161200       0.000000       0.936900       0.552300       
3197.809200    0.149500       0.000000       0.000000       7.214100       0.154500       0.000000       0.967900       0.542200       
3197.961600    0.160200       0.000000       0.000000       174.733902     0.196600       0.000000       0.814700       0.524100       
3198.114000    0.166600       0.000000       0.000000       284.323303     0.202500       0.000000       0.822800       0.513300       
3198.266400    0.183500       0.000000       0.000000       525.418274     0.209700       1.000000       0.875000       0.494500       
3198.418800    0.191400       0.000000       0.000000       1305.104004    0.221300       1.000000       0.865000       0.482300       
3198.571200    0.183900       0.000000       0.000000       695.136414     0.212900       1.000000       0.864100       0.484800       
3198.723600    0.170200       0.000000       0.000000       353.657715     0.205700       0.000000       0.827400       0.517200       
3198.876000    0.180600       0.000000       0.000000       274.184906     0.204000       0.000000       0.885200       0.545300       
3199.028400    0.198500       0.000000       0.000000       165.959793     0.198500       0.000000       1.000000       0.566600       
3199.180800    0.149300       0.000000       0.000000       4.199000       0.149300       0.000000       1.000000       0.577500       
3199.333200    0.137000       0.000000       0.000000       1.704700       0.137000       0.000000       1.000000       0.576600       
3199.485600    0.154800       0.000000       0.000000       88.114304      0.188900       0.000000       0.819700       0.549800       
3199.638000    0.136600       0.000000       0.000000       226.452698     0.198400       1.000000       0.688600       0.496700       
3199.790400    0.160200       0.000000       0.000000       1820.873047    0.223800       1.000000       0.715800       0.451300       
3199.942800    0.189000       0.000000       0.000000       3600.000000    0.234000       1.000000       0.807800       0.430800       
3200.095200    0.203000       0.000000       0.000000       3631.523926    0.231000       1.000000       0.878500       0.416500       
3200.247600    0.168300       0.000000       0.000000       742.035522     0.209400       1.000000       0.803600       0.415600       
3200.400000    0.129200       0.000000       0.000000       97.883202      0.182000       1.000000       0.710100       0.416500       
3200.552400    0.114300       0.000000       0.000000       13.476700      0.155800       1.000000       0.733900       0.427900       
3200.704800    0.124900       0.000000       0.000000       9.342000       0.150700       1.000000       0.828700       0.425900       
3200.857200    0.124900       0.000000       0.000000       11.714900      0.153800       1.000000       0.812000       0.427100       
3201.009600    0.120300       0.000000       0.000000       6.856000       0.146700       1.000000       0.820000       0.429500       
3201.162000    0.097300       0.000000       0.000000       0.176700       0.097300       0.000000       1.000000       0.433500       
3201.314400    0.063600       0.000000       0.000000       0.014900       0.063600       0.000000       1.000000       0.431500       
3201.466800    0.064000       0.000000       0.000000       0.016500       0.064000       0.000000       1.000000       0.415300       
3201.619200    0.098300       0.000000       0.000000       0.236700       0.098300       0.000000       1.000000       0.385400       
3201.771600    0.129100       0.000000       0.000000       2.660000       0.129100       1.000000       1.000000       0.353800       
3201.924000    0.179700       0.000000       0.000000       111.477898     0.179700       1.000000       1.000000       0.352100       
3202.076400    0.136600       0.000000       0.000000       4.400200       0.136600       1.000000       1.000000       0.363400       
3202.228800    0.151900       0.000000       0.000000       12.637900      0.151900       1.000000       1.000000       0.378900       
3202.381200    0.099700       0.000000       0.000000       0.272300       0.099700       0.000000       1.000000       0.377900       
