#-------------------------------------------------------------------------------------
~VERSION INFORMATION
#MNEM.UNIT                          DATA                            DESCRIPTION
#---- ----- -------------------------------------------- -----------------------------
VERS .          2.0                                      : CWLS Log ASCII Standard - VERSION 2.0
WRAP .          NO                                       : One Line per depth step
PROD .          CROCKER DATA PROCESSING                  : LAS Producer
PROG .          LAS Viewer v0                            : LAS Program name and version
CREA .          2019/04/03 21-02                         : LAS Creation date {YYYY/MM/DD hh-mm}
DLIS_CREA.          2009-Aug-25 10-09                        : DLIS Creation date and time {YYYY-MMM-DD hh-mm}
SOURCE.          WLC_PETRO_COMPUTED_OUTPUT_1.DLIS         : DLIS File Name
FILE-ID.          CPI_OUTPUT.logdata                       : File Identification Number
#-------------------------------------------------------------------------------------
~WELL INFORMATION
#MNEM.UNIT                          DATA                            DESCRIPTION
#---- ----- -------------------------------------------- -----------------------------
STRT .m         2788.92                                  : START DEPTH
STOP .m         3231.95                                  : STOP DEPTH
STEP .m         0.1524                                   : STEP
NULL .          -999.25                                  : NULL VALUE
COMP .          STATOILHYDRO                             : COMPANY
WELL .          15/9-F-15 C                              : WELL
FIELD.          VOLVE                                    : FIELD
LOC  .                                                   : LOCATION
CNTY .                                                   : COUNTY
STAT .                                                   : STATE
NATI .                                                   : COUNTRY
API  .                                                   : API NUMBER
UWI  .                                                   : UNIQUE WELL ID
SRVC .                                                   : SERVICE COMPANY
LATI .          058 26' 29.706" N    DMS                 : LATITUDE
LONG .          001 53' 15.149" E    DMS                 : LONGITUDE
GDAT .          MSL                                      : GeoDetic Datum
#-------------------------------------------------------------------------------------
~PARAMETER INFORMATION
#MNEM.UNIT                          DATA                            DESCRIPTION
#---- ----- -------------------------------------------- -----------------------------
RUN  .          MWD RUN 12-13                            : Run number
PDAT .          MSL                                      : Perm. Datum
#-------------------------------------------------------------------------------------
~CURVE INFORMATION
#MNEM.UNIT                          DATA                            DESCRIPTION
#---- ----- -------------------------------------------- -----------------------------
DEPTH.m                                                  : Measured Depth
BVW  .V/V                                                : 
CARB_FLAG.UNITLESS                                           : 
COAL_FLAG.UNITLESS                                           : 
KLOGH.mD                                                 : 
PHIF .V/V                                                : 
SAND_FLAG.UNITLESS                                           : 
SW   .V/V                                                : 
VSH  .V/V                                                : 
#--------------------------------------------------------------------------------------------------------------------------------------
#DEPTH          BVW            CARB_FLAG      COAL_FLAG      KLOGH          PHIF           SAND_FLAG      SW             VSH            
#--------------------------------------------------------------------------------------------------------------------------------------
~ASCII Log Data
# ...
3004.718400    0.035800       0.000000       0.000000       0.232100       0.035800       0.000000       1.000000       0.324500       
3004.870800    0.034900       0.000000       0.000000       0.339700       0.034900       0.000000       1.000000       0.305400       
3005.023200    0.036400       0.000000       0.000000       0.450200       0.036400       0.000000       1.000000       0.293100       
3005.175600    0.033500       0.000000       0.000000       0.323200       0.033500       0.000000       1.000000       0.306500       
3005.328000    0.035800       0.000000       0.000000       0.222200       0.035800       0.000000       1.000000       0.326600       
3005.480400    0.034900       0.000000       0.000000       0.132000       0.034900       0.000000       1.000000       0.350900       
3005.632800    0.036000       0.000000       0.000000       0.092000       0.036000       0.000000       1.000000       0.369300       
3005.785200    0.037000       0.000000       0.000000       0.063100       0.037000       0.000000       1.000000       0.388400       
3005.937600    0.039400       0.000000       0.000000       0.039200       0.039400       0.000000       1.000000       0.413600       
3006.090000    0.041900       0.000000       0.000000       0.027500       0.041900       0.000000       1.000000       0.432900       
3006.242400    0.044200       0.000000       0.000000       0.017900       0.044200       0.000000       1.000000       0.455700       
3006.394800    0.047500       0.000000       0.000000       0.015500       0.047500       0.000000       1.000000       0.465600       
3006.547200    0.047100       0.000000       0.000000       0.009500       0.047100       0.000000       1.000000       0.488900       
3006.699600    0.046100       0.000000       0.000000       0.009900       0.046100       0.000000       1.000000       0.485800       
3006.852000    0.046300       0.000000       0.000000       0.014100       0.046300       0.000000       1.000000       0.468900       
3007.004400    0.050500       0.000000       0.000000       0.028400       0.050500       0.000000       1.000000       0.439000       
3007.156800    0.053200       0.000000       0.000000       0.029800       0.053200       0.000000       1.000000       0.439000       
3007.309200    0.054600       0.000000       0.000000       0.018900       0.054600       0.000000       1.000000       0.462200       
3007.461600    0.055700       0.000000       0.000000       0.013900       0.055700       0.000000       1.000000       0.478200       
3007.614000    0.051700       0.000000       0.000000       0.012200       0.051700       0.000000       1.000000       0.480800       
3007.766400    0.047300       0.000000       0.000000       0.022800       0.047300       0.000000       1.000000       0.446600       
3007.918800    0.035400       0.000000       0.000000       0.060200       0.035400       0.000000       1.000000       0.389300       
3008.071200    0.031900       0.000000       0.000000       0.207300       0.031900       0.000000       1.000000       0.326500       
3008.223600    0.024800       0.000000       0.000000       0.381700       0.024800       0.000000       1.000000       0.290700       
3008.376000    0.021600       0.000000       0.000000       0.356700       0.021600       0.000000       1.000000       0.291200       
3008.528400    0.022000       0.000000       0.000000       0.229900       0.022000       0.000000       1.000000       0.312700       
3008.680800    0.020900       0.000000       0.000000       0.212700       0.020900       0.000000       1.000000       0.315500       
3008.833200    0.016900       0.000000       0.000000       0.609400       0.016900       0.000000       1.000000       0.261100       
3008.985600    0.014600       0.000000       0.000000       1.988300       0.014600       0.000000       1.000000       0.202100       
3009.138000    0.046400       0.000000       0.000000       7.701200       0.046400       0.000000       1.000000       0.164900       
3009.290400    0.047200       0.000000       0.000000       5.180000       0.047200       0.000000       1.000000       0.184800       
3009.442800    0.048300       0.000000       0.000000       4.469400       0.048300       0.000000       1.000000       0.192900       
3009.595200    0.049600       0.000000       0.000000       3.477200       0.049600       0.000000       1.000000       0.206100       
3009.747600    0.050400       0.000000       0.000000       2.843100       0.050400       0.000000       1.000000       0.216600       
3009.900000    0.022300       0.000000       0.000000       1.438300       0.022300       0.000000       1.000000       0.224500       
3010.052400    0.019100       0.000000       0.000000       1.140200       0.019100       0.000000       1.000000       0.232900       
3010.204800    0.054000       0.000000       0.000000       1.829600       0.054000       0.000000       1.000000       0.241100       
3010.357200    0.054600       0.000000       0.000000       1.037300       0.054600       0.000000       1.000000       0.269000       
3010.509600    0.057200       0.000000       0.000000       0.918400       0.057200       0.000000       1.000000       0.277200       
3010.662000    0.061100       0.000000       0.000000       1.078900       0.061100       0.000000       1.000000       0.272900       
3010.814400    0.064300       0.000000       0.000000       1.738200       0.064300       0.000000       1.000000       0.252700       
3010.966800    0.066800       0.000000       0.000000       1.504200       0.066800       0.000000       1.000000       0.261900       
3011.119200    0.031400       0.000000       0.000000       0.614400       0.031400       0.000000       1.000000       0.273600       
3011.271600    0.028700       0.000000       0.000000       0.668400       0.028700       0.000000       1.000000       0.267200       
3011.424000    0.032500       0.000000       0.000000       1.347800       0.032500       0.000000       1.000000       0.236700       
3011.576400    0.019100       0.000000       0.000000       2.130300       0.019100       0.000000       1.000000       0.202700       
3011.728800    0.015700       0.000000       0.000000       2.562300       0.015700       0.000000       1.000000       0.190700       
3011.881200    0.011400       0.000000       0.000000       1.783900       0.011400       0.000000       1.000000       0.204400       
3012.033600    0.019100       0.000000       0.000000       1.386200       0.019100       0.000000       1.000000       0.223500       
3012.186000    0.023100       0.000000       0.000000       0.960900       0.023100       0.000000       1.000000       0.244700       
3012.338400    0.022200       0.000000       0.000000       0.987600       0.022200       0.000000       1.000000       0.242500       
3012.490800    0.026000       0.000000       0.000000       1.468300       0.026000       0.000000       1.000000       0.226800       
3012.643200    0.022100       0.000000       0.000000       1.951800       0.022100       0.000000       1.000000       0.209600       
3012.795600    0.021800       0.000000       0.000000       2.709400       0.021800       0.000000       1.000000       0.193500       
3012.948000    0.018500       0.000000       0.000000       2.721800       0.018500       0.000000       1.000000       0.190300       
3013.100400    0.017900       0.000000       0.000000       2.879100       0.017900       0.000000       1.000000       0.187100       
3013.252800    0.016700       0.000000       0.000000       2.816200       0.016700       0.000000       1.000000       0.187100       
3013.405200    0.017000       0.000000       0.000000       2.231900       0.017000       0.000000       1.000000       0.198600       
3013.557600    0.051100       0.000000       0.000000       3.324700       0.051100       0.000000       1.000000       0.209700       
