#-------------------------------------------------------------------------------------
~VERSION INFORMATION
#MNEM.UNIT                          DATA                            DESCRIPTION
#---- ----- -------------------------------------------- -----------------------------
VERS .          2.0                                      : CWLS Log ASCII Standard - VERSION 2.0
WRAP .          NO                                       : One Line per depth step
PROD .          CROCKER DATA PROCESSING                  : LAS Producer
PROG .          LAS Viewer v0                            : LAS Program name and version
CREA .          2019/04/03 21-02                         : LAS Creation date {YYYY/MM/DD hh-mm}
DLIS_CREA.          2009-Aug-25 10-09                        : DLIS Creation date and time {YYYY-MMM-DD hh-mm}
SOURCE.          WLC_PETRO_COMPUTED_OUTPUT_1.DLIS         : DLIS File Name
FILE-ID.          CPI_OUTPUT.logdata                       : File Identification Number
#-------------------------------------------------------------------------------------
~WELL INFORMATION
#MNEM.UNIT                          DATA                            DESCRIPTION
#---- ----- -------------------------------------------- -----------------------------
STRT .m         2788.92                                  : START DEPTH
STOP .m         3231.95                                  : STOP DEPTH
STEP .m         0.1524                                   : STEP
NULL .          -999.25                                  : NULL VALUE
COMP .          STATOILHYDRO                             : COMPANY
WELL .          15/9-F-15 C                              : WELL
FIELD.          VOLVE                                    : FIELD
LOC  .                                                   : LOCATION
CNTY .                                                   : COUNTY
STAT .                                                   : STATE
NATI .                                                   : COUNTRY
API  .                                                   : API NUMBER
UWI  .                                                   : UNIQUE WELL ID
SRVC .                                                   : SERVICE COMPANY
LATI .          058 26' 29.706" N    DMS                 : LATITUDE
LONG .          001 53' 15.149" E    DMS                 : LONGITUDE
GDAT .          MSL                                      : GeoDetic Datum
#-------------------------------------------------------------------------------------
~PARAMETER INFORMATION
#MNEM.UNIT                          DATA                            DESCRIPTION
#---- ----- -------------------------------------------- -----------------------------
RUN  .          MWD RUN 12-13                            : Run number
PDAT .          MSL                                      : Perm. Datum
#-------------------------------------------------------------------------------------
~CURVE INFORMATION
#MNEM.UNIT                          DATA                            DESCRIPTION
#---- ----- -------------------------------------------- -----------------------------
DEPTH.m                                                  : Measured Depth
BVW  .V/V                                                : 
CARB_FLAG.UNITLESS                                           : 
COAL_FLAG.UNITLESS                                           : 
KLOGH.mD                                                 : 
PHIF .V/V                                                : 
SAND_FLAG.UNITLESS                                           : 
SW   .V/V                                                : 
VSH  .V/V                                                : 
#--------------------------------------------------------------------------------------------------------------------------------------
#DEPTH          BVW            CARB_FLAG      COAL_FLAG      KLOGH          PHIF           SAND_FLAG      SW             VSH            
#--------------------------------------------------------------------------------------------------------------------------------------
~ASCII Log Data
# ...
2986.735200    0.043600       0.000000       0.000000       0.346600       0.043600       0.000000       1.000000       0.312100       
2986.887600    0.044500       0.000000       0.000000       0.469000       0.044500       0.000000       1.000000       0.298300       
2987.040000    0.040500       0.000000       0.000000       0.712900       0.040500       0.000000       1.000000       0.274500       
2987.192400    0.038500       0.000000       0.000000       0.848200       0.038500       0.000000       1.000000       0.264300       
2987.344800    0.035200       0.000000       0.000000       0.688900       0.035200       0.000000       1.000000       0.271500       
2987.497200    0.036500       0.000000       0.000000       0.772900       0.036500       0.000000       1.000000       0.267100       
2987.649600    0.034900       0.000000       0.000000       0.998500       0.034900       0.000000       1.000000       0.253300       
2987.802000    0.035400       0.000000       0.000000       1.635200       0.035400       0.000000       1.000000       0.230000       
2987.954400    0.030600       0.000000       0.000000       2.101800       0.030600       0.000000       1.000000       0.213600       
2988.106800    0.027800       0.000000       0.000000       3.143600       0.027800       0.000000       1.000000       0.191700       
2988.259200    0.060600       0.000000       0.000000       6.672900       0.060600       0.000000       1.000000       0.184500       
2988.411600    0.060800       0.000000       0.000000       5.760100       0.060800       0.000000       1.000000       0.191700       
2988.564000    0.062000       0.000000       0.000000       5.499200       0.063500       0.000000       0.975700       0.196400       
2988.716400    0.063100       0.000000       0.000000       5.303000       0.064600       0.000000       0.976800       0.199200       
2988.868800    0.064600       0.000000       0.000000       4.500300       0.066400       0.000000       0.973000       0.208700       
2989.021200    0.066600       0.000000       0.000000       3.346400       0.069000       0.000000       0.965400       0.225200       
2989.173600    0.068200       0.000000       0.000000       2.717600       0.069700       0.000000       0.977300       0.236000       
2989.326000    0.069800       0.000000       0.000000       3.044800       0.074900       0.000000       0.931800       0.235100       
2989.478400    0.042400       0.000000       0.000000       1.215100       0.042400       0.000000       1.000000       0.250500       
2989.630800    0.041500       0.000000       0.000000       1.085400       0.041500       0.000000       1.000000       0.255100       
2989.783200    0.035800       0.000000       0.000000       0.897400       0.035800       0.000000       1.000000       0.259300       
2989.935600    0.032500       0.000000       0.000000       0.887700       0.032500       0.000000       1.000000       0.256800       
2990.088000    0.038000       0.000000       0.000000       0.931800       0.038000       0.000000       1.000000       0.259400       
2990.240400    0.037000       0.000000       0.000000       0.826200       0.037000       0.000000       1.000000       0.264300       
2990.392800    0.041100       0.000000       0.000000       0.981000       0.041100       0.000000       1.000000       0.259700       
2990.545200    0.043000       0.000000       0.000000       0.953200       0.043000       0.000000       1.000000       0.262700       
2990.697600    0.050400       0.000000       0.000000       0.755200       0.050400       0.000000       1.000000       0.280600       
2990.850000    0.082400       0.000000       0.000000       1.339300       0.086000       0.000000       0.958200       0.284600       
2991.002400    0.081000       0.000000       0.000000       0.980000       0.082900       0.000000       0.977000       0.296900       
2991.154800    0.046100       0.000000       0.000000       0.512600       0.046100       0.000000       1.000000       0.295500       
2991.307200    0.043800       0.000000       0.000000       0.400500       0.043800       0.000000       1.000000       0.305300       
2991.459600    0.042300       0.000000       0.000000       0.292500       0.042300       0.000000       1.000000       0.319200       
2991.612000    0.039900       0.000000       0.000000       0.198200       0.039900       0.000000       1.000000       0.335800       
2991.764400    0.036500       0.000000       0.000000       0.198400       0.036500       0.000000       1.000000       0.332700       
2991.916800    0.025400       0.000000       0.000000       0.225200       0.025400       0.000000       1.000000       0.316700       
2992.069200    0.017000       0.000000       0.000000       0.416600       0.017000       0.000000       1.000000       0.279600       
2992.221600    0.016600       0.000000       0.000000       0.492500       0.016600       0.000000       1.000000       0.271200       
2992.374000    0.029800       0.000000       0.000000       0.422900       0.029800       0.000000       1.000000       0.290300       
2992.526400    0.069000       0.000000       0.000000       0.541200       0.077500       0.000000       0.890200       0.320800       
2992.678800    0.045900       0.000000       0.000000       0.192700       0.045900       0.000000       1.000000       0.342500       
2992.831200    0.069700       0.000000       0.000000       0.585200       0.076100       0.000000       0.915400       0.315700       
2992.983600    0.034100       0.000000       0.000000       0.505900       0.034100       0.000000       1.000000       0.285400       
2993.136000    0.060500       0.000000       0.000000       1.935600       0.062500       0.000000       0.968800       0.245900       
2993.288400    0.056500       0.000000       0.000000       2.781300       0.060400       0.000000       0.936800       0.226500       
2993.440800    0.057500       0.000000       0.000000       2.045300       0.060300       0.000000       0.952700       0.241300       
2993.593200    0.039700       0.000000       0.000000       0.423800       0.039700       0.000000       1.000000       0.299000       
2993.745600    0.052200       0.000000       0.000000       0.079600       0.052200       0.000000       1.000000       0.390800       
2993.898000    0.057900       0.000000       0.000000       0.024300       0.057900       0.000000       1.000000       0.453000       
2994.050400    0.058000       0.000000       0.000000       0.018000       0.058000       0.000000       1.000000       0.467600       
2994.202800    0.055000       0.000000       0.000000       0.028800       0.055000       0.000000       1.000000       0.442300       
2994.355200    0.056400       0.000000       0.000000       0.071300       0.056400       0.000000       1.000000       0.399800       
2994.507600    0.056100       0.000000       0.000000       0.139400       0.056100       0.000000       1.000000       0.367100       
2994.660000    0.054500       0.000000       0.000000       0.271800       0.054500       0.000000       1.000000       0.333500       
2994.812400    0.048700       0.000000       0.000000       0.266400       0.048700       0.000000       1.000000       0.329300       
2994.964800    0.054600       0.000000       0.000000       0.230200       0.054600       0.000000       1.000000       0.341700       
2995.117200    0.058300       0.000000       0.000000       0.122000       0.058300       0.000000       1.000000       0.375500       
2995.269600    0.069300       0.000000       0.000000       0.103600       0.069300       0.000000       1.000000       0.393200       
2995.422000    0.068300       0.000000       0.000000       0.080300       0.068300       0.000000       1.000000       0.404600       
2995.574400    0.062200       0.000000       0.000000       0.082600       0.062200       0.000000       1.000000       0.397900       
