#-------------------------------------------------------------------------------------
~VERSION INFORMATION
#MNEM.UNIT                          DATA                            DESCRIPTION
#---- ----- -------------------------------------------- -----------------------------
VERS .          2.0                                      : CWLS Log ASCII Standard - VERSION 2.0
WRAP .          NO                                       : One Line per depth step
PROD .          CROCKER DATA PROCESSING                  : LAS Producer
PROG .          LAS Viewer v0                            : LAS Program name and version
CREA .          2019/04/03 21-02                         : LAS Creation date {YYYY/MM/DD hh-mm}
DLIS_CREA.          2009-Aug-25 10-09                        : DLIS Creation date and time {YYYY-MMM-DD hh-mm}
SOURCE.          WLC_PETRO_COMPUTED_OUTPUT_1.DLIS         : DLIS File Name
FILE-ID.          CPI_OUTPUT.logdata                       : File Identification Number
#-------------------------------------------------------------------------------------
~WELL INFORMATION
#MNEM.UNIT                          DATA                            DESCRIPTION
#---- ----- -------------------------------------------- -----------------------------
STRT .m         2788.92                                  : START DEPTH
STOP .m         3231.95                                  : STOP DEPTH
STEP .m         0.1524                                   : STEP
NULL .          -999.25                                  : NULL VALUE
COMP .          STATOILHYDRO                             : COMPANY
WELL .          15/9-F-15 C                              : WELL
FIELD.          VOLVE                                    : FIELD
LOC  .                                                   : LOCATION
CNTY .                                                   : COUNTY
STAT .                                                   : STATE
NATI .                                                   : COUNTRY
API  .                                                   : API NUMBER
UWI  .                                                   : UNIQUE WELL ID
SRVC .                                                   : SERVICE COMPANY
LATI .          058 26' 29.706" N    DMS                 : LATITUDE
LONG .          001 53' 15.149" E    DMS                 : LONGITUDE
GDAT .          MSL                                      : GeoDetic Datum
#-------------------------------------------------------------------------------------
~PARAMETER INFORMATION
#MNEM.UNIT                          DATA                            DESCRIPTION
#---- ----- -------------------------------------------- -----------------------------
RUN  .          MWD RUN 12-13                            : Run number
PDAT .          MSL                                      : Perm. Datum
#-------------------------------------------------------------------------------------
~CURVE INFORMATION
#MNEM.UNIT                          DATA                            DESCRIPTION
#---- ----- -------------------------------------------- -----------------------------
DEPTH.m                                                  : Measured Depth
BVW  .V/V                                                : 
CARB_FLAG.UNITLESS                                           : 
COAL_FLAG.UNITLESS                                           : 
KLOGH.mD                                                 : 
PHIF .V/V                                                : 
SAND_FLAG.UNITLESS                                           : 
SW   .V/V                                                : 
VSH  .V/V                                                : 
#--------------------------------------------------------------------------------------------------------------------------------------
#DEPTH          BVW            CARB_FLAG      COAL_FLAG      KLOGH          PHIF           SAND_FLAG      SW             VSH            
#--------------------------------------------------------------------------------------------------------------------------------------
~ASCII Log Data
# ...
3211.525200    0.074700       0.000000       0.000000       0.033500       0.074700       0.000000       1.000000       0.432500       
3211.677600    0.032100       1.000000       0.000000       0.001500       0.032100       0.000000       1.000000       0.420300       
3211.830000    0.008700       1.000000       0.000000       0.001000       0.008700       0.000000       1.000000       0.415500       
3211.982400    0.009800       1.000000       0.000000       0.001000       0.009800       0.000000       1.000000       0.420200       
3212.134800    0.025200       1.000000       0.000000       0.001000       0.025200       0.000000       1.000000       0.460100       
3212.287200    0.070100       0.000000       0.000000       0.018300       0.070100       0.000000       1.000000       0.489200       
3212.439600    0.147800       0.000000       0.000000       9.970400       0.156400       0.000000       0.944500       0.503800       
3212.592000    0.180000       0.000000       0.000000       520.863586     0.209400       1.000000       0.859300       0.492300       
3212.744400    0.191700       0.000000       0.000000       1980.854004    0.228600       0.000000       0.838300       0.509800       
3212.896800    0.157500       0.000000       0.000000       1940.014038    0.230200       0.000000       0.684000       0.539700       
3213.049200    0.152600       0.000000       0.000000       433.400208     0.213100       0.000000       0.715900       0.591700       
3213.201600    0.157000       0.000000       0.000000       10.455600      0.164600       0.000000       0.953800       0.624400       
3213.354000    0.163000       0.000000       0.000000       9.401800       0.163000       0.000000       1.000000       0.620900       
3213.506400    0.171900       0.000000       0.000000       111.467400     0.194000       0.000000       0.886500       0.579900       
3213.658800    0.154800       0.000000       0.000000       41.437901      0.179000       0.000000       0.864900       0.554600       
3213.811200    0.122600       0.000000       0.000000       0.605700       0.122600       0.000000       1.000000       0.570900       
3213.963600    0.114900       0.000000       0.000000       0.289900       0.114900       0.000000       1.000000       0.606600       
3214.116000    0.127000       0.000000       0.000000       0.666800       0.127000       0.000000       1.000000       0.620400       
3214.268400    0.151300       0.000000       0.000000       4.802200       0.152100       0.000000       0.995100       0.592200       
3214.420800    0.178100       0.000000       0.000000       45.789700      0.178100       0.000000       1.000000       0.518500       
3214.573200    0.217600       0.000000       0.000000       1608.056030    0.223000       1.000000       0.976100       0.464300       
3214.725600    0.201800       0.000000       0.000000       960.945923     0.213400       1.000000       0.945500       0.422900       
3214.878000    0.186100       0.000000       0.000000       291.980591     0.198100       1.000000       0.939400       0.436100       
3215.030400    0.122700       0.000000       0.000000       0.963800       0.122700       1.000000       1.000000       0.471900       
3215.182800    0.103800       0.000000       0.000000       0.182700       0.103800       0.000000       1.000000       0.529400       
3215.335200    0.124500       0.000000       0.000000       0.777700       0.124500       0.000000       1.000000       0.545900       
3215.487600    0.181800       0.000000       0.000000       63.711700      0.181800       0.000000       1.000000       0.507100       
3215.640000    0.225400       0.000000       0.000000       5209.117188    0.238900       1.000000       0.943400       0.464600       
3215.792400    0.222000       0.000000       0.000000       5200.000000    0.261600       1.000000       0.848800       0.441500       
3215.944800    0.209300       0.000000       0.000000       5500.000000    0.256300       1.000000       0.816600       0.439800       
3216.097200    0.207000       0.000000       0.000000       5608.916016    0.238600       1.000000       0.867500       0.442900       
3216.249600    0.210800       0.000000       0.000000       5850.288086    0.240000       1.000000       0.878200       0.457100       
3216.402000    0.225600       0.000000       0.000000       5850.288086    0.246500       1.000000       0.915400       0.445200       
3216.554400    0.237200       0.000000       0.000000       5850.288086    0.248600       1.000000       0.954300       0.423300       
3216.706800    0.237800       0.000000       0.000000       5850.288086    0.265800       1.000000       0.894900       0.405100       
3216.859200    0.231100       0.000000       0.000000       5850.288086    0.260500       1.000000       0.887400       0.406100       
3217.011600    0.217400       0.000000       0.000000       5850.288086    0.244100       1.000000       0.890400       0.397500       
3217.164000    0.205800       0.000000       0.000000       5717.036133    0.235400       1.000000       0.874000       0.388600       
3217.316400    0.209400       0.000000       0.000000       907.909607     0.209900       1.000000       0.997900       0.379100       
3217.468800    0.222000       0.000000       0.000000       5131.355957    0.235200       1.000000       0.943800       0.408400       
3217.621200    0.196100       0.000000       0.000000       3829.802002    0.233000       1.000000       0.841500       0.436400       
3217.773600    0.188600       0.000000       0.000000       3643.414062    0.233000       1.000000       0.809700       0.446500       
3217.926000    0.214600       0.000000       0.000000       2531.071045    0.226900       1.000000       0.946000       0.428300       
3218.078400    0.181900       0.000000       0.000000       3643.474121    0.229600       1.000000       0.792200       0.392300       
3218.230800    0.195500       0.000000       0.000000       2383.316895    0.222500       1.000000       0.878900       0.370800       
3218.383200    0.165400       0.000000       0.000000       501.383392     0.199900       1.000000       0.827200       0.349000       
3218.535600    0.156500       0.000000       0.000000       245.387299     0.189900       1.000000       0.823700       0.344300       
3218.688000    -999.250000    1.000000       -999.250000    -999.250000    -999.250000    0.000000       -999.250000    -999.250000    
3218.840400    -999.250000    1.000000       -999.250000    -999.250000    -999.250000    0.000000       -999.250000    -999.250000    
3218.992800    -999.250000    1.000000       -999.250000    -999.250000    -999.250000    0.000000       -999.250000    -999.250000    
3219.145200    -999.250000    1.000000       -999.250000    -999.250000    -999.250000    0.000000       -999.250000    -999.250000    
3219.297600    -999.250000    1.000000       -999.250000    -999.250000    -999.250000    0.000000       -999.250000    -999.250000    
3219.450000    -999.250000    1.000000       -999.250000    -999.250000    -999.250000    0.000000       -999.250000    -999.250000    
3219.602400    -999.250000    1.000000       -999.250000    -999.250000    -999.250000    -999.250000    -999.250000    -999.250000    
3219.754800    -999.250000    1.000000       -999.250000    -999.250000    -999.250000    -999.250000    -999.250000    -999.250000    
3219.907200    -999.250000    1.000000       -999.250000    -999.250000    -999.250000    -999.250000    -999.250000    -999.250000    
3220.059600    -999.250000    1.000000       -999.250000    -999.250000    -999.250000    -999.250000    -999.250000    -999.250000    
3220.212000    -999.250000    0.000000       -999.250000    -999.250000    -999.250000    -999.250000    -999.250000    -999.250000    
3220.364400    -999.250000    0.000000       -999.250000    -999.250000    -999.250000    -999.250000    -999.250000    -999.250000    
