#-------------------------------------------------------------------------------------
~VERSION INFORMATION
#MNEM.UNIT                          DATA                            DESCRIPTION
#---- ----- -------------------------------------------- -----------------------------
VERS .          2.0                                      : CWLS Log ASCII Standard - VERSION 2.0
WRAP .          NO                                       : One Line per depth step
PROD .          CROCKER DATA PROCESSING                  : LAS Producer
PROG .          LAS Viewer v0                            : LAS Program name and version
CREA .          2019/04/03 21-02                         : LAS Creation date {YYYY/MM/DD hh-mm}
DLIS_CREA.          2009-Aug-25 10-09                        : DLIS Creation date and time {YYYY-MMM-DD hh-mm}
SOURCE.          WLC_PETRO_COMPUTED_OUTPUT_1.DLIS         : DLIS File Name
FILE-ID.          CPI_OUTPUT.logdata                       : File Identification Number
#-------------------------------------------------------------------------------------
~WELL INFORMATION
#MNEM.UNIT                          DATA                            DESCRIPTION
#---- ----- -------------------------------------------- -----------------------------
STRT .m         2788.92                                  : START DEPTH
STOP .m         3231.95                                  : STOP DEPTH
STEP .m         0.1524                                   : STEP
NULL .          -999.25                                  : NULL VALUE
COMP .          STATOILHYDRO                             : COMPANY
WELL .          15/9-F-15 C                              : WELL
FIELD.          VOLVE                                    : FIELD
LOC  .                                                   : LOCATION
CNTY .                                                   : COUNTY
STAT .                                                   : STATE
NATI .                                                   : COUNTRY
API  .                                                   : API NUMBER
UWI  .                                                   : UNIQUE WELL ID
SRVC .                                                   : SERVICE COMPANY
LATI .          058 26' 29.706" N    DMS                 : LATITUDE
LONG .          001 53' 15.149" E    DMS                 : LONGITUDE
GDAT .          MSL                                      : GeoDetic Datum
#-------------------------------------------------------------------------------------
~PARAMETER INFORMATION
#MNEM.UNIT                          DATA                            DESCRIPTION
#---- ----- -------------------------------------------- -----------------------------
RUN  .          MWD RUN 12-13                            : Run number
PDAT .          MSL                                      : Perm. Datum
#-------------------------------------------------------------------------------------
~CURVE INFORMATION
#MNEM.UNIT                          DATA                            DESCRIPTION
#---- ----- -------------------------------------------- -----------------------------
DEPTH.m                                                  : Measured Depth
BVW  .V/V                                                : 
CARB_FLAG.UNITLESS                                           : 
COAL_FLAG.UNITLESS                                           : 
KLOGH.mD                                                 : 
PHIF .V/V                                                : 
SAND_FLAG.UNITLESS                                           : 
SW   .V/V                                                : 
VSH  .V/V                                                : 
#--------------------------------------------------------------------------------------------------------------------------------------
#DEPTH          BVW            CARB_FLAG      COAL_FLAG      KLOGH          PHIF           SAND_FLAG      SW             VSH            
#--------------------------------------------------------------------------------------------------------------------------------------
~ASCII Log Data
# ...
3031.693200    0.035600       0.000000       0.000000       0.582100       0.035600       0.000000       1.000000       0.280000       
3031.845600    0.028700       0.000000       0.000000       0.494000       0.028700       0.000000       1.000000       0.281700       
3031.998000    0.035500       0.000000       0.000000       0.510000       0.035500       0.000000       1.000000       0.286300       
3032.150400    0.029500       0.000000       0.000000       0.454800       0.029500       0.000000       1.000000       0.286500       
3032.302800    0.033100       0.000000       0.000000       0.564600       0.033100       0.000000       1.000000       0.279300       
3032.455200    0.034000       0.000000       0.000000       0.559700       0.034000       0.000000       1.000000       0.280500       
3032.607600    0.040000       0.000000       0.000000       0.599000       0.040000       0.000000       1.000000       0.282500       
3032.760000    0.037000       0.000000       0.000000       0.420500       0.037000       0.000000       1.000000       0.296900       
3032.912400    0.034700       0.000000       0.000000       0.590400       0.034700       0.000000       1.000000       0.278500       
3033.064800    0.032300       0.000000       0.000000       0.420500       0.032300       0.000000       1.000000       0.292700       
3033.217200    0.033600       0.000000       0.000000       0.385000       0.033600       0.000000       1.000000       0.298200       
3033.369600    0.037300       0.000000       0.000000       0.245500       0.037300       0.000000       1.000000       0.323200       
3033.522000    0.037700       0.000000       0.000000       0.296700       0.037700       0.000000       1.000000       0.314300       
3033.674400    0.041200       0.000000       0.000000       0.401600       0.041200       0.000000       1.000000       0.302900       
3033.826800    0.036100       0.000000       0.000000       0.526100       0.036100       0.000000       1.000000       0.285300       
3033.979200    0.029300       0.000000       0.000000       0.567700       0.029300       0.000000       1.000000       0.275600       
3034.131600    0.020000       0.000000       0.000000       0.933900       0.020000       0.000000       1.000000       0.243300       
3034.284000    0.009400       0.000000       0.000000       1.510300       0.009400       0.000000       1.000000       0.210700       
3034.436400    0.004300       0.000000       0.000000       1.819300       0.004300       0.000000       1.000000       0.197200       
3034.588800    0.005200       0.000000       0.000000       1.128800       0.005200       0.000000       1.000000       0.221000       
3034.741200    0.015200       0.000000       0.000000       0.440200       0.015200       0.000000       1.000000       0.275300       
3034.893600    0.030300       0.000000       0.000000       0.176100       0.030300       0.000000       1.000000       0.333000       
3035.046000    0.044600       0.000000       0.000000       0.064000       0.044600       0.000000       1.000000       0.394500       
3035.198400    0.052900       0.000000       0.000000       0.023700       0.052900       0.000000       1.000000       0.449700       
3035.350800    0.058100       0.000000       0.000000       0.017400       0.058100       0.000000       1.000000       0.469200       
3035.503200    0.058500       0.000000       0.000000       0.012000       0.058500       0.000000       1.000000       0.487600       
3035.655600    0.059000       0.000000       0.000000       0.016200       0.059000       0.000000       1.000000       0.473800       
3035.808000    0.055300       0.000000       0.000000       0.012600       0.055300       0.000000       1.000000       0.482400       
3035.960400    0.050300       0.000000       0.000000       0.018100       0.050300       0.000000       1.000000       0.460600       
3036.112800    0.047300       0.000000       0.000000       0.018900       0.047300       0.000000       1.000000       0.455700       
3036.265200    0.043100       0.000000       0.000000       0.016500       0.043100       0.000000       1.000000       0.458600       
3036.417600    0.041700       0.000000       0.000000       0.012800       0.041700       0.000000       1.000000       0.469700       
3036.570000    0.038600       0.000000       0.000000       0.023100       0.038600       0.000000       1.000000       0.438400       
3036.722400    0.040000       0.000000       0.000000       0.054300       0.040000       0.000000       1.000000       0.398300       
3036.874800    0.037700       0.000000       0.000000       0.147300       0.037700       0.000000       1.000000       0.348100       
3037.027200    0.041200       0.000000       0.000000       0.192800       0.041200       0.000000       1.000000       0.338300       
3037.179600    0.037800       0.000000       0.000000       0.169800       0.037800       0.000000       1.000000       0.341400       
3037.332000    0.040500       0.000000       0.000000       0.152500       0.040500       0.000000       1.000000       0.349000       
3037.484400    0.035500       0.000000       0.000000       0.122000       0.035500       0.000000       1.000000       0.355300       
3037.636800    0.034900       0.000000       0.000000       0.096700       0.034900       0.000000       1.000000       0.366000       
3037.789200    0.035300       0.000000       0.000000       0.067200       0.035300       0.000000       1.000000       0.383800       
3037.941600    0.039700       0.000000       0.000000       0.051500       0.039700       0.000000       1.000000       0.400600       
3038.094000    0.043900       0.000000       0.000000       0.063700       0.043900       0.000000       1.000000       0.394100       
3038.246400    0.046900       0.000000       0.000000       0.076700       0.046900       0.000000       1.000000       0.387800       
3038.398800    0.041000       0.000000       0.000000       0.061700       0.041000       0.000000       1.000000       0.393100       
3038.551200    0.037100       0.000000       0.000000       0.069800       0.037100       0.000000       1.000000       0.383700       
3038.703600    0.029100       0.000000       0.000000       0.056200       0.029100       0.000000       1.000000       0.387000       
3038.856000    0.033900       0.000000       0.000000       0.056900       0.033900       0.000000       1.000000       0.390700       
3039.008400    0.032200       0.000000       0.000000       0.039000       0.032200       0.000000       1.000000       0.407400       
3039.160800    0.036000       0.000000       0.000000       0.023100       0.036000       0.000000       1.000000       0.436000       
3039.313200    0.031000       0.000000       0.000000       0.025300       0.031000       0.000000       1.000000       0.427200       
3039.465600    0.033100       0.000000       0.000000       0.021800       0.033100       0.000000       1.000000       0.436200       
3039.618000    0.033900       0.000000       0.000000       0.024200       0.033900       0.000000       1.000000       0.431900       
3039.770400    0.040500       0.000000       0.000000       0.024900       0.040500       0.000000       1.000000       0.436300       
3039.922800    0.044200       0.000000       0.000000       0.041700       0.044200       0.000000       1.000000       0.414800       
3040.075200    0.045300       0.000000       0.000000       0.072200       0.045300       0.000000       1.000000       0.389400       
3040.227600    0.052300       0.000000       0.000000       0.052600       0.052300       0.000000       1.000000       0.410800       
3040.380000    0.054900       0.000000       0.000000       0.016300       0.054900       0.000000       1.000000       0.469600       
3040.532400    0.063300       0.000000       0.000000       0.005800       0.063300       0.000000       1.000000       0.526800       
