#-------------------------------------------------------------------------------------
~VERSION INFORMATION
#MNEM.UNIT                          DATA                            DESCRIPTION
#---- ----- -------------------------------------------- -----------------------------
VERS .          2.0                                      : CWLS Log ASCII Standard - VERSION 2.0
WRAP .          NO                                       : One Line per depth step
PROD .          CROCKER DATA PROCESSING                  : LAS Producer
PROG .          LAS Viewer v0                            : LAS Program name and version
CREA .          2019/04/03 21-02                         : LAS Creation date {YYYY/MM/DD hh-mm}
DLIS_CREA.          2009-Aug-25 10-09                        : DLIS Creation date and time {YYYY-MMM-DD hh-mm}
SOURCE.          WLC_PETRO_COMPUTED_OUTPUT_1.DLIS         : DLIS File Name
FILE-ID.          CPI_OUTPUT.logdata                       : File Identification Number
#-------------------------------------------------------------------------------------
~WELL INFORMATION
#MNEM.UNIT                          DATA                            DESCRIPTION
#---- ----- -------------------------------------------- -----------------------------
STRT .m         2788.92                                  : START DEPTH
STOP .m         3231.95                                  : STOP DEPTH
STEP .m         0.1524                                   : STEP
NULL .          -999.25                                  : NULL VALUE
COMP .          STATOILHYDRO                             : COMPANY
WELL .          15/9-F-15 C                              : WELL
FIELD.          VOLVE                                    : FIELD
LOC  .                                                   : LOCATION
CNTY .                                                   : COUNTY
STAT .                                                   : STATE
NATI .                                                   : COUNTRY
API  .                                                   : API NUMBER
UWI  .                                                   : UNIQUE WELL ID
SRVC .                                                   : SERVICE COMPANY
LATI .          058 26' 29.706" N    DMS                 : LATITUDE
LONG .          001 53' 15.149" E    DMS                 : LONGITUDE
GDAT .          MSL                                      : GeoDetic Datum
#-------------------------------------------------------------------------------------
~PARAMETER INFORMATION
#MNEM.UNIT                          DATA                            DESCRIPTION
#---- ----- -------------------------------------------- -----------------------------
RUN  .          MWD RUN 12-13                            : Run number
PDAT .          MSL                                      : Perm. Datum
#-------------------------------------------------------------------------------------
~CURVE INFORMATION
#MNEM.UNIT                          DATA                            DESCRIPTION
#---- ----- -------------------------------------------- -----------------------------
DEPTH.m                                                  : Measured Depth
BVW  .V/V                                                : 
CARB_FLAG.UNITLESS                                           : 
COAL_FLAG.UNITLESS                                           : 
KLOGH.mD                                                 : 
PHIF .V/V                                                : 
SAND_FLAG.UNITLESS                                           : 
SW   .V/V                                                : 
VSH  .V/V                                                : 
#--------------------------------------------------------------------------------------------------------------------------------------
#DEPTH          BVW            CARB_FLAG      COAL_FLAG      KLOGH          PHIF           SAND_FLAG      SW             VSH            
#--------------------------------------------------------------------------------------------------------------------------------------
~ASCII Log Data
# ...
2968.752000    0.047100       0.000000       0.000000       57.390800      0.052600       0.000000       0.895200       0.073600       
2968.904400    0.048100       0.000000       0.000000       83.951698      0.053100       0.000000       0.905800       0.055700       
2969.056800    0.051100       0.000000       0.000000       117.580803     0.058800       0.000000       0.869100       0.044500       
2969.209200    0.051600       0.000000       0.000000       131.617004     0.058300       0.000000       0.886000       0.038500       
2969.361600    0.050500       0.000000       0.000000       86.833603      0.054300       0.000000       0.930300       0.055100       
2969.514000    0.050100       0.000000       0.000000       68.388603      0.055200       0.000000       0.908900       0.067400       
2969.666400    0.050400       0.000000       0.000000       71.627098      0.056600       0.000000       0.890600       0.066400       
2969.818800    0.053200       0.000000       0.000000       102.415703     0.065900       0.000000       0.808500       0.057400       
2969.971200    0.052900       0.000000       0.000000       112.143700     0.062700       0.000000       0.844000       0.050200       
2970.123600    0.052800       0.000000       0.000000       109.281898     0.063700       0.000000       0.828900       0.052400       
2970.276000    0.051100       0.000000       0.000000       93.221497      0.057900       0.000000       0.881800       0.054900       
2970.428400    0.050400       0.000000       0.000000       88.131302      0.058800       0.000000       0.858200       0.058300       
2970.580800    0.048300       0.000000       0.000000       91.711998      0.053400       0.000000       0.905100       0.051700       
2970.733200    0.048100       0.000000       0.000000       133.919800     0.055000       0.000000       0.874700       0.034800       
2970.885600    0.048600       0.000000       0.000000       166.792999     0.058100       0.000000       0.836200       0.027000       
2971.038000    0.048800       0.000000       0.000000       149.121597     0.059300       0.000000       0.822300       0.033400       
2971.190400    0.048400       0.000000       0.000000       99.984299      0.056800       0.000000       0.851600       0.050500       
2971.342800    0.047800       0.000000       0.000000       79.208504      0.056400       0.000000       0.847200       0.061300       
2971.495200    0.046800       0.000000       0.000000       81.746597      0.056300       0.000000       0.831700       0.059700       
2971.647600    0.046100       0.000000       0.000000       85.973198      0.056100       0.000000       0.821500       0.057200       
2971.800000    0.045500       0.000000       0.000000       83.882004      0.053500       0.000000       0.850100       0.056000       
2971.952400    0.045600       0.000000       0.000000       85.144501      0.053300       0.000000       0.856700       0.055100       
2972.104800    0.045900       0.000000       0.000000       84.652496      0.053700       0.000000       0.854000       0.055800       
2972.257200    0.044400       0.000000       0.000000       80.144897      0.049500       0.000000       0.897300       0.054700       
2972.409600    0.042600       0.000000       0.000000       63.455200      0.047200       0.000000       0.902700       0.063900       
2972.562000    0.041100       0.000000       0.000000       54.696499      0.046900       0.000000       0.875900       0.070800       
2972.714400    0.040700       0.000000       0.000000       64.536598      0.049900       0.000000       0.814700       0.065500       
2972.866800    0.039700       0.000000       0.000000       71.396202      0.049700       0.000000       0.799000       0.060400       
2973.019200    0.040200       0.000000       0.000000       79.184097      0.052500       0.000000       0.765600       0.057900       
2973.171600    0.040600       0.000000       0.000000       73.500603      0.052600       0.000000       0.772800       0.061600       
2973.324000    0.040100       0.000000       0.000000       59.861599      0.049200       0.000000       0.815000       0.068500       
2973.476400    0.039100       0.000000       0.000000       51.089199      0.045000       0.000000       0.869400       0.072400       
2973.628800    0.039400       0.000000       0.000000       43.424702      0.045000       0.000000       0.874200       0.080300       
2973.781200    0.039800       0.000000       0.000000       52.790401      0.046000       0.000000       0.865600       0.071700       
2973.933600    0.039600       0.000000       0.000000       65.982399      0.044400       0.000000       0.891400       0.059500       
2974.086000    0.041300       0.000000       0.000000       56.893700      0.047500       0.000000       0.869500       0.069400       
2974.238400    0.043900       0.000000       0.000000       37.422901      0.045500       0.000000       0.964100       0.087900       
2974.390800    0.044500       0.000000       0.000000       14.826100      0.044500       0.000000       1.000000       0.131700       
2974.543200    0.052200       0.000000       0.000000       4.540200       0.052200       0.000000       1.000000       0.195600       
2974.695600    0.067100       0.000000       0.000000       1.683400       0.067100       0.000000       1.000000       0.256800       
2974.848000    0.074100       0.000000       0.000000       1.527500       0.074100       0.000000       1.000000       0.267600       
2975.000400    0.073000       0.000000       0.000000       1.744400       0.073000       0.000000       1.000000       0.260200       
2975.152800    0.035000       0.000000       0.000000       1.112700       0.035000       0.000000       1.000000       0.248200       
2975.305200    0.027700       0.000000       0.000000       0.465800       0.027700       0.000000       1.000000       0.283700       
2975.457600    0.026200       0.000000       0.000000       0.537700       0.026200       0.000000       1.000000       0.275400       
2975.610000    0.023900       0.000000       0.000000       0.455700       0.023900       0.000000       1.000000       0.281400       
2975.762400    0.026200       0.000000       0.000000       0.618100       0.026200       0.000000       1.000000       0.268800       
2975.914800    0.025000       0.000000       0.000000       0.531500       0.025000       0.000000       1.000000       0.275000       
2976.067200    0.061100       0.000000       0.000000       1.166200       0.064300       0.000000       0.951000       0.272000       
2976.219600    0.059700       0.000000       0.000000       1.519700       0.061500       0.000000       0.970900       0.256700       
2976.372000    0.059600       0.000000       0.000000       1.924000       0.061900       0.000000       0.963000       0.245700       
2976.524400    0.027200       0.000000       0.000000       0.799800       0.027200       0.000000       1.000000       0.257200       
2976.676800    0.028200       0.000000       0.000000       0.555500       0.028200       0.000000       1.000000       0.275600       
2976.829200    0.032400       0.000000       0.000000       0.328700       0.032400       0.000000       1.000000       0.304700       
2976.981600    0.027300       0.000000       0.000000       0.317000       0.027300       0.000000       1.000000       0.301900       
2977.134000    0.035000       0.000000       0.000000       0.375500       0.035000       0.000000       1.000000       0.300600       
2977.286400    0.035000       0.000000       0.000000       0.600600       0.035000       0.000000       1.000000       0.278000       
2977.438800    0.037300       0.000000       0.000000       0.896500       0.037300       0.000000       1.000000       0.260700       
2977.591200    0.033900       0.000000       0.000000       1.015400       0.033900       0.000000       1.000000       0.251700       
