#-------------------------------------------------------------------------------------
~VERSION INFORMATION
#MNEM.UNIT                          DATA                            DESCRIPTION
#---- ----- -------------------------------------------- -----------------------------
VERS .          2.0                                      : CWLS Log ASCII Standard - VERSION 2.0
WRAP .          NO                                       : One Line per depth step
PROD .          CROCKER DATA PROCESSING                  : LAS Producer
PROG .          LAS Viewer v0                            : LAS Program name and version
CREA .          2019/04/03 21-02                         : LAS Creation date {YYYY/MM/DD hh-mm}
DLIS_CREA.          2009-Aug-25 10-09                        : DLIS Creation date and time {YYYY-MMM-DD hh-mm}
SOURCE.          WLC_PETRO_COMPUTED_OUTPUT_1.DLIS         : DLIS File Name
FILE-ID.          CPI_OUTPUT.logdata                       : File Identification Number
#-------------------------------------------------------------------------------------
~WELL INFORMATION
#MNEM.UNIT                          DATA                            DESCRIPTION
#---- ----- -------------------------------------------- -----------------------------
STRT .m         2788.92                                  : START DEPTH
STOP .m         3231.95                                  : STOP DEPTH
STEP .m         0.1524                                   : STEP
NULL .          -999.25                                  : NULL VALUE
COMP .          STATOILHYDRO                             : COMPANY
WELL .          15/9-F-15 C                              : WELL
FIELD.          VOLVE                                    : FIELD
LOC  .                                                   : LOCATION
CNTY .                                                   : COUNTY
STAT .                                                   : STATE
NATI .                                                   : COUNTRY
API  .                                                   : API NUMBER
UWI  .                                                   : UNIQUE WELL ID
SRVC .                                                   : SERVICE COMPANY
LATI .          058 26' 29.706" N    DMS                 : LATITUDE
LONG .          001 53' 15.149" E    DMS                 : LONGITUDE
GDAT .          MSL                                      : GeoDetic Datum
#-------------------------------------------------------------------------------------
~PARAMETER INFORMATION
#MNEM.UNIT                          DATA                            DESCRIPTION
#---- ----- -------------------------------------------- -----------------------------
RUN  .          MWD RUN 12-13                            : Run number
PDAT .          MSL                                      : Perm. Datum
#-------------------------------------------------------------------------------------
~CURVE INFORMATION
#MNEM.UNIT                          DATA                            DESCRIPTION
#---- ----- -------------------------------------------- -----------------------------
DEPTH.m                                                  : Measured Depth
BVW  .V/V                                                : 
CARB_FLAG.UNITLESS                                           : 
COAL_FLAG.UNITLESS                                           : 
KLOGH.mD                                                 : 
PHIF .V/V                                                : 
SAND_FLAG.UNITLESS                                           : 
SW   .V/V                                                : 
VSH  .V/V                                                : 
#--------------------------------------------------------------------------------------------------------------------------------------
#DEPTH          BVW            CARB_FLAG      COAL_FLAG      KLOGH          PHIF           SAND_FLAG      SW             VSH            
#--------------------------------------------------------------------------------------------------------------------------------------
~ASCII Log Data
# ...
3085.642800    0.084400       0.000000       0.000000       0.003800       0.084400       0.000000       1.000000       0.566400       
3085.795200    0.082100       0.000000       0.000000       0.002700       0.082100       0.000000       1.000000       0.580800       
3085.947600    0.081700       0.000000       0.000000       0.001100       0.081700       0.000000       1.000000       0.624700       
3086.100000    0.080200       0.000000       0.000000       0.001000       0.080200       0.000000       1.000000       0.655000       
3086.252400    0.079200       0.000000       0.000000       0.001000       0.079200       0.000000       1.000000       0.660800       
3086.404800    0.076600       0.000000       0.000000       0.001000       0.076600       0.000000       1.000000       0.661800       
3086.557200    0.077100       0.000000       0.000000       0.001000       0.077100       0.000000       1.000000       0.662200       
3086.709600    0.077700       0.000000       0.000000       0.001000       0.077700       0.000000       1.000000       0.666900       
3086.862000    0.082300       0.000000       0.000000       0.001000       0.082300       0.000000       1.000000       0.658900       
3087.014400    0.087700       0.000000       0.000000       0.001000       0.087700       0.000000       1.000000       0.647300       
3087.166800    0.095300       0.000000       0.000000       0.001100       0.095300       0.000000       1.000000       0.634900       
3087.319200    0.095300       0.000000       0.000000       0.001000       0.095300       0.000000       1.000000       0.639800       
3087.471600    0.094900       0.000000       0.000000       0.001000       0.094900       0.000000       1.000000       0.652400       
3087.624000    0.084200       0.000000       0.000000       0.001000       0.084200       0.000000       1.000000       0.655300       
3087.776400    0.075900       0.000000       0.000000       0.001300       0.075900       0.000000       1.000000       0.610100       
3087.928800    0.066300       0.000000       0.000000       0.003700       0.066300       0.000000       1.000000       0.551700       
3088.081200    0.071800       0.000000       0.000000       0.007000       0.071800       0.000000       1.000000       0.525400       
3088.233600    0.083300       0.000000       0.000000       0.007000       0.083300       0.000000       1.000000       0.535700       
3088.386000    0.089100       0.000000       0.000000       0.005800       0.089100       0.000000       1.000000       0.550200       
3088.538400    0.092000       0.000000       0.000000       0.005900       0.092000       0.000000       1.000000       0.551300       
3088.690800    0.087100       0.000000       0.000000       0.003800       0.087100       0.000000       1.000000       0.568500       
3088.843200    0.084700       0.000000       0.000000       0.002500       0.084700       0.000000       1.000000       0.587500       
3088.995600    0.081200       0.000000       0.000000       0.001800       0.081200       0.000000       1.000000       0.599400       
3089.148000    0.082700       0.000000       0.000000       0.001600       0.082700       0.000000       1.000000       0.605700       
3089.300400    0.081800       0.000000       0.000000       0.001700       0.081800       0.000000       1.000000       0.601900       
3089.452800    0.079200       0.000000       0.000000       0.001400       0.079200       0.000000       1.000000       0.610800       
3089.605200    0.077700       0.000000       0.000000       0.001700       0.077700       0.000000       1.000000       0.598300       
3089.757600    0.081000       0.000000       0.000000       0.001500       0.081000       0.000000       1.000000       0.609500       
3089.910000    0.084900       0.000000       0.000000       0.001400       0.084900       0.000000       1.000000       0.614900       
3090.062400    0.077300       0.000000       0.000000       0.001300       0.077300       0.000000       1.000000       0.611300       
3090.214800    0.075100       0.000000       0.000000       0.001600       0.075100       0.000000       1.000000       0.600900       
3090.367200    0.065700       0.000000       0.000000       0.001800       0.065700       0.000000       1.000000       0.586800       
3090.519600    0.070700       0.000000       0.000000       0.002300       0.070700       0.000000       1.000000       0.578700       
3090.672000    0.062400       0.000000       0.000000       0.002800       0.062400       0.000000       1.000000       0.561700       
3090.824400    0.065800       0.000000       0.000000       0.003600       0.065800       0.000000       1.000000       0.551500       
3090.976800    0.059900       0.000000       0.000000       0.003300       0.059900       0.000000       1.000000       0.551000       
3091.129200    0.061000       0.000000       0.000000       0.003500       0.061000       0.000000       1.000000       0.549000       
3091.281600    0.063900       0.000000       0.000000       0.003400       0.063900       0.000000       1.000000       0.553600       
3091.434000    0.066700       0.000000       0.000000       0.002800       0.066700       0.000000       1.000000       0.564500       
3091.586400    0.063100       0.000000       0.000000       0.001000       0.063100       0.000000       1.000000       0.635800       
3091.738800    0.052900       0.000000       0.000000       0.001000       0.052900       0.000000       1.000000       0.709700       
3091.891200    0.047900       0.000000       0.000000       0.001000       0.047900       0.000000       1.000000       0.773300       
3092.043600    0.046600       0.000000       0.000000       0.001000       0.046600       0.000000       1.000000       0.752800       
3092.196000    0.044500       0.000000       0.000000       0.001000       0.044500       0.000000       1.000000       0.671100       
3092.348400    0.040000       0.000000       0.000000       0.001000       0.040000       0.000000       1.000000       0.606600       
3092.500800    0.037700       0.000000       0.000000       0.001000       0.037700       0.000000       1.000000       0.591800       
3092.653200    0.036800       0.000000       0.000000       0.001000       0.036800       0.000000       1.000000       0.624100       
3092.805600    0.041500       0.000000       0.000000       0.001000       0.041500       0.000000       1.000000       0.670300       
3092.958000    0.049500       0.000000       0.000000       0.001000       0.049500       0.000000       1.000000       0.733500       
3093.110400    0.055600       0.000000       0.000000       0.001000       0.055600       0.000000       1.000000       0.788200       
3093.262800    0.052300       0.000000       0.000000       0.001000       0.052300       0.000000       1.000000       0.780000       
3093.415200    0.039100       0.000000       0.000000       0.001000       0.039100       0.000000       1.000000       0.670300       
3093.567600    0.033500       0.000000       0.000000       0.002800       0.033500       0.000000       1.000000       0.535300       
3093.720000    0.032200       0.000000       0.000000       0.053000       0.032200       0.000000       1.000000       0.392600       
3093.872400    0.035100       0.000000       0.000000       0.145500       0.035100       0.000000       1.000000       0.346500       
3094.024800    0.027500       0.000000       0.000000       0.129400       0.027500       0.000000       1.000000       0.345400       
3094.177200    0.021700       0.000000       0.000000       0.070700       0.021700       0.000000       1.000000       0.369300       
3094.329600    0.026200       0.000000       0.000000       0.099500       0.026200       0.000000       1.000000       0.356800       
3094.482000    0.028700       0.000000       0.000000       0.166300       0.028700       0.000000       1.000000       0.334300       
