#-------------------------------------------------------------------------------------
~VERSION INFORMATION
#MNEM.UNIT                          DATA                            DESCRIPTION
#---- ----- -------------------------------------------- -----------------------------
VERS .          2.0                                      : CWLS Log ASCII Standard - VERSION 2.0
WRAP .          NO                                       : One Line per depth step
PROD .          CROCKER DATA PROCESSING                  : LAS Producer
PROG .          LAS Viewer v0                            : LAS Program name and version
CREA .          2019/04/03 21-02                         : LAS Creation date {YYYY/MM/DD hh-mm}
DLIS_CREA.          2009-Aug-25 10-09                        : DLIS Creation date and time {YYYY-MMM-DD hh-mm}
SOURCE.          WLC_PETRO_COMPUTED_OUTPUT_1.DLIS         : DLIS File Name
FILE-ID.          CPI_OUTPUT.logdata                       : File Identification Number
#-------------------------------------------------------------------------------------
~WELL INFORMATION
#MNEM.UNIT                          DATA                            DESCRIPTION
#---- ----- -------------------------------------------- -----------------------------
STRT .m         2788.92                                  : START DEPTH
STOP .m         3231.95                                  : STOP DEPTH
STEP .m         0.1524                                   : STEP
NULL .          -999.25                                  : NULL VALUE
COMP .          STATOILHYDRO                             : COMPANY
WELL .          15/9-F-15 C                              : WELL
FIELD.          VOLVE                                    : FIELD
LOC  .                                                   : LOCATION
CNTY .                                                   : COUNTY
STAT .                                                   : STATE
NATI .                                                   : COUNTRY
API  .                                                   : API NUMBER
UWI  .                                                   : UNIQUE WELL ID
SRVC .                                                   : SERVICE COMPANY
LATI .          058 26' 29.706" N    DMS                 : LATITUDE
LONG .          001 53' 15.149" E    DMS                 : LONGITUDE
GDAT .          MSL                                      : GeoDetic Datum
#-------------------------------------------------------------------------------------
~PARAMETER INFORMATION
#MNEM.UNIT                          DATA                            DESCRIPTION
#---- ----- -------------------------------------------- -----------------------------
RUN  .          MWD RUN 12-13                            : Run number
PDAT .          MSL                                      : Perm. Datum
#-------------------------------------------------------------------------------------
~CURVE INFORMATION
#MNEM.UNIT                          DATA                            DESCRIPTION
#---- ----- -------------------------------------------- -----------------------------
DEPTH.m                                                  : Measured Depth
BVW  .V/V                                                : 
CARB_FLAG.UNITLESS                                           : 
COAL_FLAG.UNITLESS                                           : 
KLOGH.mD                                                 : 
PHIF .V/V                                                : 
SAND_FLAG.UNITLESS                                           : 
SW   .V/V                                                : 
VSH  .V/V                                                : 
#--------------------------------------------------------------------------------------------------------------------------------------
#DEPTH          BVW            CARB_FLAG      COAL_FLAG      KLOGH          PHIF           SAND_FLAG      SW             VSH            
#--------------------------------------------------------------------------------------------------------------------------------------
~ASCII Log Data
# ...
2905.810800    -999.250000    0.000000       -999.250000    -999.250000    -999.250000    1.000000       -999.250000    -999.250000    
2905.963200    -999.250000    0.000000       -999.250000    -999.250000    -999.250000    1.000000       -999.250000    -999.250000    
2906.115600    -999.250000    0.000000       -999.250000    -999.250000    -999.250000    1.000000       -999.250000    -999.250000    
2906.268000    -999.250000    0.000000       -999.250000    -999.250000    -999.250000    1.000000       -999.250000    -999.250000    
2906.420400    -999.250000    0.000000       -999.250000    -999.250000    -999.250000    1.000000       -999.250000    -999.250000    
2906.572800    -999.250000    0.000000       -999.250000    -999.250000    -999.250000    1.000000       -999.250000    -999.250000    
2906.725200    -999.250000    0.000000       -999.250000    -999.250000    -999.250000    1.000000       -999.250000    -999.250000    
2906.877600    -999.250000    0.000000       -999.250000    -999.250000    -999.250000    1.000000       -999.250000    -999.250000    
2907.030000    -999.250000    0.000000       -999.250000    -999.250000    -999.250000    1.000000       -999.250000    -999.250000    
2907.182400    -999.250000    0.000000       -999.250000    -999.250000    -999.250000    1.000000       -999.250000    -999.250000    
2907.334800    -999.250000    0.000000       -999.250000    -999.250000    -999.250000    1.000000       -999.250000    -999.250000    
2907.487200    -999.250000    0.000000       -999.250000    -999.250000    -999.250000    1.000000       -999.250000    -999.250000    
2907.639600    -999.250000    0.000000       -999.250000    -999.250000    -999.250000    1.000000       -999.250000    -999.250000    
2907.792000    -999.250000    0.000000       -999.250000    -999.250000    -999.250000    1.000000       -999.250000    -999.250000    
2907.944400    -999.250000    0.000000       -999.250000    -999.250000    -999.250000    1.000000       -999.250000    -999.250000    
2908.096800    -999.250000    0.000000       -999.250000    -999.250000    -999.250000    1.000000       -999.250000    -999.250000    
2908.249200    -999.250000    0.000000       -999.250000    -999.250000    -999.250000    1.000000       -999.250000    -999.250000    
2908.401600    -999.250000    0.000000       -999.250000    -999.250000    -999.250000    1.000000       -999.250000    -999.250000    
2908.554000    -999.250000    0.000000       -999.250000    -999.250000    -999.250000    1.000000       -999.250000    -999.250000    
2908.706400    -999.250000    0.000000       -999.250000    -999.250000    -999.250000    1.000000       -999.250000    -999.250000    
2908.858800    -999.250000    0.000000       -999.250000    -999.250000    -999.250000    1.000000       -999.250000    -999.250000    
2909.011200    -999.250000    0.000000       -999.250000    -999.250000    -999.250000    1.000000       -999.250000    -999.250000    
2909.163600    -999.250000    0.000000       -999.250000    -999.250000    -999.250000    1.000000       -999.250000    -999.250000    
2909.316000    -999.250000    0.000000       -999.250000    -999.250000    -999.250000    1.000000       -999.250000    -999.250000    
2909.468400    -999.250000    0.000000       -999.250000    -999.250000    -999.250000    1.000000       -999.250000    -999.250000    
2909.620800    -999.250000    0.000000       -999.250000    -999.250000    -999.250000    1.000000       -999.250000    -999.250000    
2909.773200    -999.250000    0.000000       -999.250000    -999.250000    -999.250000    1.000000       -999.250000    -999.250000    
2909.925600    -999.250000    0.000000       -999.250000    -999.250000    -999.250000    0.000000       -999.250000    -999.250000    
2910.078000    1.000000       0.000000       1.000000       0.001000       0.001000       0.000000       -999.250000    -999.250000    
2910.230400    0.009700       0.000000       0.000000       72122.851562   0.420600       0.000000       0.023100       0.056300       
2910.382800    1.000000       0.000000       1.000000       0.001000       0.001000       0.000000       1.000000       0.051400       
2910.535200    0.042500       0.000000       0.000000       33362.390625   0.390100       0.000000       0.109000       0.066400       
2910.687600    1.000000       0.000000       1.000000       0.001000       0.001000       0.000000       1.000000       0.067100       
2910.840000    1.000000       0.000000       1.000000       0.001000       0.001000       0.000000       1.000000       0.076000       
2910.992400    1.000000       0.000000       1.000000       0.001000       0.001000       0.000000       1.000000       0.061400       
2911.144800    1.000000       0.000000       1.000000       0.001000       0.001000       0.000000       1.000000       0.062600       
2911.297200    1.000000       0.000000       1.000000       0.001000       0.001000       0.000000       1.000000       0.057400       
2911.449600    0.008500       0.000000       0.000000       3474.085938    0.255300       0.000000       0.033400       0.055700       
2911.602000    1.000000       0.000000       1.000000       0.001000       0.001000       0.000000       1.000000       0.049200       
2911.754400    0.008000       0.000000       0.000000       1617.409058    0.198600       0.000000       0.040300       0.042200       
2911.906800    -999.250000    0.000000       0.000000       -999.250000    -999.250000    1.000000       -999.250000    0.042400       
2912.059200    0.097200       0.000000       0.000000       165.529999     0.097200       0.000000       1.000000       0.062100       
2912.211600    0.067900       0.000000       0.000000       1959.649048    0.269600       0.000000       0.251800       0.096100       
2912.364000    0.008900       0.000000       0.000000       1800.431030    0.292200       0.000000       0.030500       0.120200       
2912.516400    0.009400       0.000000       0.000000       5340.672852    0.357300       0.000000       0.026300       0.125600       
2912.668800    0.009100       0.000000       0.000000       3417.322998    0.320100       0.000000       0.028500       0.114100       
2912.821200    0.069300       0.000000       0.000000       3392.459961    0.312800       0.000000       0.221400       0.108000       
2912.973600    0.116600       0.000000       0.000000       4858.812012    0.322400       0.000000       0.361500       0.099200       
2913.126000    0.127600       0.000000       0.000000       4638.268066    0.317800       0.000000       0.401600       0.097300       
2913.278400    0.125800       0.000000       0.000000       3788.408936    0.315000       0.000000       0.399300       0.104600       
2913.430800    0.120200       0.000000       0.000000       2461.427002    0.297500       0.000000       0.404000       0.109900       
2913.583200    0.114600       0.000000       0.000000       1876.666992    0.286300       0.000000       0.400200       0.113000       
2913.735600    0.112900       0.000000       0.000000       2926.504883    0.294000       0.000000       0.384100       0.098400       
2913.888000    0.112400       0.000000       0.000000       3618.952881    0.299700       0.000000       0.374800       0.093300       
2914.040400    0.113800       0.000000       0.000000       3308.587891    0.306900       0.000000       0.370700       0.104000       
2914.192800    0.116700       0.000000       0.000000       2140.699951    0.297600       0.000000       0.392200       0.116700       
2914.345200    0.116700       0.000000       0.000000       1620.078003    0.298600       0.000000       0.390900       0.131100       
2914.497600    0.113900       0.000000       0.000000       1502.095947    0.300600       0.000000       0.378900       0.136400       
2914.650000    0.111700       0.000000       0.000000       1283.140991    0.300300       0.000000       0.371800       0.143800       
