#-------------------------------------------------------------------------------------
~VERSION INFORMATION
#MNEM.UNIT                          DATA                            DESCRIPTION
#---- ----- -------------------------------------------- -----------------------------
VERS .          2.0                                      : CWLS Log ASCII Standard - VERSION 2.0
WRAP .          NO                                       : One Line per depth step
PROD .          CROCKER DATA PROCESSING                  : LAS Producer
PROG .          LAS Viewer v0                            : LAS Program name and version
CREA .          2019/04/03 21-02                         : LAS Creation date {YYYY/MM/DD hh-mm}
DLIS_CREA.          2009-Aug-25 10-09                        : DLIS Creation date and time {YYYY-MMM-DD hh-mm}
SOURCE.          WLC_PETRO_COMPUTED_OUTPUT_1.DLIS         : DLIS File Name
FILE-ID.          CPI_OUTPUT.logdata                       : File Identification Number
#-------------------------------------------------------------------------------------
~WELL INFORMATION
#MNEM.UNIT                          DATA                            DESCRIPTION
#---- ----- -------------------------------------------- -----------------------------
STRT .m         2788.92                                  : START DEPTH
STOP .m         3231.95                                  : STOP DEPTH
STEP .m         0.1524                                   : STEP
NULL .          -999.25                                  : NULL VALUE
COMP .          STATOILHYDRO                             : COMPANY
WELL .          15/9-F-15 C                              : WELL
FIELD.          VOLVE                                    : FIELD
LOC  .                                                   : LOCATION
CNTY .                                                   : COUNTY
STAT .                                                   : STATE
NATI .                                                   : COUNTRY
API  .                                                   : API NUMBER
UWI  .                                                   : UNIQUE WELL ID
SRVC .                                                   : SERVICE COMPANY
LATI .          058 26' 29.706" N    DMS                 : LATITUDE
LONG .          001 53' 15.149" E    DMS                 : LONGITUDE
GDAT .          MSL                                      : GeoDetic Datum
#-------------------------------------------------------------------------------------
~PARAMETER INFORMATION
#MNEM.UNIT                          DATA                            DESCRIPTION
#---- ----- -------------------------------------------- -----------------------------
RUN  .          MWD RUN 12-13                            : Run number
PDAT .          MSL                                      : Perm. Datum
#-------------------------------------------------------------------------------------
~CURVE INFORMATION
#MNEM.UNIT                          DATA                            DESCRIPTION
#---- ----- -------------------------------------------- -----------------------------
DEPTH.m                                                  : Measured Depth
BVW  .V/V                                                : 
CARB_FLAG.UNITLESS                                           : 
COAL_FLAG.UNITLESS                                           : 
KLOGH.mD                                                 : 
PHIF .V/V                                                : 
SAND_FLAG.UNITLESS                                           : 
SW   .V/V                                                : 
VSH  .V/V                                                : 
#--------------------------------------------------------------------------------------------------------------------------------------
#DEPTH          BVW            CARB_FLAG      COAL_FLAG      KLOGH          PHIF           SAND_FLAG      SW             VSH            
#--------------------------------------------------------------------------------------------------------------------------------------
~ASCII Log Data
# ...
3049.676400    0.054500       0.000000       0.000000       0.018400       0.054500       0.000000       1.000000       0.463400       
3049.828800    0.057500       0.000000       0.000000       0.023900       0.057500       0.000000       1.000000       0.453600       
3049.981200    0.050200       0.000000       0.000000       0.033400       0.050200       0.000000       1.000000       0.430900       
3050.133600    0.053100       0.000000       0.000000       0.038500       0.053100       0.000000       1.000000       0.426500       
3050.286000    0.055400       0.000000       0.000000       0.025400       0.055400       0.000000       1.000000       0.448800       
3050.438400    0.063900       0.000000       0.000000       0.031900       0.063900       0.000000       1.000000       0.445200       
3050.590800    0.060400       0.000000       0.000000       0.048000       0.060400       0.000000       1.000000       0.422400       
3050.743200    0.054500       0.000000       0.000000       0.071900       0.054500       0.000000       1.000000       0.397700       
3050.895600    0.046600       0.000000       0.000000       0.046600       0.046600       0.000000       1.000000       0.411600       
3051.048000    0.045700       0.000000       0.000000       0.024100       0.045700       0.000000       1.000000       0.442700       
3051.200400    0.040600       0.000000       0.000000       0.016100       0.040600       0.000000       1.000000       0.457500       
3051.352800    0.040300       0.000000       0.000000       0.022900       0.040300       0.000000       1.000000       0.440300       
3051.505200    0.043500       0.000000       0.000000       0.039100       0.043500       0.000000       1.000000       0.417300       
3051.657600    0.057700       0.000000       0.000000       0.033900       0.057700       0.000000       1.000000       0.436800       
3051.810000    0.073800       0.000000       0.000000       0.008700       0.073800       0.000000       1.000000       0.516800       
3051.962400    0.082500       0.000000       0.000000       0.001900       0.082500       0.000000       1.000000       0.597200       
3052.114800    0.085500       0.000000       0.000000       0.001000       0.085500       0.000000       1.000000       0.638600       
3052.267200    0.079000       0.000000       0.000000       0.001000       0.079000       0.000000       1.000000       0.642100       
3052.419600    0.078200       0.000000       0.000000       0.001000       0.078200       0.000000       1.000000       0.637900       
3052.572000    0.077500       0.000000       0.000000       0.001000       0.077500       0.000000       1.000000       0.629100       
3052.724400    0.083000       0.000000       0.000000       0.001000       0.083000       0.000000       1.000000       0.633200       
3052.876800    0.085800       0.000000       0.000000       0.001000       0.085800       0.000000       1.000000       0.640000       
3053.029200    0.084800       0.000000       0.000000       0.001000       0.084800       0.000000       1.000000       0.634700       
3053.181600    0.079700       0.000000       0.000000       0.001200       0.079700       0.000000       1.000000       0.616700       
3053.334000    0.076900       0.000000       0.000000       0.002100       0.076900       0.000000       1.000000       0.588000       
3053.486400    0.080600       0.000000       0.000000       0.002400       0.080600       0.000000       1.000000       0.585500       
3053.638800    0.082000       0.000000       0.000000       0.003200       0.082000       0.000000       1.000000       0.572400       
3053.791200    0.086300       0.000000       0.000000       0.005800       0.086300       0.000000       1.000000       0.547300       
3053.943600    0.088900       0.000000       0.000000       0.011500       0.088900       0.000000       1.000000       0.516600       
3054.096000    0.097400       0.000000       0.000000       0.017600       0.097400       0.000000       1.000000       0.503700       
3054.248400    0.097700       0.000000       0.000000       0.009800       0.097700       0.000000       1.000000       0.532200       
3054.400800    0.099200       0.000000       0.000000       0.007500       0.099200       0.000000       1.000000       0.546800       
3054.553200    0.094200       0.000000       0.000000       0.004700       0.094200       0.000000       1.000000       0.564200       
3054.705600    0.092200       0.000000       0.000000       0.003600       0.092200       0.000000       1.000000       0.575100       
3054.858000    0.089900       0.000000       0.000000       0.002400       0.089900       0.000000       1.000000       0.594000       
3055.010400    0.093100       0.000000       0.000000       0.001900       0.093100       0.000000       1.000000       0.607700       
3055.162800    0.089200       0.000000       0.000000       0.001000       0.089200       0.000000       1.000000       0.648900       
3055.315200    0.085900       0.000000       0.000000       0.001000       0.085900       0.000000       1.000000       0.678600       
3055.467600    0.072100       0.000000       0.000000       0.001000       0.072100       0.000000       1.000000       0.700300       
3055.620000    0.064200       0.000000       0.000000       0.001100       0.064200       0.000000       1.000000       0.607400       
3055.772400    0.051500       0.000000       0.000000       0.024000       0.051500       0.000000       1.000000       0.447900       
3055.924800    0.041400       0.000000       0.000000       0.604500       0.041400       0.000000       1.000000       0.283300       
3056.077200    0.030700       0.000000       0.000000       2.149900       0.030700       0.000000       1.000000       0.212600       
3056.229600    0.026700       0.000000       0.000000       1.477900       0.026700       0.000000       1.000000       0.227100       
3056.382000    0.027700       0.000000       0.000000       1.394900       0.027700       0.000000       1.000000       0.230700       
3056.534400    0.031900       0.000000       0.000000       2.748900       0.031900       0.000000       1.000000       0.201800       
3056.686800    0.032100       0.000000       0.000000       5.631100       0.032100       0.000000       1.000000       0.167300       
3056.839200    0.038200       0.000000       0.000000       8.996100       0.038200       0.000000       1.000000       0.150200       
3056.991600    0.040600       0.000000       0.000000       9.713300       0.040600       0.000000       1.000000       0.148600       
3057.144000    0.049300       0.000000       0.000000       13.742300      0.049300       0.000000       1.000000       0.139600       
3057.296400    0.049700       0.000000       0.000000       15.690600      0.049700       0.000000       1.000000       0.133600       
3057.448800    0.047400       0.000000       0.000000       8.068300       0.047400       0.000000       1.000000       0.163600       
3057.601200    0.039600       0.000000       0.000000       1.224900       0.039600       0.000000       1.000000       0.247600       
3057.753600    0.040700       0.000000       0.000000       0.387500       0.040700       0.000000       1.000000       0.304100       
3057.906000    0.041900       0.000000       0.000000       0.448000       0.041900       0.000000       1.000000       0.298200       
3058.058400    0.042400       0.000000       0.000000       1.491900       0.042400       0.000000       1.000000       0.240600       
3058.210800    0.030200       0.000000       0.000000       2.146900       0.030200       0.000000       1.000000       0.212200       
3058.363200    0.026900       0.000000       0.000000       1.784400       0.026900       0.000000       1.000000       0.218200       
3058.515600    0.027600       0.000000       0.000000       1.197500       0.027600       0.000000       1.000000       0.238100       
