#-------------------------------------------------------------------------------------
~VERSION INFORMATION
#MNEM.UNIT                          DATA                            DESCRIPTION
#---- ----- -------------------------------------------- -----------------------------
VERS .          2.0                                      : CWLS Log ASCII Standard - VERSION 2.0
WRAP .          NO                                       : One Line per depth step
PROD .          CROCKER DATA PROCESSING                  : LAS Producer
PROG .          LAS Viewer v0                            : LAS Program name and version
CREA .          2019/04/03 21-02                         : LAS Creation date {YYYY/MM/DD hh-mm}
DLIS_CREA.          2009-Aug-25 10-09                        : DLIS Creation date and time {YYYY-MMM-DD hh-mm}
SOURCE.          WLC_PETRO_COMPUTED_OUTPUT_1.DLIS         : DLIS File Name
FILE-ID.          CPI_OUTPUT.logdata                       : File Identification Number
#-------------------------------------------------------------------------------------
~WELL INFORMATION
#MNEM.UNIT                          DATA                            DESCRIPTION
#---- ----- -------------------------------------------- -----------------------------
STRT .m         2788.92                                  : START DEPTH
STOP .m         3231.95                                  : STOP DEPTH
STEP .m         0.1524                                   : STEP
NULL .          -999.25                                  : NULL VALUE
COMP .          STATOILHYDRO                             : COMPANY
WELL .          15/9-F-15 C                              : WELL
FIELD.          VOLVE                                    : FIELD
LOC  .                                                   : LOCATION
CNTY .                                                   : COUNTY
STAT .                                                   : STATE
NATI .                                                   : COUNTRY
API  .                                                   : API NUMBER
UWI  .                                                   : UNIQUE WELL ID
SRVC .                                                   : SERVICE COMPANY
LATI .          058 26' 29.706" N    DMS                 : LATITUDE
LONG .          001 53' 15.149" E    DMS                 : LONGITUDE
GDAT .          MSL                                      : GeoDetic Datum
#-------------------------------------------------------------------------------------
~PARAMETER INFORMATION
#MNEM.UNIT                          DATA                            DESCRIPTION
#---- ----- -------------------------------------------- -----------------------------
RUN  .          MWD RUN 12-13                            : Run number
PDAT .          MSL                                      : Perm. Datum
#-------------------------------------------------------------------------------------
~CURVE INFORMATION
#MNEM.UNIT                          DATA                            DESCRIPTION
#---- ----- -------------------------------------------- -----------------------------
DEPTH.m                                                  : Measured Depth
BVW  .V/V                                                : 
CARB_FLAG.UNITLESS                                           : 
COAL_FLAG.UNITLESS                                           : 
KLOGH.mD                                                 : 
PHIF .V/V                                                : 
SAND_FLAG.UNITLESS                                           : 
SW   .V/V                                                : 
VSH  .V/V                                                : 
#--------------------------------------------------------------------------------------------------------------------------------------
#DEPTH          BVW            CARB_FLAG      COAL_FLAG      KLOGH          PHIF           SAND_FLAG      SW             VSH            
#--------------------------------------------------------------------------------------------------------------------------------------
~ASCII Log Data
# ...
3130.600800    0.069000       0.000000       0.000000       27.375500      0.206400       1.000000       0.334400       0.246000       
3130.753200    0.066500       0.000000       0.000000       53.415699      0.206200       1.000000       0.322300       0.213600       
3130.905600    0.075300       0.000000       0.000000       85.181000      0.196200       1.000000       0.384000       0.182100       
3131.058000    0.063900       0.000000       0.000000       84.505798      0.184900       1.000000       0.345600       0.172400       
3131.210400    0.060100       0.000000       0.000000       67.168098      0.179900       1.000000       0.334300       0.179100       
3131.362800    0.060400       0.000000       0.000000       93.962799      0.192500       1.000000       0.313800       0.174100       
3131.515200    0.062100       0.000000       0.000000       97.886002      0.202200       1.000000       0.307100       0.180800       
3131.667600    0.068200       0.000000       0.000000       89.136597      0.221700       1.000000       0.307400       0.202600       
3131.820000    0.078400       0.000000       0.000000       49.830002      0.234400       1.000000       0.334500       0.241900       
3131.972400    0.082600       0.000000       0.000000       32.315800      0.233200       1.000000       0.354200       0.261800       
3132.124800    0.080600       0.000000       0.000000       36.482201      0.233700       1.000000       0.344700       0.256400       
3132.277200    0.072600       0.000000       0.000000       40.686901      0.228900       1.000000       0.317300       0.246900       
3132.429600    0.069900       0.000000       0.000000       40.695599      0.230200       1.000000       0.303400       0.248000       
3132.582000    0.069300       0.000000       0.000000       19.672400      0.216200       1.000000       0.320600       0.270700       
3132.734400    0.074900       0.000000       0.000000       3.776500       0.207200       1.000000       0.361400       0.342300       
3132.886800    0.080900       1.000000       0.000000       0.325800       0.129400       0.000000       0.625200       0.391300       
3133.039200    0.111100       1.000000       0.000000       0.846700       0.156100       0.000000       0.711600       0.369000       
3133.191600    0.127500       0.000000       0.000000       24.737900      0.234200       1.000000       0.544400       0.275600       
3133.344000    0.097600       0.000000       0.000000       260.234985     0.277000       1.000000       0.352300       0.200100       
3133.496400    0.071200       0.000000       0.000000       550.629578     0.293500       1.000000       0.242700       0.178600       
3133.648800    0.065600       0.000000       0.000000       542.564697     0.289400       1.000000       0.226800       0.175600       
3133.801200    0.065700       0.000000       0.000000       691.611084     0.284600       1.000000       0.231000       0.159600       
3133.953600    0.064000       0.000000       0.000000       582.716614     0.279400       1.000000       0.229100       0.163300       
3134.106000    0.066800       0.000000       0.000000       457.393311     0.272100       1.000000       0.245600       0.168500       
3134.258400    0.058200       0.000000       0.000000       350.283508     0.271700       1.000000       0.214200       0.181000       
3134.410800    0.059300       0.000000       0.000000       230.298203     0.248900       1.000000       0.238400       0.181000       
3134.563200    0.060800       0.000000       0.000000       176.835098     0.238700       1.000000       0.254700       0.184600       
3134.715600    0.063500       0.000000       0.000000       84.042297      0.222200       1.000000       0.285600       0.205900       
3134.868000    0.074700       0.000000       0.000000       38.415100      0.216000       1.000000       0.345800       0.238200       
3135.020400    0.085800       0.000000       0.000000       9.532500       0.203400       1.000000       0.421800       0.294200       
3135.172800    0.108800       0.000000       0.000000       1.038800       0.160200       1.000000       0.679000       0.362800       
3135.325200    0.131900       0.000000       0.000000       0.224200       0.131900       1.000000       1.000000       0.411700       
3135.477600    0.114500       0.000000       0.000000       0.089100       0.114500       1.000000       1.000000       0.440700       
3135.630000    0.083000       0.000000       0.000000       0.024700       0.083000       0.000000       1.000000       0.474500       
3135.782400    0.067900       0.000000       0.000000       0.007700       0.067900       0.000000       1.000000       0.517600       
3135.934800    0.077300       0.000000       0.000000       0.014400       0.077300       0.000000       1.000000       0.495500       
3136.087200    0.111400       0.000000       0.000000       0.289000       0.122900       1.000000       0.906500       0.391400       
3136.239600    0.095100       0.000000       0.000000       25.184299      0.203400       1.000000       0.467400       0.247400       
3136.392000    0.079200       0.000000       0.000000       277.372406     0.231600       1.000000       0.342000       0.156600       
3136.544400    0.070000       0.000000       0.000000       826.340881     0.245700       1.000000       0.284700       0.116500       
3136.696800    0.065800       0.000000       0.000000       1358.770020    0.255000       1.000000       0.258000       0.100700       
3136.849200    0.062600       0.000000       0.000000       1427.333008    0.253500       1.000000       0.246900       0.097100       
3137.001600    0.059000       0.000000       0.000000       891.066528     0.224400       1.000000       0.262800       0.093900       
3137.154000    0.055200       0.000000       0.000000       350.330200     0.179600       1.000000       0.307500       0.099200       
3137.306400    0.054300       1.000000       0.000000       96.288200      0.109300       0.000000       0.497100       0.098900       
3137.458800    0.063900       0.000000       0.000000       346.751709     0.183600       1.000000       0.348200       0.103200       
3137.611200    0.060100       0.000000       0.000000       735.710815     0.229300       1.000000       0.262200       0.107500       
3137.763600    0.060500       0.000000       0.000000       1111.725952    0.257000       1.000000       0.235500       0.112300       
3137.916000    0.061700       0.000000       0.000000       1391.416016    0.276400       1.000000       0.223200       0.118600       
3138.068400    0.064900       0.000000       0.000000       1627.357056    0.278800       1.000000       0.232600       0.113200       
3138.220800    0.060200       0.000000       0.000000       1873.239990    0.282600       1.000000       0.213000       0.109800       
3138.373200    0.057800       0.000000       0.000000       1568.088989    0.275800       1.000000       0.209600       0.112300       
3138.525600    0.055800       0.000000       0.000000       1467.052002    0.275900       1.000000       0.202200       0.115600       
3138.678000    0.055300       0.000000       0.000000       1169.598999    0.265500       1.000000       0.208100       0.117300       
3138.830400    0.051300       0.000000       0.000000       1210.300049    0.252600       1.000000       0.203300       0.104200       
3138.982800    0.044500       0.000000       0.000000       776.963623     0.225400       1.000000       0.197500       0.101400       
3139.135200    0.039900       0.000000       0.000000       490.691711     0.197700       1.000000       0.201600       0.099000       
3139.287600    0.035700       0.000000       0.000000       206.696304     0.148200       1.000000       0.241000       0.096700       
3139.440000    0.030400       1.000000       0.000000       75.082298      0.091300       0.000000       0.333000       0.095000       
