#-------------------------------------------------------------------------------------
~VERSION INFORMATION
#MNEM.UNIT                          DATA                            DESCRIPTION
#---- ----- -------------------------------------------- -----------------------------
VERS .          2.0                                      : CWLS Log ASCII Standard - VERSION 2.0
WRAP .          NO                                       : One Line per depth step
PROD .          CROCKER DATA PROCESSING                  : LAS Producer
PROG .          LAS Viewer v0                            : LAS Program name and version
CREA .          2019/04/03 21-02                         : LAS Creation date {YYYY/MM/DD hh-mm}
DLIS_CREA.          2009-Aug-25 10-09                        : DLIS Creation date and time {YYYY-MMM-DD hh-mm}
SOURCE.          WLC_PETRO_COMPUTED_OUTPUT_1.DLIS         : DLIS File Name
FILE-ID.          CPI_OUTPUT.logdata                       : File Identification Number
#-------------------------------------------------------------------------------------
~WELL INFORMATION
#MNEM.UNIT                          DATA                            DESCRIPTION
#---- ----- -------------------------------------------- -----------------------------
STRT .m         2788.92                                  : START DEPTH
STOP .m         3231.95                                  : STOP DEPTH
STEP .m         0.1524                                   : STEP
NULL .          -999.25                                  : NULL VALUE
COMP .          STATOILHYDRO                             : COMPANY
WELL .          15/9-F-15 C                              : WELL
FIELD.          VOLVE                                    : FIELD
LOC  .                                                   : LOCATION
CNTY .                                                   : COUNTY
STAT .                                                   : STATE
NATI .                                                   : COUNTRY
API  .                                                   : API NUMBER
UWI  .                                                   : UNIQUE WELL ID
SRVC .                                                   : SERVICE COMPANY
LATI .          058 26' 29.706" N    DMS                 : LATITUDE
LONG .          001 53' 15.149" E    DMS                 : LONGITUDE
GDAT .          MSL                                      : GeoDetic Datum
#-------------------------------------------------------------------------------------
~PARAMETER INFORMATION
#MNEM.UNIT                          DATA                            DESCRIPTION
#---- ----- -------------------------------------------- -----------------------------
RUN  .          MWD RUN 12-13                            : Run number
PDAT .          MSL                                      : Perm. Datum
#-------------------------------------------------------------------------------------
~CURVE INFORMATION
#MNEM.UNIT                          DATA                            DESCRIPTION
#---- ----- -------------------------------------------- -----------------------------
DEPTH.m                                                  : Measured Depth
BVW  .V/V                                                : 
CARB_FLAG.UNITLESS                                           : 
COAL_FLAG.UNITLESS                                           : 
KLOGH.mD                                                 : 
PHIF .V/V                                                : 
SAND_FLAG.UNITLESS                                           : 
SW   .V/V                                                : 
VSH  .V/V                                                : 
#--------------------------------------------------------------------------------------------------------------------------------------
#DEPTH          BVW            CARB_FLAG      COAL_FLAG      KLOGH          PHIF           SAND_FLAG      SW             VSH            
#--------------------------------------------------------------------------------------------------------------------------------------
~ASCII Log Data
# ...
3148.584000    0.041300       0.000000       0.000000       1784.186035    0.263200       1.000000       0.156900       0.094900       
3148.736400    0.044100       0.000000       0.000000       2019.625000    0.262700       1.000000       0.167700       0.088500       
3148.888800    0.046700       0.000000       0.000000       1599.162964    0.256600       1.000000       0.182200       0.094300       
3149.041200    0.054400       0.000000       0.000000       1317.505981    0.247900       1.000000       0.219300       0.096000       
3149.193600    0.070700       0.000000       0.000000       1223.432983    0.242700       1.000000       0.291200       0.094900       
3149.346000    0.096600       0.000000       0.000000       1105.885986    0.235500       1.000000       0.410200       0.093300       
3149.498400    0.112800       0.000000       0.000000       1182.379028    0.233000       1.000000       0.484200       0.087900       
3149.650800    0.116900       0.000000       0.000000       1354.930054    0.235300       1.000000       0.496700       0.083400       
3149.803200    0.121600       0.000000       0.000000       1409.667969    0.231500       1.000000       0.525300       0.078100       
3149.955600    0.132000       0.000000       0.000000       1040.607056    0.232000       1.000000       0.569100       0.093200       
3150.108000    0.128700       0.000000       0.000000       957.207092     0.229000       1.000000       0.562200       0.094500       
3150.260400    0.132000       0.000000       0.000000       965.903625     0.236600       1.000000       0.557700       0.100900       
3150.412800    0.147400       0.000000       0.000000       1143.135986    0.236900       1.000000       0.622300       0.093000       
3150.565200    0.152600       0.000000       0.000000       1258.027954    0.247800       1.000000       0.616000       0.098000       
3150.717600    0.158600       0.000000       0.000000       658.011780     0.256500       1.000000       0.618100       0.137100       
3150.870000    0.159600       0.000000       0.000000       139.671600     0.262400       1.000000       0.608100       0.217200       
3151.022400    0.127700       0.000000       0.000000       35.164600      0.270500       1.000000       0.472200       0.290800       
3151.174800    0.111100       0.000000       0.000000       19.393400      0.269600       1.000000       0.411800       0.318800       
3151.327200    0.100500       0.000000       0.000000       36.689098      0.277700       1.000000       0.362000       0.295200       
3151.479600    0.098000       0.000000       0.000000       58.922901      0.274700       1.000000       0.356800       0.269700       
3151.632000    0.094900       0.000000       0.000000       63.066700      0.270500       1.000000       0.350700       0.262700       
3151.784400    0.092200       0.000000       0.000000       69.377800      0.278200       1.000000       0.331300       0.265000       
3151.936800    0.089600       0.000000       0.000000       48.509701      0.271100       1.000000       0.330500       0.275800       
3152.089200    0.087700       0.000000       0.000000       39.497398      0.267200       1.000000       0.328300       0.282400       
3152.241600    0.097100       0.000000       0.000000       31.401800      0.258200       1.000000       0.376200       0.285400       
3152.394000    0.136900       0.000000       0.000000       30.686701      0.242200       1.000000       0.565300       0.272300       
3152.546400    0.135700       0.000000       0.000000       43.567200      0.230600       1.000000       0.588700       0.245100       
3152.698800    0.126700       0.000000       0.000000       69.734703      0.229000       1.000000       0.553400       0.221000       
3152.851200    0.126200       0.000000       0.000000       113.959198     0.224600       1.000000       0.561900       0.193300       
3153.003600    0.139100       0.000000       0.000000       171.421906     0.230300       1.000000       0.604100       0.178700       
3153.156000    0.154200       0.000000       0.000000       169.267700     0.227600       1.000000       0.677700       0.176900       
3153.308400    0.160500       0.000000       0.000000       126.837402     0.219900       1.000000       0.729900       0.184000       
3153.460800    0.161900       0.000000       0.000000       119.997299     0.220200       1.000000       0.735200       0.187000       
3153.613200    0.161600       0.000000       0.000000       101.077400     0.214900       1.000000       0.751800       0.190500       
3153.765600    0.159500       0.000000       0.000000       100.584198     0.218700       1.000000       0.729400       0.194100       
3153.918000    0.155400       0.000000       0.000000       112.468803     0.219800       1.000000       0.706800       0.189700       
3154.070400    0.148100       0.000000       0.000000       154.639008     0.225500       1.000000       0.656800       0.179400       
3154.222800    0.141700       0.000000       0.000000       152.492401     0.221800       1.000000       0.639000       0.176800       
3154.375200    0.152700       0.000000       0.000000       162.384903     0.235400       1.000000       0.648800       0.185800       
3154.527600    0.157600       0.000000       0.000000       99.528900      0.226100       1.000000       0.697200       0.201200       
3154.680000    0.161800       0.000000       0.000000       55.857800      0.224300       1.000000       0.721300       0.227500       
3154.832400    0.163800       0.000000       0.000000       52.400299      0.234200       1.000000       0.699500       0.239400       
3154.984800    0.161600       0.000000       0.000000       22.726299      0.218400       1.000000       0.740000       0.265600       
3155.137200    0.163400       0.000000       0.000000       3.655600       0.217600       1.000000       0.750900       0.353100       
3155.289600    0.167100       0.000000       0.000000       0.349100       0.216800       1.000000       0.770900       0.465700       
3155.442000    0.173400       0.000000       0.000000       0.124100       0.210500       0.000000       0.823600       0.510100       
3155.594400    0.178300       0.000000       0.000000       0.861500       0.212800       1.000000       0.837900       0.418600       
3155.746800    0.177400       0.000000       0.000000       16.358900      0.217900       1.000000       0.814400       0.281000       
3155.899200    0.179800       0.000000       0.000000       126.824303     0.223300       1.000000       0.805200       0.187000       
3156.051600    0.182600       0.000000       0.000000       244.604599     0.221400       1.000000       0.825100       0.153600       
3156.204000    0.194800       0.000000       0.000000       257.293213     0.215600       1.000000       0.903600       0.146000       
3156.356400    0.199900       0.000000       0.000000       251.162506     0.211200       1.000000       0.946500       0.143300       
3156.508800    0.196600       0.000000       0.000000       228.755905     0.209400       1.000000       0.938700       0.146200       
3156.661200    0.194000       0.000000       0.000000       218.146194     0.212300       1.000000       0.913800       0.151100       
3156.813600    0.197400       0.000000       0.000000       212.462906     0.212400       1.000000       0.929200       0.152400       
3156.966000    0.198400       0.000000       0.000000       185.113007     0.204700       1.000000       0.969100       0.152200       
3157.118400    0.201500       0.000000       0.000000       195.016006     0.208400       1.000000       0.967000       0.153000       
3157.270800    0.200500       0.000000       0.000000       160.409897     0.208700       1.000000       0.960600       0.162700       
3157.423200    0.199800       0.000000       0.000000       141.152100     0.205600       1.000000       0.971700       0.166100       
