#-------------------------------------------------------------------------------------
~VERSION INFORMATION
#MNEM.UNIT                          DATA                            DESCRIPTION
#---- ----- -------------------------------------------- -----------------------------
VERS .          2.0                                      : CWLS Log ASCII Standard - VERSION 2.0
WRAP .          NO                                       : One Line per depth step
PROD .          CROCKER DATA PROCESSING                  : LAS Producer
PROG .          LAS Viewer v0                            : LAS Program name and version
CREA .          2019/04/03 21-02                         : LAS Creation date {YYYY/MM/DD hh-mm}
DLIS_CREA.          2009-Aug-25 10-09                        : DLIS Creation date and time {YYYY-MMM-DD hh-mm}
SOURCE.          WLC_PETRO_COMPUTED_OUTPUT_1.DLIS         : DLIS File Name
FILE-ID.          CPI_OUTPUT.logdata                       : File Identification Number
#-------------------------------------------------------------------------------------
~WELL INFORMATION
#MNEM.UNIT                          DATA                            DESCRIPTION
#---- ----- -------------------------------------------- -----------------------------
STRT .m         2788.92                                  : START DEPTH
STOP .m         3231.95                                  : STOP DEPTH
STEP .m         0.1524                                   : STEP
NULL .          -999.25                                  : NULL VALUE
COMP .          STATOILHYDRO                             : COMPANY
WELL .          15/9-F-15 C                              : WELL
FIELD.          VOLVE                                    : FIELD
LOC  .                                                   : LOCATION
CNTY .                                                   : COUNTY
STAT .                                                   : STATE
NATI .                                                   : COUNTRY
API  .                                                   : API NUMBER
UWI  .                                                   : UNIQUE WELL ID
SRVC .                                                   : SERVICE COMPANY
LATI .          058 26' 29.706" N    DMS                 : LATITUDE
LONG .          001 53' 15.149" E    DMS                 : LONGITUDE
GDAT .          MSL                                      : GeoDetic Datum
#-------------------------------------------------------------------------------------
~PARAMETER INFORMATION
#MNEM.UNIT                          DATA                            DESCRIPTION
#---- ----- -------------------------------------------- -----------------------------
RUN  .          MWD RUN 12-13                            : Run number
PDAT .          MSL                                      : Perm. Datum
#-------------------------------------------------------------------------------------
~CURVE INFORMATION
#MNEM.UNIT                          DATA                            DESCRIPTION
#---- ----- -------------------------------------------- -----------------------------
DEPTH.m                                                  : Measured Depth
BVW  .V/V                                                : 
CARB_FLAG.UNITLESS                                           : 
COAL_FLAG.UNITLESS                                           : 
KLOGH.mD                                                 : 
PHIF .V/V                                                : 
SAND_FLAG.UNITLESS                                           : 
SW   .V/V                                                : 
VSH  .V/V                                                : 
#--------------------------------------------------------------------------------------------------------------------------------------
#DEPTH          BVW            CARB_FLAG      COAL_FLAG      KLOGH          PHIF           SAND_FLAG      SW             VSH            
#--------------------------------------------------------------------------------------------------------------------------------------
~ASCII Log Data
# ...
2950.768800    0.063900       0.000000       0.000000       5.615900       0.075500       0.000000       0.846600       0.206100       
2950.921200    0.063500       0.000000       0.000000       6.971200       0.078900       0.000000       0.804900       0.198600       
2951.073600    0.061500       0.000000       0.000000       5.775400       0.080700       0.000000       0.762900       0.209300       
2951.226000    0.063400       0.000000       0.000000       4.753600       0.082300       0.000000       0.770600       0.220200       
2951.378400    0.063600       0.000000       0.000000       4.285500       0.084800       0.000000       0.749700       0.227400       
2951.530800    0.066900       0.000000       0.000000       3.977600       0.087500       0.000000       0.764400       0.233400       
2951.683200    0.069600       0.000000       0.000000       3.153100       0.090600       0.000000       0.768100       0.247400       
2951.835600    0.071200       0.000000       0.000000       2.316500       0.087000       0.000000       0.817900       0.259000       
2951.988000    0.067700       0.000000       0.000000       3.030700       0.085500       0.000000       0.791500       0.244800       
2952.140400    0.062900       0.000000       0.000000       7.041000       0.077300       0.000000       0.813900       0.196700       
2952.292800    0.059200       0.000000       0.000000       14.446000      0.079800       0.000000       0.741500       0.164300       
2952.445200    0.060200       0.000000       0.000000       13.767400      0.081600       0.000000       0.737400       0.168300       
2952.597600    0.062500       0.000000       0.000000       11.637900      0.086200       0.000000       0.725000       0.180400       
2952.750000    0.061200       0.000000       0.000000       12.577200      0.081900       0.000000       0.747900       0.172800       
2952.902400    0.057300       0.000000       0.000000       17.087601      0.076400       0.000000       0.749700       0.153200       
2953.054800    0.056800       0.000000       0.000000       18.304199      0.074700       0.000000       0.760100       0.148400       
2953.207200    0.058500       0.000000       0.000000       13.504600      0.075200       0.000000       0.778600       0.163400       
2953.359600    0.057700       0.000000       0.000000       10.490800      0.069300       0.000000       0.832400       0.170400       
2953.512000    0.025900       0.000000       0.000000       3.873300       0.025900       0.000000       1.000000       0.179900       
2953.664400    0.028300       0.000000       0.000000       3.195000       0.028300       0.000000       1.000000       0.191400       
2953.816800    0.056000       0.000000       0.000000       6.592500       0.066600       0.000000       0.840600       0.190400       
2953.969200    0.057300       0.000000       0.000000       11.341000      0.079900       0.000000       0.717200       0.176000       
2954.121600    0.056800       0.000000       0.000000       17.552900      0.080200       0.000000       0.708100       0.155200       
2954.274000    0.055600       0.000000       0.000000       23.611200      0.081200       0.000000       0.685400       0.141800       
2954.426400    0.054600       0.000000       0.000000       32.474300      0.079500       0.000000       0.687300       0.124900       
2954.578800    0.054800       0.000000       0.000000       43.550400      0.081800       0.000000       0.669300       0.112900       
2954.731200    0.055100       0.000000       0.000000       38.217602      0.082700       0.000000       0.666300       0.119900       
2954.883600    0.053400       0.000000       0.000000       25.314800      0.076100       0.000000       0.702500       0.133900       
2955.036000    0.051600       0.000000       0.000000       18.961800      0.070500       0.000000       0.732600       0.142900       
2955.188400    0.051300       0.000000       0.000000       17.757299      0.070400       0.000000       0.728300       0.146000       
2955.340800    0.052300       0.000000       0.000000       15.917300      0.071500       0.000000       0.731400       0.152300       
2955.493200    0.053300       0.000000       0.000000       11.901800      0.073400       0.000000       0.726000       0.168000       
2955.645600    0.053100       0.000000       0.000000       9.936700       0.071900       0.000000       0.737900       0.175300       
2955.798000    0.053600       0.000000       0.000000       6.841800       0.071200       0.000000       0.753600       0.192700       
2955.950400    0.054600       0.000000       0.000000       7.035300       0.071800       0.000000       0.760500       0.191900       
2956.102800    0.054600       0.000000       0.000000       3.518100       0.070200       0.000000       0.779000       0.223900       
2956.255200    0.056300       0.000000       0.000000       1.295700       0.068800       0.000000       0.819000       0.270900       
2956.407600    0.024900       0.000000       0.000000       0.034800       0.024900       0.000000       1.000000       0.406400       
2956.560000    -999.250000    0.000000       0.000000       -999.250000    -999.250000    0.000000       -999.250000    0.532000       
2956.712400    0.040200       0.000000       0.000000       0.002300       0.040200       0.000000       1.000000       0.550400       
2956.864800    0.080900       0.000000       0.000000       0.059300       0.092000       0.000000       0.879800       0.440300       
2957.017200    0.069700       0.000000       0.000000       1.362800       0.098300       0.000000       0.708700       0.294700       
2957.169600    0.063200       0.000000       0.000000       7.986000       0.091300       0.000000       0.692600       0.203100       
2957.322000    0.059900       0.000000       0.000000       17.439600      0.086700       0.000000       0.690900       0.161300       
2957.474400    0.059500       0.000000       0.000000       37.516701      0.092500       0.000000       0.642700       0.129500       
2957.626800    0.059800       0.000000       0.000000       46.119202      0.108800       0.000000       0.549600       0.134100       
2957.779200    0.055300       0.000000       0.000000       33.892101      0.087200       0.000000       0.634200       0.129800       
2957.931600    0.056900       0.000000       0.000000       36.086300      0.089800       0.000000       0.633700       0.129000       
2958.084000    0.055700       0.000000       0.000000       42.744801      0.079200       0.000000       0.703300       0.111400       
2958.236400    0.054400       0.000000       0.000000       51.051601      0.072400       0.000000       0.752600       0.096800       
2958.388800    0.055500       0.000000       0.000000       66.027397      0.078900       0.000000       0.703400       0.090200       
2958.541200    0.053000       0.000000       0.000000       46.643799      0.072600       0.000000       0.729400       0.101400       
2958.693600    0.050400       0.000000       0.000000       24.164801      0.066900       0.000000       0.754200       0.128000       
2958.846000    0.050200       0.000000       0.000000       15.034300      0.066000       0.000000       0.761100       0.150100       
2958.998400    0.049500       0.000000       0.000000       13.609700      0.058900       0.000000       0.840500       0.148600       
2959.150800    0.045600       0.000000       0.000000       25.548500      0.061900       0.000000       0.736300       0.120900       
2959.303200    0.044100       0.000000       0.000000       33.784100      0.063000       0.000000       0.699800       0.108300       
2959.455600    0.045800       0.000000       0.000000       40.730000      0.066400       0.000000       0.689800       0.102300       
2959.608000    0.049600       0.000000       0.000000       40.817902      0.063000       0.000000       0.787100       0.099200       
