#-------------------------------------------------------------------------------------
~VERSION INFORMATION
#MNEM.UNIT                          DATA                            DESCRIPTION
#---- ----- -------------------------------------------- -----------------------------
VERS .          2.0                                      : CWLS Log ASCII Standard - VERSION 2.0
WRAP .          NO                                       : One Line per depth step
PROD .          CROCKER DATA PROCESSING                  : LAS Producer
PROG .          LAS Viewer v0                            : LAS Program name and version
CREA .          2019/04/03 21-02                         : LAS Creation date {YYYY/MM/DD hh-mm}
DLIS_CREA.          2009-Aug-25 10-09                        : DLIS Creation date and time {YYYY-MMM-DD hh-mm}
SOURCE.          WLC_PETRO_COMPUTED_OUTPUT_1.DLIS         : DLIS File Name
FILE-ID.          CPI_OUTPUT.logdata                       : File Identification Number
#-------------------------------------------------------------------------------------
~WELL INFORMATION
#MNEM.UNIT                          DATA                            DESCRIPTION
#---- ----- -------------------------------------------- -----------------------------
STRT .m         2788.92                                  : START DEPTH
STOP .m         3231.95                                  : STOP DEPTH
STEP .m         0.1524                                   : STEP
NULL .          -999.25                                  : NULL VALUE
COMP .          STATOILHYDRO                             : COMPANY
WELL .          15/9-F-15 C                              : WELL
FIELD.          VOLVE                                    : FIELD
LOC  .                                                   : LOCATION
CNTY .                                                   : COUNTY
STAT .                                                   : STATE
NATI .                                                   : COUNTRY
API  .                                                   : API NUMBER
UWI  .                                                   : UNIQUE WELL ID
SRVC .                                                   : SERVICE COMPANY
LATI .          058 26' 29.706" N    DMS                 : LATITUDE
LONG .          001 53' 15.149" E    DMS                 : LONGITUDE
GDAT .          MSL                                      : GeoDetic Datum
#-------------------------------------------------------------------------------------
~PARAMETER INFORMATION
#MNEM.UNIT                          DATA                            DESCRIPTION
#---- ----- -------------------------------------------- -----------------------------
RUN  .          MWD RUN 12-13                            : Run number
PDAT .          MSL                                      : Perm. Datum
#-------------------------------------------------------------------------------------
~CURVE INFORMATION
#MNEM.UNIT                          DATA                            DESCRIPTION
#---- ----- -------------------------------------------- -----------------------------
DEPTH.m                                                  : Measured Depth
BVW  .V/V                                                : 
CARB_FLAG.UNITLESS                                           : 
COAL_FLAG.UNITLESS                                           : 
KLOGH.mD                                                 : 
PHIF .V/V                                                : 
SAND_FLAG.UNITLESS                                           : 
SW   .V/V                                                : 
VSH  .V/V                                                : 
#--------------------------------------------------------------------------------------------------------------------------------------
#DEPTH          BVW            CARB_FLAG      COAL_FLAG      KLOGH          PHIF           SAND_FLAG      SW             VSH            
#--------------------------------------------------------------------------------------------------------------------------------------
~ASCII Log Data
# ...
3067.659600    0.082700       0.000000       0.000000       0.010900       0.082700       0.000000       1.000000       0.513800       
3067.812000    0.081300       0.000000       0.000000       0.011200       0.081300       0.000000       1.000000       0.511300       
3067.964400    0.084400       0.000000       0.000000       0.007600       0.084400       0.000000       1.000000       0.532800       
3068.116800    0.080200       0.000000       0.000000       0.006600       0.080200       0.000000       1.000000       0.535600       
3068.269200    0.077200       0.000000       0.000000       0.007900       0.077200       0.000000       1.000000       0.524600       
3068.421600    0.077200       0.000000       0.000000       0.012900       0.077200       0.000000       1.000000       0.500900       
3068.574000    0.082800       0.000000       0.000000       0.025100       0.082800       0.000000       1.000000       0.473700       
3068.726400    0.096600       0.000000       0.000000       0.056900       0.123100       0.000000       0.784500       0.470000       
3068.878800    0.087700       0.000000       0.000000       0.026900       0.087700       0.000000       1.000000       0.474700       
3069.031200    0.086200       0.000000       0.000000       0.023000       0.086200       0.000000       1.000000       0.481000       
3069.183600    0.084400       0.000000       0.000000       0.018400       0.084400       0.000000       1.000000       0.490100       
3069.336000    0.083400       0.000000       0.000000       0.013900       0.083400       0.000000       1.000000       0.502700       
3069.488400    0.079500       0.000000       0.000000       0.011700       0.079500       0.000000       1.000000       0.507600       
3069.640800    0.080100       0.000000       0.000000       0.008500       0.080100       0.000000       1.000000       0.523500       
3069.793200    0.078300       0.000000       0.000000       0.005600       0.078300       0.000000       1.000000       0.542400       
3069.945600    0.082600       0.000000       0.000000       0.005400       0.082600       0.000000       1.000000       0.547500       
3070.098000    0.077300       0.000000       0.000000       0.004800       0.077300       0.000000       1.000000       0.548600       
3070.250400    0.080400       0.000000       0.000000       0.005800       0.080400       0.000000       1.000000       0.541900       
3070.402800    0.089700       0.000000       0.000000       0.007000       0.089700       0.000000       1.000000       0.541300       
3070.555200    0.096100       0.000000       0.000000       0.009100       0.096100       0.000000       1.000000       0.534500       
3070.707600    0.098400       0.000000       0.000000       0.012400       0.098400       0.000000       1.000000       0.521500       
3070.860000    0.096600       0.000000       0.000000       0.009000       0.096600       0.000000       1.000000       0.535600       
3071.012400    0.102100       0.000000       0.000000       0.008500       0.102100       0.000000       1.000000       0.543100       
3071.164800    0.105000       0.000000       0.000000       0.006700       0.105700       0.000000       0.993300       0.557400       
3071.317200    0.104300       0.000000       0.000000       0.009300       0.107000       0.000000       0.975000       0.542800       
3071.469600    0.104800       0.000000       0.000000       0.010600       0.106200       0.000000       0.986900       0.536100       
3071.622000    0.104300       0.000000       0.000000       0.015300       0.106400       0.000000       0.980200       0.518400       
3071.774400    0.100600       0.000000       0.000000       0.015500       0.100600       0.000000       1.000000       0.512700       
3071.926800    0.098100       0.000000       0.000000       0.013300       0.098100       0.000000       1.000000       0.517900       
3072.079200    0.096500       0.000000       0.000000       0.018300       0.096500       0.000000       1.000000       0.501200       
3072.231600    0.098500       0.000000       0.000000       0.018200       0.098500       0.000000       1.000000       0.503100       
3072.384000    0.097000       0.000000       0.000000       0.018600       0.097000       0.000000       1.000000       0.500800       
3072.536400    0.095500       0.000000       0.000000       0.010400       0.095500       0.000000       1.000000       0.527500       
3072.688800    0.095800       0.000000       0.000000       0.010700       0.095800       0.000000       1.000000       0.526600       
3072.841200    0.093000       0.000000       0.000000       0.018800       0.093000       0.000000       1.000000       0.496500       
3072.993600    0.091500       0.000000       0.000000       0.030900       0.091500       0.000000       1.000000       0.471400       
3073.146000    0.087600       0.000000       0.000000       0.043200       0.087600       0.000000       1.000000       0.451700       
3073.298400    0.092100       0.000000       0.000000       0.038300       0.092100       0.000000       1.000000       0.461500       
3073.450800    0.091500       0.000000       0.000000       0.036200       0.091500       0.000000       1.000000       0.463700       
3073.603200    0.090500       0.000000       0.000000       0.033100       0.090500       0.000000       1.000000       0.467200       
3073.755600    0.093400       0.000000       0.000000       0.024800       0.093400       0.000000       1.000000       0.483600       
3073.908000    0.092300       0.000000       0.000000       0.021300       0.092300       0.000000       1.000000       0.490100       
3074.060400    0.094300       0.000000       0.000000       0.020500       0.094300       0.000000       1.000000       0.493700       
3074.212800    0.091300       0.000000       0.000000       0.019000       0.091300       0.000000       1.000000       0.494700       
3074.365200    0.094600       0.000000       0.000000       0.020800       0.094600       0.000000       1.000000       0.493300       
3074.517600    0.094700       0.000000       0.000000       0.013900       0.094700       0.000000       1.000000       0.512900       
3074.670000    0.091800       0.000000       0.000000       0.008800       0.091800       0.000000       1.000000       0.532200       
3074.822400    0.089000       0.000000       0.000000       0.006500       0.089000       0.000000       1.000000       0.544400       
3074.974800    0.086100       0.000000       0.000000       0.008600       0.086100       0.000000       1.000000       0.527900       
3075.127200    0.086600       0.000000       0.000000       0.015300       0.086600       0.000000       1.000000       0.501000       
3075.279600    0.086900       0.000000       0.000000       0.012000       0.086900       0.000000       1.000000       0.512800       
3075.432000    0.094100       0.000000       0.000000       0.012900       0.094100       0.000000       1.000000       0.515900       
3075.584400    0.092900       0.000000       0.000000       0.014600       0.092900       0.000000       1.000000       0.508700       
3075.736800    0.095900       0.000000       0.000000       0.026000       0.095900       0.000000       1.000000       0.483500       
3075.889200    0.090300       0.000000       0.000000       0.022500       0.090300       0.000000       1.000000       0.485500       
3076.041600    0.089600       0.000000       0.000000       0.026400       0.089600       0.000000       1.000000       0.477300       
3076.194000    0.081200       0.000000       0.000000       0.025800       0.081200       0.000000       1.000000       0.470800       
3076.346400    0.082500       0.000000       0.000000       0.030300       0.082500       0.000000       1.000000       0.464200       
3076.498800    0.082500       0.000000       0.000000       0.021700       0.082500       0.000000       1.000000       0.480400       
