#-------------------------------------------------------------------------------------
~VERSION INFORMATION
#MNEM.UNIT                          DATA                            DESCRIPTION
#---- ----- -------------------------------------------- -----------------------------
VERS .          2.0                                      : CWLS Log ASCII Standard - VERSION 2.0
WRAP .          NO                                       : One Line per depth step
PROD .          CROCKER DATA PROCESSING                  : LAS Producer
PROG .          LAS Viewer v0                            : LAS Program name and version
CREA .          2019/04/03 21-02                         : LAS Creation date {YYYY/MM/DD hh-mm}
DLIS_CREA.          2009-Aug-25 10-09                        : DLIS Creation date and time {YYYY-MMM-DD hh-mm}
SOURCE.          WLC_PETRO_COMPUTED_OUTPUT_1.DLIS         : DLIS File Name
FILE-ID.          CPI_OUTPUT.logdata                       : File Identification Number
#-------------------------------------------------------------------------------------
~WELL INFORMATION
#MNEM.UNIT                          DATA                            DESCRIPTION
#---- ----- -------------------------------------------- -----------------------------
STRT .m         2788.92                                  : START DEPTH
STOP .m         3231.95                                  : STOP DEPTH
STEP .m         0.1524                                   : STEP
NULL .          -999.25                                  : NULL VALUE
COMP .          STATOILHYDRO                             : COMPANY
WELL .          15/9-F-15 C                              : WELL
FIELD.          VOLVE                                    : FIELD
LOC  .                                                   : LOCATION
CNTY .                                                   : COUNTY
STAT .                                                   : STATE
NATI .                                                   : COUNTRY
API  .                                                   : API NUMBER
UWI  .                                                   : UNIQUE WELL ID
SRVC .                                                   : SERVICE COMPANY
LATI .          058 26' 29.706" N    DMS                 : LATITUDE
LONG .          001 53' 15.149" E    DMS                 : LONGITUDE
GDAT .          MSL                                      : GeoDetic Datum
#-------------------------------------------------------------------------------------
~PARAMETER INFORMATION
#MNEM.UNIT                          DATA                            DESCRIPTION
#---- ----- -------------------------------------------- -----------------------------
RUN  .          MWD RUN 12-13                            : Run number
PDAT .          MSL                                      : Perm. Datum
#-------------------------------------------------------------------------------------
~CURVE INFORMATION
#MNEM.UNIT                          DATA                            DESCRIPTION
#---- ----- -------------------------------------------- -----------------------------
DEPTH.m                                                  : Measured Depth
BVW  .V/V                                                : 
CARB_FLAG.UNITLESS                                           : 
COAL_FLAG.UNITLESS                                           : 
KLOGH.mD                                                 : 
PHIF .V/V                                                : 
SAND_FLAG.UNITLESS                                           : 
SW   .V/V                                                : 
VSH  .V/V                                                : 
#--------------------------------------------------------------------------------------------------------------------------------------
#DEPTH          BVW            CARB_FLAG      COAL_FLAG      KLOGH          PHIF           SAND_FLAG      SW             VSH            
#--------------------------------------------------------------------------------------------------------------------------------------
~ASCII Log Data
# ...
2923.794000    0.104000       0.000000       0.000000       157.576904     0.136500       0.000000       0.761700       0.099400       
2923.946400    0.105900       0.000000       0.000000       201.490707     0.137600       0.000000       0.769800       0.088500       
2924.098800    0.103900       0.000000       0.000000       204.200500     0.136400       0.000000       0.761700       0.086800       
2924.251200    0.101500       0.000000       0.000000       142.673599     0.128900       0.000000       0.787200       0.097500       
2924.403600    0.090300       0.000000       0.000000       43.811600      0.090300       0.000000       1.000000       0.120100       
2924.556000    0.095100       0.000000       0.000000       33.599400      0.095100       0.000000       1.000000       0.137200       
2924.708400    0.105300       0.000000       0.000000       58.116402      0.131100       0.000000       0.802700       0.142800       
2924.860800    0.104500       0.000000       0.000000       76.598503      0.134500       0.000000       0.776900       0.132400       
2925.013200    0.104800       0.000000       0.000000       95.554398      0.137700       0.000000       0.761300       0.124600       
2925.165600    0.104200       0.000000       0.000000       136.127594     0.138100       0.000000       0.754700       0.107900       
2925.318000    0.094500       0.000000       0.000000       59.564701      0.096700       0.000000       0.977000       0.111000       
2925.470400    0.091200       0.000000       0.000000       46.248199      0.091200       0.000000       1.000000       0.118300       
2925.622800    0.081800       0.000000       0.000000       23.271700      0.081800       0.000000       1.000000       0.143000       
2925.775200    0.086600       0.000000       0.000000       15.317100      0.086600       0.000000       1.000000       0.167500       
2925.927600    0.085300       0.000000       0.000000       13.970500      0.085300       0.000000       1.000000       0.170800       
2926.080000    0.080100       0.000000       0.000000       11.948100      0.080100       0.000000       1.000000       0.173700       
2926.232400    0.072100       0.000000       0.000000       13.101300      0.072100       0.000000       1.000000       0.162100       
2926.384800    0.072900       0.000000       0.000000       12.793200      0.072900       0.000000       1.000000       0.164000       
2926.537200    0.098300       0.000000       0.000000       42.186298      0.120400       0.000000       0.816300       0.148700       
2926.689600    0.098600       0.000000       0.000000       59.488300      0.128000       0.000000       0.770100       0.138800       
2926.842000    0.099000       0.000000       0.000000       76.405998      0.128900       0.000000       0.768000       0.127500       
2926.994400    0.098600       0.000000       0.000000       66.030197      0.124500       0.000000       0.791900       0.130700       
2927.146800    0.098500       0.000000       0.000000       70.320297      0.124500       0.000000       0.790500       0.127700       
2927.299200    0.099800       0.000000       0.000000       83.223297      0.130300       0.000000       0.766100       0.124700       
2927.451600    0.099300       0.000000       0.000000       99.860199      0.133800       0.000000       0.741700       0.119000       
2927.604000    0.098800       0.000000       0.000000       79.294502      0.129400       0.000000       0.763700       0.126200       
2927.756400    0.096600       0.000000       0.000000       62.710499      0.124100       0.000000       0.778200       0.132800       
2927.908800    0.094600       0.000000       0.000000       45.002800      0.117800       0.000000       0.803700       0.143200       
2928.061200    0.085500       0.000000       0.000000       24.205500      0.085500       0.000000       1.000000       0.144400       
2928.213600    0.096200       0.000000       0.000000       66.761902      0.121800       0.000000       0.789600       0.127700       
2928.366000    0.093400       0.000000       0.000000       107.753403     0.121800       0.000000       0.767200       0.104600       
2928.518400    0.092200       0.000000       0.000000       104.249802     0.123200       0.000000       0.747800       0.107500       
2928.670800    0.082500       0.000000       0.000000       32.115898      0.082500       0.000000       1.000000       0.128100       
2928.823200    0.091400       0.000000       0.000000       37.510201      0.111000       0.000000       0.823100       0.146000       
2928.975600    0.073700       0.000000       0.000000       24.007000      0.073700       0.000000       1.000000       0.134400       
2929.128000    0.087900       0.000000       0.000000       50.433701      0.104400       0.000000       0.842100       0.125800       
2929.280400    0.082600       0.000000       0.000000       45.646000      0.099800       0.000000       0.827800       0.126600       
2929.432800    0.082300       0.000000       0.000000       35.553299      0.099200       0.000000       0.829100       0.138100       
2929.585200    0.085900       0.000000       0.000000       42.985199      0.109800       0.000000       0.781900       0.138400       
2929.737600    0.088100       0.000000       0.000000       55.393398      0.110300       0.000000       0.798000       0.126600       
2929.890000    0.089900       0.000000       0.000000       71.142097      0.116400       0.000000       0.772500       0.119900       
2930.042400    0.089800       0.000000       0.000000       66.458603      0.110700       0.000000       0.811000       0.118100       
2930.194800    0.087400       0.000000       0.000000       53.480900      0.107700       0.000000       0.811300       0.125900       
2930.347200    0.084000       0.000000       0.000000       52.179001      0.103600       0.000000       0.810200       0.123500       
2930.499600    0.081600       0.000000       0.000000       37.836899      0.100300       0.000000       0.814100       0.136000       
2930.652000    0.058100       0.000000       0.000000       10.888900      0.058100       0.000000       1.000000       0.158600       
2930.804400    0.054200       0.000000       0.000000       6.292100       0.054200       0.000000       1.000000       0.181600       
2930.956800    0.051000       0.000000       0.000000       4.508600       0.051000       0.000000       1.000000       0.194900       
2931.109200    0.055800       0.000000       0.000000       6.649100       0.055800       0.000000       1.000000       0.180400       
2931.261600    0.062100       0.000000       0.000000       15.230900      0.062100       0.000000       1.000000       0.146000       
2931.414000    0.082100       0.000000       0.000000       69.375504      0.102300       0.000000       0.802200       0.108600       
2931.566400    0.084400       0.000000       0.000000       103.558998     0.115900       0.000000       0.727900       0.101400       
2931.718800    0.090600       0.000000       0.000000       74.177902      0.116900       0.000000       0.774800       0.118400       
2931.871200    0.091000       0.000000       0.000000       63.057800      0.115600       0.000000       0.787500       0.125000       
2932.023600    0.087700       0.000000       0.000000       63.373299      0.109700       0.000000       0.798900       0.119500       
2932.176000    0.086600       0.000000       0.000000       68.951401      0.108500       0.000000       0.797900       0.114400       
2932.328400    0.086000       0.000000       0.000000       43.629601      0.103100       0.000000       0.833800       0.131700       
2932.480800    0.086100       0.000000       0.000000       37.934299      0.102800       0.000000       0.837500       0.138100       
2932.633200    0.062500       0.000000       0.000000       15.493500      0.062500       0.000000       1.000000       0.145600       
