#-------------------------------------------------------------------------------------
~VERSION INFORMATION
#MNEM.UNIT                          DATA                            DESCRIPTION
#---- ----- -------------------------------------------- -----------------------------
VERS .          2.0                                      : CWLS Log ASCII Standard - VERSION 2.0
WRAP .          NO                                       : One Line per depth step
PROD .          CROCKER DATA PROCESSING                  : LAS Producer
PROG .          LAS Viewer v0                            : LAS Program name and version
CREA .          2019/04/03 21-02                         : LAS Creation date {YYYY/MM/DD hh-mm}
DLIS_CREA.          2009-Aug-25 10-09                        : DLIS Creation date and time {YYYY-MMM-DD hh-mm}
SOURCE.          WLC_PETRO_COMPUTED_OUTPUT_1.DLIS         : DLIS File Name
FILE-ID.          CPI_OUTPUT.logdata                       : File Identification Number
#-------------------------------------------------------------------------------------
~WELL INFORMATION
#MNEM.UNIT                          DATA                            DESCRIPTION
#---- ----- -------------------------------------------- -----------------------------
STRT .m         2788.92                                  : START DEPTH
STOP .m         3231.95                                  : STOP DEPTH
STEP .m         0.1524                                   : STEP
NULL .          -999.25                                  : NULL VALUE
COMP .          STATOILHYDRO                             : COMPANY
WELL .          15/9-F-15 C                              : WELL
FIELD.          VOLVE                                    : FIELD
LOC  .                                                   : LOCATION
CNTY .                                                   : COUNTY
STAT .                                                   : STATE
NATI .                                                   : COUNTRY
API  .                                                   : API NUMBER
UWI  .                                                   : UNIQUE WELL ID
SRVC .                                                   : SERVICE COMPANY
LATI .          058 26' 29.706" N    DMS                 : LATITUDE
LONG .          001 53' 15.149" E    DMS                 : LONGITUDE
GDAT .          MSL                                      : GeoDetic Datum
#-------------------------------------------------------------------------------------
~PARAMETER INFORMATION
#MNEM.UNIT                          DATA                            DESCRIPTION
#---- ----- -------------------------------------------- -----------------------------
RUN  .          MWD RUN 12-13                            : Run number
PDAT .          MSL                                      : Perm. Datum
#-------------------------------------------------------------------------------------
~CURVE INFORMATION
#MNEM.UNIT                          DATA                            DESCRIPTION
#---- ----- -------------------------------------------- -----------------------------
DEPTH.m                                                  : Measured Depth
BVW  .V/V                                                : 
CARB_FLAG.UNITLESS                                           : 
COAL_FLAG.UNITLESS                                           : 
KLOGH.mD                                                 : 
PHIF .V/V                                                : 
SAND_FLAG.UNITLESS                                           : 
SW   .V/V                                                : 
VSH  .V/V                                                : 
#--------------------------------------------------------------------------------------------------------------------------------------
#DEPTH          BVW            CARB_FLAG      COAL_FLAG      KLOGH          PHIF           SAND_FLAG      SW             VSH            
#--------------------------------------------------------------------------------------------------------------------------------------
~ASCII Log Data
# ...
3112.617600    0.118800       0.000000       0.000000       0.001000       0.230600       0.000000       0.515400       1.000000       
3112.770000    0.120600       0.000000       0.000000       0.001000       0.229800       0.000000       0.524600       1.000000       
3112.922400    0.119700       0.000000       0.000000       0.001000       0.213900       0.000000       0.559300       1.000000       
3113.074800    0.122300       0.000000       0.000000       0.001000       0.220900       0.000000       0.554000       1.000000       
3113.227200    0.124600       0.000000       0.000000       0.001000       0.214400       0.000000       0.581000       1.000000       
3113.379600    0.117600       0.000000       0.000000       0.001000       0.222900       0.000000       0.527800       1.000000       
3113.532000    0.110000       0.000000       0.000000       0.001000       0.213800       0.000000       0.514700       1.000000       
3113.684400    0.112800       0.000000       0.000000       0.001000       0.214500       0.000000       0.525900       1.000000       
3113.836800    0.118600       0.000000       0.000000       0.001000       0.219900       0.000000       0.539500       1.000000       
3113.989200    0.121900       0.000000       0.000000       0.001000       0.223900       0.000000       0.544300       1.000000       
3114.141600    0.131100       0.000000       0.000000       0.001000       0.211700       0.000000       0.619400       1.000000       
3114.294000    0.126600       0.000000       0.000000       0.001000       0.166300       0.000000       0.761200       1.000000       
3114.446400    0.092900       0.000000       0.000000       0.001000       0.092900       0.000000       1.000000       1.000000       
3114.598800    0.018700       0.000000       0.000000       0.001000       0.018700       0.000000       1.000000       1.000000       
3114.751200    -999.250000    0.000000       0.000000       -999.250000    -999.250000    0.000000       -999.250000    1.000000       
3114.903600    0.001000       0.000000       0.000000       0.001000       0.001000       0.000000       1.000000       1.000000       
3115.056000    0.043400       0.000000       0.000000       0.001000       0.043400       0.000000       1.000000       1.000000       
3115.208400    0.081300       0.000000       0.000000       0.001000       0.081300       0.000000       1.000000       1.000000       
3115.360800    0.106900       0.000000       0.000000       0.001000       0.106900       0.000000       1.000000       1.000000       
3115.513200    0.106300       0.000000       0.000000       0.001000       0.106300       0.000000       1.000000       1.000000       
3115.665600    0.102200       0.000000       0.000000       0.001000       0.102200       0.000000       1.000000       1.000000       
3115.818000    0.102700       0.000000       0.000000       0.001000       0.102700       0.000000       1.000000       1.000000       
3115.970400    0.095300       0.000000       0.000000       0.001000       0.095300       0.000000       1.000000       1.000000       
3116.122800    0.095800       0.000000       0.000000       0.001000       0.095800       0.000000       1.000000       1.000000       
3116.275200    0.092600       0.000000       0.000000       0.001000       0.092600       0.000000       1.000000       1.000000       
3116.427600    0.102500       0.000000       0.000000       0.001000       0.102500       0.000000       1.000000       1.000000       
3116.580000    0.093400       0.000000       0.000000       0.001000       0.093400       0.000000       1.000000       1.000000       
3116.732400    0.095000       0.000000       0.000000       0.001000       0.095000       0.000000       1.000000       1.000000       
3116.884800    0.094700       0.000000       0.000000       0.001000       0.094700       0.000000       1.000000       1.000000       
3117.037200    0.109800       0.000000       0.000000       0.001000       0.109800       0.000000       1.000000       1.000000       
3117.189600    0.098000       0.000000       0.000000       0.001000       0.098000       0.000000       1.000000       1.000000       
3117.342000    0.089500       0.000000       0.000000       0.001000       0.089500       0.000000       1.000000       1.000000       
3117.494400    0.074200       0.000000       0.000000       0.001000       0.074200       0.000000       1.000000       1.000000       
3117.646800    0.090300       0.000000       0.000000       0.001000       0.090300       0.000000       1.000000       1.000000       
3117.799200    0.100200       0.000000       0.000000       0.001000       0.100200       0.000000       1.000000       1.000000       
3117.951600    0.102200       0.000000       0.000000       0.001000       0.102700       0.000000       0.995700       1.000000       
3118.104000    0.099700       0.000000       0.000000       0.001000       0.099700       0.000000       1.000000       1.000000       
3118.256400    0.096600       0.000000       0.000000       0.001000       0.096600       0.000000       1.000000       1.000000       
3118.408800    0.107600       0.000000       0.000000       0.001000       0.107600       0.000000       1.000000       1.000000       
3118.561200    0.104600       0.000000       0.000000       0.001000       0.111400       0.000000       0.938800       1.000000       
3118.713600    0.102600       0.000000       0.000000       0.001000       0.119100       0.000000       0.861600       1.000000       
3118.866000    0.101800       0.000000       0.000000       0.001000       0.107500       0.000000       0.946100       1.000000       
3119.018400    0.098800       0.000000       0.000000       0.001000       0.107000       0.000000       0.923200       1.000000       
3119.170800    0.102300       0.000000       0.000000       0.001000       0.102300       0.000000       1.000000       1.000000       
3119.323200    0.110900       0.000000       0.000000       0.001000       0.110900       0.000000       1.000000       1.000000       
3119.475600    0.103700       0.000000       0.000000       0.001000       0.103700       0.000000       1.000000       1.000000       
3119.628000    0.105700       0.000000       0.000000       0.001000       0.105700       0.000000       1.000000       1.000000       
3119.780400    0.100300       0.000000       0.000000       0.001000       0.100300       0.000000       1.000000       1.000000       
3119.932800    0.108800       0.000000       0.000000       0.001000       0.108800       0.000000       1.000000       1.000000       
3120.085200    0.105900       0.000000       0.000000       0.001000       0.105900       0.000000       1.000000       1.000000       
3120.237600    0.111400       0.000000       0.000000       0.001000       0.111400       0.000000       1.000000       1.000000       
3120.390000    0.107100       0.000000       0.000000       0.001000       0.109400       0.000000       0.979100       1.000000       
3120.542400    0.103500       0.000000       0.000000       0.001000       0.103500       0.000000       1.000000       1.000000       
3120.694800    0.095700       0.000000       0.000000       0.001000       0.095700       0.000000       1.000000       1.000000       
3120.847200    0.086400       0.000000       0.000000       0.001000       0.086400       0.000000       1.000000       1.000000       
3120.999600    0.099400       0.000000       0.000000       0.001000       0.099400       0.000000       1.000000       1.000000       
3121.152000    0.106500       0.000000       0.000000       0.001000       0.106500       0.000000       1.000000       1.000000       
3121.304400    0.109200       0.000000       0.000000       0.001000       0.109200       0.000000       1.000000       1.000000       
3121.456800    0.100500       0.000000       0.000000       0.001000       0.100500       0.000000       1.000000       1.000000       
