#-------------------------------------------------------------------------------------
~VERSION INFORMATION
#MNEM.UNIT                          DATA                            DESCRIPTION
#---- ----- -------------------------------------------- -----------------------------
VERS .          2.0                                      : CWLS Log ASCII Standard - VERSION 2.0
WRAP .          NO                                       : One Line per depth step
PROD .          CROCKER DATA PROCESSING                  : LAS Producer
PROG .          LAS Viewer v0                            : LAS Program name and version
CREA .          2019/04/03 21-02                         : LAS Creation date {YYYY/MM/DD hh-mm}
DLIS_CREA.          2009-Aug-25 10-09                        : DLIS Creation date and time {YYYY-MMM-DD hh-mm}
SOURCE.          WLC_PETRO_COMPUTED_OUTPUT_1.DLIS         : DLIS File Name
FILE-ID.          CPI_OUTPUT.logdata                       : File Identification Number
#-------------------------------------------------------------------------------------
~WELL INFORMATION
#MNEM.UNIT                          DATA                            DESCRIPTION
#---- ----- -------------------------------------------- -----------------------------
STRT .m         2788.92                                  : START DEPTH
STOP .m         3231.95                                  : STOP DEPTH
STEP .m         0.1524                                   : STEP
NULL .          -999.25                                  : NULL VALUE
COMP .          STATOILHYDRO                             : COMPANY
WELL .          15/9-F-15 C                              : WELL
FIELD.          VOLVE                                    : FIELD
LOC  .                                                   : LOCATION
CNTY .                                                   : COUNTY
STAT .                                                   : STATE
NATI .                                                   : COUNTRY
API  .                                                   : API NUMBER
UWI  .                                                   : UNIQUE WELL ID
SRVC .                                                   : SERVICE COMPANY
LATI .          058 26' 29.706" N    DMS                 : LATITUDE
LONG .          001 53' 15.149" E    DMS                 : LONGITUDE
GDAT .          MSL                                      : GeoDetic Datum
#-------------------------------------------------------------------------------------
~PARAMETER INFORMATION
#MNEM.UNIT                          DATA                            DESCRIPTION
#---- ----- -------------------------------------------- -----------------------------
RUN  .          MWD RUN 12-13                            : Run number
PDAT .          MSL                                      : Perm. Datum
#-------------------------------------------------------------------------------------
~CURVE INFORMATION
#MNEM.UNIT                          DATA                            DESCRIPTION
#---- ----- -------------------------------------------- -----------------------------
DEPTH.m                                                  : Measured Depth
BVW  .V/V                                                : 
CARB_FLAG.UNITLESS                                           : 
COAL_FLAG.UNITLESS                                           : 
KLOGH.mD                                                 : 
PHIF .V/V                                                : 
SAND_FLAG.UNITLESS                                           : 
SW   .V/V                                                : 
VSH  .V/V                                                : 
#--------------------------------------------------------------------------------------------------------------------------------------
#DEPTH          BVW            CARB_FLAG      COAL_FLAG      KLOGH          PHIF           SAND_FLAG      SW             VSH            
#--------------------------------------------------------------------------------------------------------------------------------------
~ASCII Log Data
# ...
3166.567200    0.074900       0.000000       0.000000       0.010100       0.074900       0.000000       1.000000       0.696400       
3166.719600    0.114200       0.000000       0.000000       0.377000       0.124300       0.000000       0.918600       0.701200       
3166.872000    0.085100       0.000000       0.000000       0.023700       0.085100       0.000000       1.000000       0.674900       
3167.024400    0.053100       0.000000       0.000000       0.002800       0.053100       0.000000       1.000000       0.630100       
3167.176800    0.037100       0.000000       0.000000       0.001100       0.037100       0.000000       1.000000       0.573100       
3167.329200    0.051100       0.000000       0.000000       0.004200       0.051100       0.000000       1.000000       0.503500       
3167.481600    0.074700       0.000000       0.000000       0.034900       0.074700       0.000000       1.000000       0.423700       
3167.634000    0.088500       0.000000       0.000000       0.137100       0.090700       0.000000       0.975800       0.382400       
3167.786400    0.082500       0.000000       0.000000       0.074800       0.082500       0.000000       1.000000       0.383400       
3167.938800    0.072900       0.000000       0.000000       0.031800       0.072900       0.000000       1.000000       0.415100       
3168.091200    0.045900       0.000000       0.000000       0.004100       0.045900       0.000000       1.000000       0.428100       
3168.243600    0.026900       0.000000       0.000000       0.001100       0.026900       0.000000       1.000000       0.417200       
3168.396000    0.045100       0.000000       0.000000       0.004300       0.045100       0.000000       1.000000       0.403200       
3168.548400    0.039900       0.000000       0.000000       0.003200       0.039900       0.000000       1.000000       0.388100       
3168.700800    0.043900       0.000000       0.000000       0.004500       0.043900       0.000000       1.000000       0.376200       
3168.853200    0.014300       0.000000       0.000000       0.001000       0.014300       0.000000       1.000000       0.365500       
3169.005600    0.020900       0.000000       0.000000       0.001000       0.020900       0.000000       1.000000       0.366900       
3169.158000    0.020100       0.000000       0.000000       0.001000       0.020100       0.000000       1.000000       0.369300       
3169.310400    0.023700       0.000000       0.000000       0.001000       0.023700       0.000000       1.000000       0.374100       
3169.462800    0.031000       0.000000       0.000000       0.001800       0.031000       0.000000       1.000000       0.365200       
3169.615200    0.037900       0.000000       0.000000       0.003100       0.037900       0.000000       1.000000       0.360800       
3169.767600    0.043300       0.000000       0.000000       0.004600       0.043300       0.000000       1.000000       0.359900       
3169.920000    0.030600       0.000000       0.000000       0.001700       0.030600       0.000000       1.000000       0.373100       
3170.072400    0.025500       0.000000       0.000000       0.001100       0.025500       0.000000       1.000000       0.378100       
3170.224800    0.028000       0.000000       0.000000       0.001300       0.028000       0.000000       1.000000       0.394000       
3170.377200    0.051800       0.000000       0.000000       0.006800       0.051800       0.000000       1.000000       0.412400       
3170.529600    0.064000       0.000000       0.000000       0.016600       0.064000       0.000000       1.000000       0.413300       
3170.682000    0.080200       0.000000       0.000000       0.059300       0.080200       0.000000       1.000000       0.397200       
3170.834400    0.100000       0.000000       0.000000       0.308200       0.100000       1.000000       1.000000       0.355600       
3170.986800    0.118300       0.000000       0.000000       1.118000       0.118300       1.000000       1.000000       0.368300       
3171.139200    0.122400       0.000000       0.000000       1.317600       0.122400       1.000000       1.000000       0.398500       
3171.291600    0.108800       0.000000       0.000000       0.423500       0.108800       1.000000       1.000000       0.427400       
3171.444000    0.117900       0.000000       0.000000       0.835500       0.117900       1.000000       1.000000       0.425500       
3171.596400    0.082100       0.000000       0.000000       0.068200       0.082100       0.000000       1.000000       0.396600       
3171.748800    0.013800       1.000000       0.000000       0.001000       0.013800       0.000000       1.000000       0.377500       
3171.901200    0.007800       1.000000       0.000000       0.001000       0.007800       0.000000       1.000000       0.341400       
3172.053600    0.018300       1.000000       0.000000       0.001000       0.018300       0.000000       1.000000       0.314100       
3172.206000    0.052000       1.000000       0.000000       0.011000       0.052000       0.000000       1.000000       0.311700       
3172.358400    0.077300       0.000000       0.000000       0.060600       0.077300       0.000000       1.000000       0.344700       
3172.510800    0.093800       0.000000       0.000000       0.162400       0.093800       0.000000       1.000000       0.395000       
3172.663200    0.087200       0.000000       0.000000       0.080600       0.087200       0.000000       1.000000       0.441900       
3172.815600    0.085400       0.000000       0.000000       0.058900       0.085400       0.000000       1.000000       0.481700       
3172.968000    0.089700       0.000000       0.000000       0.063800       0.089700       0.000000       1.000000       0.532900       
3173.120400    0.103300       0.000000       0.000000       0.119200       0.103300       0.000000       1.000000       0.614800       
3173.272800    0.114500       0.000000       0.000000       0.209100       0.114500       0.000000       1.000000       0.671100       
3173.425200    0.119000       0.000000       0.000000       0.277800       0.119000       0.000000       1.000000       0.681600       
3173.577600    0.126300       0.000000       0.000000       0.512800       0.126300       0.000000       1.000000       0.665600       
3173.730000    0.126600       0.000000       0.000000       0.587700       0.126600       0.000000       1.000000       0.641500       
3173.882400    0.125200       0.000000       0.000000       0.535700       0.125200       0.000000       1.000000       0.638700       
3174.034800    0.114900       0.000000       0.000000       0.306400       0.114900       0.000000       1.000000       0.594500       
3174.187200    0.106900       0.000000       0.000000       0.209000       0.106900       0.000000       1.000000       0.549600       
3174.339600    0.099700       0.000000       0.000000       0.142700       0.099700       0.000000       1.000000       0.517300       
3174.492000    0.102500       0.000000       0.000000       0.187900       0.102500       0.000000       1.000000       0.503300       
3174.644400    0.101500       0.000000       0.000000       0.176800       0.101500       0.000000       1.000000       0.501000       
3174.796800    0.093600       0.000000       0.000000       0.106000       0.093600       0.000000       1.000000       0.485000       
3174.949200    0.073700       0.000000       0.000000       0.026500       0.073700       0.000000       1.000000       0.466900       
3175.101600    0.055400       0.000000       0.000000       0.006900       0.055400       0.000000       1.000000       0.466700       
3175.254000    0.059800       0.000000       0.000000       0.009900       0.059800       0.000000       1.000000       0.458700       
3175.406400    0.079100       0.000000       0.000000       0.037800       0.079100       0.000000       1.000000       0.476800       
