~VERSION INFORMATION
VERS.           2.0   :CWLS Log ASCII Standard - VERSION 2.0
WRAP.           NO    :One Line per depth step
PROD.  Schlumberger   :LAS Producer
PROG.  DLIS to ASCII 2.3                               :LAS Program name and version
CREA.        2019/04/03 19:51                          :LAS Creation date {YYYY/MM/DD hh:mm}
DLIS_CREA.  2009-Feb-18 14:45                          :DLIS Creation date and time {YYYY-MMM-DD hh:mm}
SOURCE.     WLC_PETRO_COMPUTED_OUTPUT_1.DLIS           :DLIS File Name
FILE-ID.     OUTPUT.logdata                            :File Identification Number
#--------------------------------------------------
~WELL INFORMATION
#MNEM.UNIT      DATA             DESCRIPTION
#---- ------ --------------   -----------------------------
STRT .F         1382.0       :START DEPTH     
STOP .F        12441.0       :STOP DEPTH     
STEP .F            0.5       :STEP     
NULL .          -999.25      :NULL VALUE
COMP .                                                 :COMPANY
WELL .        15/9-F-5                                 :WELL
FLD  .        VOLVE                                    :FIELD
LOC  .                                                 :LOCATION
CNTY .        MAERSK INSPIRER                          :COUNTY
STAT .                                                 :STATE
CTRY .                                                 :COUNTRY
API  .                                                 :API NUMBER
UWI  .                                                 :UNIQUE WELL ID
DATE .                                                 :LOG DATE
SRVC .        CROCKER DATA PROCESSING                  :SERVICE COMPANY
LATI .DEG                                              :LATITUDE
LONG .DEG                                              :LONGITUDE
GDAT .                                                 :GeoDetic Datum
#-----------------------------------------------------------------------------
~PARAMETER INFORMATION
#MNEM.UNIT    VALUE                      DESCRIPTION
#---- -----   --------------------       ------------------------
WN   .        15/9-F-5                   :Well Name
FN   .        VOLVE                      :Field
CTRY .        NORWAY                     :Country
COUN .        MAERSK INSPIRER            :County or Rig name
PDAT .        MSL                        :Perm. Datum
ELZ  .M          0.00000                 :Elev. Log Zero (wrt EPD)
R2   .        INPUT                      :R2
RUN  .                                   :RUN NUMBER
EPD  .                                   :Elevation of Permanent Datum above Mean Sea Level
LMF  .                                   :Logging Measured From (Name of Logging Elevation Reference)
APD  .                                   :Elevation of Depth Reference (LMF) above Permanent Datum
#-----------------------------------------------------------------------------
~CURVE INFORMATION
#MNEM.UNIT   API CODE                                  DESCRIPTION
#---- -----  --------                                  -----------------------
DEPTH.F                                                :DEPTH (BOREHOLE) {F10.1}
DEPTH..1IN                                             :Measured Depth {I11}
BVW  .V/V_DECIMAL                                      :BVW:UNKNOWN:rC:NONE:v1 {F13.4}
CARB_FLAG.UNKNOWN                                      :CARB_FLAG:UNKNOWN:rC:NONE:v1 {F13.4}
COAL_FLAG.UNKNOWN                                      :COAL_FLAG:UNKNOWN:rC:NONE:v1 {F13.4}
KLOGH.MD                                               :KLOGH:UNKNOWN:rC:NONE:v1 {F13.4}
PHID .V/V_DECIMAL                                      :PHID:UNKNOWN:rC:NONE:v1 {F13.4}
PHIF .V/V_DECIMAL                                      :PHIF:UNKNOWN:rC:NONE:v1 {F13.4}
SAND_FLAG.UNKNOWN                                      :SAND_FLAG:UNKNOWN:rC:NONE:v1 {F13.4}
SW   .V/V_DECIMAL                                      :SW:UNKNOWN:rC:NONE:v1 {F13.4}
VSH  .V/V_DECIMAL                                      :VSH:UNKNOWN:rC:NONE:v1 {F13.4}
#-----------------------------------------------------------------------------
# 
#    DEPTH        DEPTH           BVW       CARB_FLAG    COAL_FLAG      KLOGH         PHID         PHIF      SAND_FLAG       SW           VSH
#
~A  
# ...
   11561.0    1387320       0.0241       0.0000       0.0000    1027.4086       0.2630       0.2403       1.0000       0.1003       0.1012
   11561.5    1387380       0.0239       0.0000       0.0000    1259.0875       0.2684       0.2489       1.0000       0.0961       0.0990
   11562.0    1387440       0.0239       0.0000       0.0000     883.0400       0.2630       0.2402       1.0000       0.0995       0.1084
   11562.5    1387500       0.0240       0.0000       0.0000    1096.6260       0.2629       0.2476       1.0000       0.0971       0.1045
   11563.0    1387560       0.0237       0.0000       0.0000     671.3266       0.2627       0.2413       1.0000       0.0983       0.1226
   11563.5    1387620       0.0234       0.0000       0.0000     640.1696       0.2511       0.2332       1.0000       0.1004       0.1178
   11564.0    1387680       0.0233       0.0000       0.0000     456.3438       0.2402       0.2304       1.0000       0.1014       0.1316
   11564.5    1387740       0.0229       0.0000       0.0000     657.7400       0.2286       0.2226       1.0000       0.1028       0.1070
   11565.0    1387800       0.0233       0.0000       0.0000     784.7482       0.2400       0.2262       1.0000       0.1032       0.1017
   11565.5    1387860       0.0234       0.0000       0.0000    1208.6565       0.2516       0.2377       1.0000       0.0985       0.0910
   11566.0    1387920       0.0245       0.0000       0.0000    1001.1719       0.2570       0.2434       1.0000       0.1006       0.1052
   11566.5    1387980       0.0241       0.0000       0.0000     819.0787       0.2571       0.2402       1.0000       0.1002       0.1120
   11567.0    1388040       0.0241       0.0000       0.0000     595.2357       0.2571       0.2422       1.0000       0.0994       0.1292
   11567.5    1388100       0.0243       0.0000       0.0000     553.8715       0.2571       0.2435       1.0000       0.0999       0.1339
   11568.0    1388160       0.0245       0.0000       0.0000     551.8331       0.2571       0.2455       1.0000       0.0996       0.1358
   11568.5    1388220       0.0250       0.0000       0.0000     676.2841       0.2571       0.2379       1.0000       0.1049       0.1192
   11569.0    1388280       0.0237       0.0000       0.0000     952.7701       0.2571       0.2415       1.0000       0.0979       0.1059
   11569.5    1388340       0.0239       0.0000       0.0000    1448.5508       0.2573       0.2459       1.0000       0.0973       0.0896
   11570.0    1388400       0.0242       0.0000       0.0000    1225.9441       0.2627       0.2458       1.0000       0.0985       0.0975
   11570.5    1388460       0.0248       0.0000       0.0000    1198.8110       0.2629       0.2505       1.0000       0.0989       0.1028
   11571.0    1388520       0.0244       0.0000       0.0000     664.1501       0.2686       0.2459       1.0000       0.0991       0.1272
   11571.5    1388580       0.0245       0.0000       0.0000     692.8221       0.2744       0.2526       1.0000       0.0970       0.1312
   11572.0    1388640       0.0246       0.0000       0.0000     639.8987       0.2798       0.2587       1.0000       0.0952       0.1404
   11572.5    1388700       0.0249       0.0000       0.0000     593.2504       0.2800       0.2557       1.0000       0.0974       0.1414
   11573.0    1388760       0.0250       0.0000       0.0000     618.2003       0.2857       0.2601       1.0000       0.0961       0.1433
   11573.5    1388820       0.0252       0.0000       0.0000     761.7316       0.2857       0.2648       1.0000       0.0953       0.1374
   11574.0    1388880       0.0252       0.0000       0.0000     745.7695       0.2857       0.2591       1.0000       0.0974       0.1333
   11574.5    1388940       0.0252       0.0000       0.0000     761.9771       0.2801       0.2562       1.0000       0.0983       0.1297
   11575.0    1389000       0.0256       0.0000       0.0000     859.5980       0.2800       0.2602       1.0000       0.0985       0.1275
   11575.5    1389060       0.0258       0.0000       0.0000    1010.5981       0.2799       0.2607       1.0000       0.0990       0.1201
   11576.0    1389120       0.0257       0.0000       0.0000    1037.4613       0.2739       0.2536       1.0000       0.1014       0.1125
   11576.5    1389180       0.0262       0.0000       0.0000     970.5792       0.2631       0.2492       1.0000       0.1050       0.1118
   11577.0    1389240       0.0260       0.0000       0.0000     926.6539       0.2629       0.2482       1.0000       0.1046       0.1132
   11577.5    1389300       0.0254       0.0000       0.0000     730.0496       0.2629       0.2512       1.0000       0.1012       0.1274
   11578.0    1389360       0.0267       0.0000       0.0000     681.8439       0.2684       0.2547       1.0000       0.1047       0.1338
   11578.5    1389420       0.0248       0.0000       0.0000     597.3519       0.2630       0.2508       1.0000       0.0989       0.1367
   11579.0    1389480       0.0252       0.0000       0.0000     634.0262       0.2629       0.2483       1.0000       0.1013       0.1316
   11579.5    1389540       0.0263       0.0000       0.0000     679.1880       0.2571       0.2441       1.0000       0.1075       0.1245
   11580.0    1389600       0.0256       0.0000       0.0000    1097.8719       0.2630       0.2506       1.0000       0.1021       0.1072
   11580.5    1389660       0.0225       0.0000       0.0000    1445.5255       0.2684       0.2500       1.0000       0.0900       0.0934
   11581.0    1389720       0.0212       0.0000       0.0000    1725.4020       0.2800       0.2577       1.0000       0.0822       0.0917
   11581.5    1389780       0.0219       0.0000       0.0000    1873.2600       0.2800       0.2686       1.0000       0.0815       0.0974
   11582.0    1389840       0.0215       0.0000       0.0000    1516.7717       0.2799       0.2592       1.0000       0.0831       0.0992
   11582.5    1389900       0.0211       0.0000       0.0000    1262.3750       0.2744       0.2616       1.0000       0.0805       0.1102
   11583.0    1389960       0.0216       0.0000       0.0000    1594.7889       0.2743       0.2631       1.0000       0.0821       0.1003
   11583.5    1390020       0.0223       0.0000       0.0000    1662.6899       0.2743       0.2629       1.0000       0.0848       0.0980
   11584.0    1390080       0.0224       0.0000       0.0000    3161.7493       0.2857       0.2669       1.0000       0.0838       0.0707
   11584.5    1390140       0.0235       0.0000       0.0000    2108.2876       0.2857       0.2666       1.0000       0.0882       0.0900
   11585.0    1390200       0.0241       0.0000       0.0000    2037.7637       0.2857       0.2707       1.0000       0.0892       0.0952
   11585.5    1390260       0.0239       0.0000       0.0000    1149.1281       0.2800       0.2597       1.0000       0.0921       0.1130
   11586.0    1390320       0.0244       0.0000       0.0000    1134.7065       0.2798       0.2618       1.0000       0.0933       0.1155
   11586.5    1390380       0.0245       0.0000       0.0000    1012.8103       0.2689       0.2483       1.0000       0.0988       0.1090
   11587.0    1390440       0.0247       0.0000       0.0000     949.6594       0.2573       0.2338       1.0000       0.1055       0.0992
   11587.5    1390500       0.0244       0.0000       0.0000    1519.2500       0.2514       0.2335       1.0000       0.1045       0.0763
   11588.0    1390560       0.0242       0.0000       0.0000    1745.4078       0.2571       0.2390       1.0000       0.1011       0.0745
   11588.5    1390620       0.0238       0.0000       0.0000    1920.3456       0.2571       0.2341       1.0000       0.1015       0.0655
   11589.0    1390680       0.0237       0.0000       0.0000    2052.2190       0.2571       0.2382       1.0000       0.0994       0.0659
   11589.5    1390740       0.0230       0.0000       0.0000    2719.2930       0.2571       0.2442       1.0000       0.0942       0.0577
