~VERSION INFORMATION
VERS.           2.0   :CWLS Log ASCII Standard - VERSION 2.0
WRAP.           NO    :One Line per depth step
PROD.  Schlumberger   :LAS Producer
PROG.  DLIS to ASCII 2.3                               :LAS Program name and version
CREA.        2019/04/03 19:51                          :LAS Creation date {YYYY/MM/DD hh:mm}
DLIS_CREA.  2009-Feb-18 14:45                          :DLIS Creation date and time {YYYY-MMM-DD hh:mm}
SOURCE.     WLC_PETRO_COMPUTED_OUTPUT_1.DLIS           :DLIS File Name
FILE-ID.     OUTPUT.logdata                            :File Identification Number
#--------------------------------------------------
~WELL INFORMATION
#MNEM.UNIT      DATA             DESCRIPTION
#---- ------ --------------   -----------------------------
STRT .F         1382.0       :START DEPTH     
STOP .F        12441.0       :STOP DEPTH     
STEP .F            0.5       :STEP     
NULL .          -999.25      :NULL VALUE
COMP .                                                 :COMPANY
WELL .        15/9-F-5                                 :WELL
FLD  .        VOLVE                                    :FIELD
LOC  .                                                 :LOCATION
CNTY .        MAERSK INSPIRER                          :COUNTY
STAT .                                                 :STATE
CTRY .                                                 :COUNTRY
API  .                                                 :API NUMBER
UWI  .                                                 :UNIQUE WELL ID
DATE .                                                 :LOG DATE
SRVC .        CROCKER DATA PROCESSING                  :SERVICE COMPANY
LATI .DEG                                              :LATITUDE
LONG .DEG                                              :LONGITUDE
GDAT .                                                 :GeoDetic Datum
#-----------------------------------------------------------------------------
~PARAMETER INFORMATION
#MNEM.UNIT    VALUE                      DESCRIPTION
#---- -----   --------------------       ------------------------
WN   .        15/9-F-5                   :Well Name
FN   .        VOLVE                      :Field
CTRY .        NORWAY                     :Country
COUN .        MAERSK INSPIRER            :County or Rig name
PDAT .        MSL                        :Perm. Datum
ELZ  .M          0.00000                 :Elev. Log Zero (wrt EPD)
R2   .        INPUT                      :R2
RUN  .                                   :RUN NUMBER
EPD  .                                   :Elevation of Permanent Datum above Mean Sea Level
LMF  .                                   :Logging Measured From (Name of Logging Elevation Reference)
APD  .                                   :Elevation of Depth Reference (LMF) above Permanent Datum
#-----------------------------------------------------------------------------
~CURVE INFORMATION
#MNEM.UNIT   API CODE                                  DESCRIPTION
#---- -----  --------                                  -----------------------
DEPTH.F                                                :DEPTH (BOREHOLE) {F10.1}
DEPTH..1IN                                             :Measured Depth {I11}
BVW  .V/V_DECIMAL                                      :BVW:UNKNOWN:rC:NONE:v1 {F13.4}
CARB_FLAG.UNKNOWN                                      :CARB_FLAG:UNKNOWN:rC:NONE:v1 {F13.4}
COAL_FLAG.UNKNOWN                                      :COAL_FLAG:UNKNOWN:rC:NONE:v1 {F13.4}
KLOGH.MD                                               :KLOGH:UNKNOWN:rC:NONE:v1 {F13.4}
PHID .V/V_DECIMAL                                      :PHID:UNKNOWN:rC:NONE:v1 {F13.4}
PHIF .V/V_DECIMAL                                      :PHIF:UNKNOWN:rC:NONE:v1 {F13.4}
SAND_FLAG.UNKNOWN                                      :SAND_FLAG:UNKNOWN:rC:NONE:v1 {F13.4}
SW   .V/V_DECIMAL                                      :SW:UNKNOWN:rC:NONE:v1 {F13.4}
VSH  .V/V_DECIMAL                                      :VSH:UNKNOWN:rC:NONE:v1 {F13.4}
#-----------------------------------------------------------------------------
# 
#    DEPTH        DEPTH           BVW       CARB_FLAG    COAL_FLAG      KLOGH         PHID         PHIF      SAND_FLAG       SW           VSH
#
~A  
# ...
   10662.0    1279440       0.0242       0.0000       0.0000       0.0010       0.0242       0.0242       0.0000       1.0000       0.2189
   10662.5    1279500       0.0241       0.0000       0.0000       0.0010       0.0241       0.0241       0.0000       1.0000       0.2146
   10663.0    1279560       0.0242       0.0000       0.0000       0.0010       0.0242       0.0242       0.0000       1.0000       0.1875
   10663.5    1279620       0.0303       0.0000       0.0000       0.0010       0.0303       0.0303       0.0000       1.0000       0.1822
   10664.0    1279680       0.0360       0.0000       0.0000       0.0010       0.0360       0.0360       0.0000       1.0000       0.2200
   10664.5    1279740       0.0361       0.0000       0.0000       0.0010       0.0361       0.0361       0.0000       1.0000       0.2908
   10665.0    1279800       0.0482       0.0000       0.0000       0.0010       0.0482       0.0482       0.0000       1.0000       0.3002
   10665.5    1279860       0.0360       0.0000       0.0000       0.0010       0.0360       0.0360       0.0000       1.0000       0.2989
   10666.0    1279920       0.0302       0.0000       0.0000       0.0010       0.0302       0.0302       0.0000       1.0000       0.2909
   10666.5    1279980       0.0181       0.0000       0.0000       0.0010       0.0181       0.0181       0.0000       1.0000       0.3003
   10667.0    1280040       0.0422       0.0000       0.0000       0.0010       0.0422       0.0422       0.0000       1.0000       0.2680
   10667.5    1280100       0.0483       0.0000       0.0000       0.0010       0.0483       0.0483       0.0000       1.0000       0.2277
   10668.0    1280160       0.0541       0.0000       0.0000       0.0010       0.0541       0.0541       0.0000       1.0000       0.2142
   10668.5    1280220       0.0361       0.0000       0.0000       0.0010       0.0361       0.0361       0.0000       1.0000       0.1930
   10669.0    1280280       0.0361       0.0000       0.0000       0.0010       0.0361       0.0361       0.0000       1.0000       0.2053
   10669.5    1280340       0.0303       0.0000       0.0000       0.0010       0.0303       0.0303       0.0000       1.0000       0.2478
   10670.0    1280400       0.0360       0.0000       0.0000       0.0010       0.0360       0.0360       0.0000       1.0000       0.3038
   10670.5    1280460       0.0361       0.0000       0.0000       0.0010       0.0361       0.0361       0.0000       1.0000       0.3430
   10671.0    1280520       0.0241       0.0000       0.0000       0.0010       0.0241       0.0241       0.0000       1.0000       0.3583
   10671.5    1280580       0.0241       0.0000       0.0000       0.0010       0.0241       0.0241       0.0000       1.0000       0.3335
   10672.0    1280640       0.0241       0.0000       0.0000       0.0010       0.0241       0.0241       0.0000       1.0000       0.3202
   10672.5    1280700       0.0361       0.0000       0.0000       0.0010       0.0361       0.0361       0.0000       1.0000       0.3059
   10673.0    1280760       0.0422       0.0000       0.0000       0.0010       0.0422       0.0422       0.0000       1.0000       0.3121
   10673.5    1280820       0.0482       0.0000       0.0000       0.0010       0.0482       0.0482       0.0000       1.0000       0.3086
   10674.0    1280880       0.0482       0.0000       0.0000       0.0010       0.0482       0.0482       0.0000       1.0000       0.3107
   10674.5    1280940       0.0423       0.0000       0.0000       0.0010       0.0423       0.0423       0.0000       1.0000       0.3264
   10675.0    1281000       0.0361       0.0000       0.0000       0.0010       0.0361       0.0361       0.0000       1.0000       0.3174
   10675.5    1281060       0.0422       0.0000       0.0000       0.0010       0.0422       0.0422       0.0000       1.0000       0.2981
   10676.0    1281120       0.0420       0.0000       0.0000       0.0010       0.0420       0.0420       0.0000       1.0000       0.2533
   10676.5    1281180       0.0362       0.0000       0.0000       0.0010       0.0362       0.0362       0.0000       1.0000       0.2415
   10677.0    1281240       0.0422       0.0000       0.0000       0.0010       0.0422       0.0422       0.0000       1.0000       0.2170
   10677.5    1281300       0.0422       0.0000       0.0000       0.0010       0.0422       0.0422       0.0000       1.0000       0.2050
   10678.0    1281360       0.0422       0.0000       0.0000       0.0010       0.0422       0.0422       0.0000       1.0000       0.1922
   10678.5    1281420       0.0422       0.0000       0.0000       0.0010       0.0422       0.0422       0.0000       1.0000       0.1885
   10679.0    1281480       0.0361       0.0000       0.0000       0.0010       0.0361       0.0361       0.0000       1.0000       0.2043
   10679.5    1281540       0.0361       0.0000       0.0000       0.0010       0.0361       0.0361       0.0000       1.0000       0.2042
   10680.0    1281600       0.0242       0.0000       0.0000       0.0010       0.0242       0.0242       0.0000       1.0000       0.2551
   10680.5    1281660       0.0300       0.0000       0.0000       0.0010       0.0300       0.0300       0.0000       1.0000       0.2562
   10681.0    1281720       0.0422       0.0000       0.0000       0.0010       0.0422       0.0422       0.0000       1.0000       0.2694
   10681.5    1281780       0.0482       0.0000       0.0000       0.0010       0.0482       0.0482       0.0000       1.0000       0.2255
   10682.0    1281840       0.0419       0.0000       0.0000       0.0010       0.0419       0.0419       0.0000       1.0000       0.2063
   10682.5    1281900       0.0304       0.0000       0.0000       0.0010       0.0304       0.0304       0.0000       1.0000       0.1717
   10683.0    1281960       0.0241       0.0000       0.0000       0.0010       0.0241       0.0241       0.0000       1.0000       0.1507
   10683.5    1282020       0.0301       0.0000       0.0000       0.0010       0.0301       0.0301       0.0000       1.0000       0.1938
   10684.0    1282080       0.0424       0.0000       0.0000       0.0010       0.0424       0.0424       0.0000       1.0000       0.2686
   10684.5    1282140       0.0539       0.0000       0.0000       0.0010       0.0539       0.0539       0.0000       1.0000       0.3399
   10685.0    1282200       0.0542       0.0000       0.0000       0.0010       0.0542       0.0542       0.0000       1.0000       0.3467
   10685.5    1282260       0.0422       0.0000       0.0000       0.0010       0.0422       0.0422       0.0000       1.0000       0.3297
   10686.0    1282320       0.0362       0.0000       0.0000       0.0010       0.0362       0.0362       0.0000       1.0000       0.3070
   10686.5    1282380       0.0420       0.0000       0.0000       0.0010       0.0420       0.0420       0.0000       1.0000       0.2872
   10687.0    1282440       0.0362       0.0000       0.0000       0.0010       0.0362       0.0362       0.0000       1.0000       0.2639
   10687.5    1282500       0.0301       0.0000       0.0000       0.0010       0.0301       0.0301       0.0000       1.0000       0.2369
   10688.0    1282560       0.0363       0.0000       0.0000       0.0010       0.0363       0.0363       0.0000       1.0000       0.2444
   10688.5    1282620       0.0485       0.0000       0.0000       0.0010       0.0485       0.0485       0.0000       1.0000       0.2877
   10689.0    1282680       0.0600       0.0000       0.0000       0.0010       0.0600       0.0600       0.0000       1.0000       0.3517
   10689.5    1282740       0.0602       0.0000       0.0000       0.0010       0.0602       0.0602       0.0000       1.0000       0.3856
   10690.0    1282800       0.0663       0.0000       0.0000       0.0010       0.0663       0.0663       0.0000       1.0000       0.3862
   10690.5    1282860       0.0604       0.0000       0.0000       0.0010       0.0604       0.0604       0.0000       1.0000       0.3549
