~VERSION INFORMATION
VERS.           2.0   :CWLS Log ASCII Standard - VERSION 2.0
WRAP.           NO    :One Line per depth step
PROD.  Schlumberger   :LAS Producer
PROG.  DLIS to ASCII 2.3                               :LAS Program name and version
CREA.        2019/04/03 19:51                          :LAS Creation date {YYYY/MM/DD hh:mm}
DLIS_CREA.  2009-Feb-18 14:45                          :DLIS Creation date and time {YYYY-MMM-DD hh:mm}
SOURCE.     WLC_PETRO_COMPUTED_OUTPUT_1.DLIS           :DLIS File Name
FILE-ID.     OUTPUT.logdata                            :File Identification Number
#--------------------------------------------------
~WELL INFORMATION
#MNEM.UNIT      DATA             DESCRIPTION
#---- ------ --------------   -----------------------------
STRT .F         1382.0       :START DEPTH     
STOP .F        12441.0       :STOP DEPTH     
STEP .F            0.5       :STEP     
NULL .          -999.25      :NULL VALUE
COMP .                                                 :COMPANY
WELL .        15/9-F-5                                 :WELL
FLD  .        VOLVE                                    :FIELD
LOC  .                                                 :LOCATION
CNTY .        MAERSK INSPIRER                          :COUNTY
STAT .                                                 :STATE
CTRY .                                                 :COUNTRY
API  .                                                 :API NUMBER
UWI  .                                                 :UNIQUE WELL ID
DATE .                                                 :LOG DATE
SRVC .        CROCKER DATA PROCESSING                  :SERVICE COMPANY
LATI .DEG                                              :LATITUDE
LONG .DEG                                              :LONGITUDE
GDAT .                                                 :GeoDetic Datum
#-----------------------------------------------------------------------------
~PARAMETER INFORMATION
#MNEM.UNIT    VALUE                      DESCRIPTION
#---- -----   --------------------       ------------------------
WN   .        15/9-F-5                   :Well Name
FN   .        VOLVE                      :Field
CTRY .        NORWAY                     :Country
COUN .        MAERSK INSPIRER            :County or Rig name
PDAT .        MSL                        :Perm. Datum
ELZ  .M          0.00000                 :Elev. Log Zero (wrt EPD)
R2   .        INPUT                      :R2
RUN  .                                   :RUN NUMBER
EPD  .                                   :Elevation of Permanent Datum above Mean Sea Level
LMF  .                                   :Logging Measured From (Name of Logging Elevation Reference)
APD  .                                   :Elevation of Depth Reference (LMF) above Permanent Datum
#-----------------------------------------------------------------------------
~CURVE INFORMATION
#MNEM.UNIT   API CODE                                  DESCRIPTION
#---- -----  --------                                  -----------------------
DEPTH.F                                                :DEPTH (BOREHOLE) {F10.1}
DEPTH..1IN                                             :Measured Depth {I11}
BVW  .V/V_DECIMAL                                      :BVW:UNKNOWN:rC:NONE:v1 {F13.4}
CARB_FLAG.UNKNOWN                                      :CARB_FLAG:UNKNOWN:rC:NONE:v1 {F13.4}
COAL_FLAG.UNKNOWN                                      :COAL_FLAG:UNKNOWN:rC:NONE:v1 {F13.4}
KLOGH.MD                                               :KLOGH:UNKNOWN:rC:NONE:v1 {F13.4}
PHID .V/V_DECIMAL                                      :PHID:UNKNOWN:rC:NONE:v1 {F13.4}
PHIF .V/V_DECIMAL                                      :PHIF:UNKNOWN:rC:NONE:v1 {F13.4}
SAND_FLAG.UNKNOWN                                      :SAND_FLAG:UNKNOWN:rC:NONE:v1 {F13.4}
SW   .V/V_DECIMAL                                      :SW:UNKNOWN:rC:NONE:v1 {F13.4}
VSH  .V/V_DECIMAL                                      :VSH:UNKNOWN:rC:NONE:v1 {F13.4}
#-----------------------------------------------------------------------------
# 
#    DEPTH        DEPTH           BVW       CARB_FLAG    COAL_FLAG      KLOGH         PHID         PHIF      SAND_FLAG       SW           VSH
#
~A  
# ...
   11126.0    1335120       0.0902       0.0000       0.0000       0.0010       0.0902       0.0902       0.0000       1.0000       0.6970
   11126.5    1335180       0.0844       0.0000       0.0000       0.0010       0.0844       0.0844       0.0000       1.0000       0.6989
   11127.0    1335240       0.0783       0.0000       0.0000       0.0010       0.0783       0.0783       0.0000       1.0000       0.6957
   11127.5    1335300       0.0786       0.0000       0.0000       0.0010       0.0786       0.0786       0.0000       1.0000       0.7204
   11128.0    1335360       0.0965       0.0000       0.0000       0.0010       0.0965       0.0965       0.0000       1.0000       0.7455
   11128.5    1335420       0.1023       0.0000       0.0000       0.0010       0.1023       0.1023       0.0000       1.0000       0.7651
   11129.0    1335480       0.1145       0.0000       0.0000       0.0010       0.1145       0.1145       0.0000       1.0000       0.7461
   11129.5    1335540       0.1084       0.0000       0.0000       0.0010       0.1084       0.1084       0.0000       1.0000       0.7061
   11130.0    1335600       0.1086       0.0000       0.0000       0.0010       0.1086       0.1086       0.0000       1.0000       0.6903
   11130.5    1335660       0.1143       0.0000       0.0000       0.0010       0.1143       0.1143       0.0000       1.0000       0.6889
   11131.0    1335720       0.1145       0.0000       0.0000       0.0010       0.1145       0.1145       0.0000       1.0000       0.6940
   11131.5    1335780       0.1166       0.0000       0.0000       0.0010       0.1205       0.1205       0.0000       0.9679       0.6894
   11132.0    1335840       0.1082       0.0000       0.0000       0.0010       0.1082       0.1082       0.0000       1.0000       0.6653
   11132.5    1335900       0.0967       0.0000       0.0000       0.0010       0.0967       0.0967       0.0000       1.0000       0.6406
   11133.0    1335960       0.0904       0.0000       0.0000       0.0010       0.0904       0.0904       0.0000       1.0000       0.6339
   11133.5    1336020       0.0964       0.0000       0.0000       0.0010       0.0964       0.0964       0.0000       1.0000       0.6406
   11134.0    1336080       0.0954       0.0000       0.0000       0.0010       0.0954       0.0954       0.0000       1.0000       0.6341
   11134.5    1336140       0.0495       0.0000       0.0000       0.0010       0.0495       0.0495       0.0000       1.0000       0.6365
   11135.0    1336200       0.0723       0.0000       0.0000       0.0010       0.0723       0.0723       0.0000       1.0000       0.6600
   11135.5    1336260       0.0422       0.0000       0.0000       0.0010       0.0422       0.0422       0.0000       1.0000       0.7150
   11136.0    1336320       0.1080       0.0000       0.0000       0.0010       0.1080       0.1080       0.0000       1.0000       0.7177
   11136.5    1336380       0.0850       0.0000       0.0000       0.0010       0.0850       0.0850       0.0000       1.0000       0.7042
   11137.0    1336440       0.1080       0.0000       0.0000       0.0010       0.1080       0.1080       0.0000       1.0000       0.6680
   11137.5    1336500       0.1024       0.0000       0.0000       0.0010       0.1024       0.1024       0.0000       1.0000       0.6614
   11138.0    1336560       0.1084       0.0000       0.0000       0.0010       0.1084       0.1084       0.0000       1.0000       0.6706
   11138.5    1336620       0.1086       0.0000       0.0000       0.0010       0.1086       0.1086       0.0000       1.0000       0.6944
   11139.0    1336680       0.1144       0.0000       0.0000       0.0010       0.1144       0.1144       0.0000       1.0000       0.7255
   11139.5    1336740       0.1145       0.0000       0.0000       0.0010       0.1145       0.1145       0.0000       1.0000       0.7366
   11140.0    1336800       0.1145       0.0000       0.0000       0.0010       0.1145       0.1145       0.0000       1.0000       0.7273
   11140.5    1336860       0.1143       0.0000       0.0000       0.0010       0.1143       0.1143       0.0000       1.0000       0.6992
   11141.0    1336920       0.1086       0.0000       0.0000       0.0010       0.1086       0.1086       0.0000       1.0000       0.6838
   11141.5    1336980       0.1024       0.0000       0.0000       0.0010       0.1024       0.1024       0.0000       1.0000       0.6908
   11142.0    1337040       0.1024       0.0000       0.0000       0.0010       0.1024       0.1024       0.0000       1.0000       0.7032
   11142.5    1337100       0.1023       0.0000       0.0000       0.0010       0.1023       0.1023       0.0000       1.0000       0.6974
   11143.0    1337160       0.0965       0.0000       0.0000       0.0010       0.0965       0.0965       0.0000       1.0000       0.6895
   11143.5    1337220       0.0964       0.0000       0.0000       0.0010       0.0964       0.0964       0.0000       1.0000       0.6714
   11144.0    1337280       0.0964       0.0000       0.0000       0.0010       0.0964       0.0964       0.0000       1.0000       0.6857
   11144.5    1337340       0.1084       0.0000       0.0000       0.0010       0.1084       0.1084       0.0000       1.0000       0.6864
   11145.0    1337400       0.1084       0.0000       0.0000       0.0010       0.1084       0.1084       0.0000       1.0000       0.7048
   11145.5    1337460       0.1084       0.0000       0.0000       0.0010       0.1084       0.1084       0.0000       1.0000       0.7021
   11146.0    1337520       0.1084       0.0000       0.0000       0.0010       0.1084       0.1084       0.0000       1.0000       0.7281
   11146.5    1337580       0.1164       0.0000       0.0000       0.0010       0.1205       0.1205       0.0000       0.9658       0.7255
   11147.0    1337640       0.1184       0.0000       0.0000       0.0010       0.1205       0.1205       0.0000       0.9826       0.7360
   11147.5    1337700       0.1099       0.0000       0.0000       0.0010       0.1145       0.1145       0.0000       0.9603       0.7406
   11148.0    1337760       0.1129       0.0000       0.0000       0.0010       0.1145       0.1145       0.0000       0.9860       0.7525
   11148.5    1337820       0.1143       0.0000       0.0000       0.0010       0.1145       0.1145       0.0000       0.9987       0.7656
   11149.0    1337880       0.1145       0.0000       0.0000       0.0010       0.1145       0.1145       0.0000       1.0000       0.7535
   11149.5    1337940       0.1145       0.0000       0.0000       0.0010       0.1145       0.1145       0.0000       1.0000       0.7587
   11150.0    1338000       0.1024       0.0000       0.0000       0.0010       0.1024       0.1024       0.0000       1.0000       0.7561
   11150.5    1338060       0.1023       0.0000       0.0000       0.0010       0.1023       0.1023       0.0000       1.0000       0.7732
   11151.0    1338120       0.0967       0.0000       0.0000       0.0010       0.0967       0.0967       0.0000       1.0000       0.7721
   11151.5    1338180       0.1082       0.0000       0.0000       0.0010       0.1082       0.1082       0.0000       1.0000       0.7696
   11152.0    1338240       0.1145       0.0000       0.0000       0.0010       0.1145       0.1145       0.0000       1.0000       0.7451
   11152.5    1338300       0.1265       0.0000       0.0000       0.0010       0.1265       0.1265       0.0000       1.0000       0.7345
   11153.0    1338360       0.1148       0.0000       0.0000       0.0010       0.1446       0.1446       0.0000       0.7943       0.7344
   11153.5    1338420       0.0911       0.0000       0.0000       0.0010       0.1446       0.1446       0.0000       0.6300       0.7427
   11154.0    1338480       0.0835       0.0000       0.0000       0.0010       0.1506       0.1506       0.0000       0.5548       0.7479
   11154.5    1338540       0.0884       0.0000       0.0000       0.0010       0.1386       0.1386       0.0000       0.6384       0.7336
