~VERSION INFORMATION
VERS.           2.0   :CWLS Log ASCII Standard - VERSION 2.0
WRAP.           NO    :One Line per depth step
PROD.  Schlumberger   :LAS Producer
PROG.  DLIS to ASCII 2.3                               :LAS Program name and version
CREA.        2019/04/03 19:51                          :LAS Creation date {YYYY/MM/DD hh:mm}
DLIS_CREA.  2009-Feb-18 14:45                          :DLIS Creation date and time {YYYY-MMM-DD hh:mm}
SOURCE.     WLC_PETRO_COMPUTED_OUTPUT_1.DLIS           :DLIS File Name
FILE-ID.     OUTPUT.logdata                            :File Identification Number
#--------------------------------------------------
~WELL INFORMATION
#MNEM.UNIT      DATA             DESCRIPTION
#---- ------ --------------   -----------------------------
STRT .F         1382.0       :START DEPTH     
STOP .F        12441.0       :STOP DEPTH     
STEP .F            0.5       :STEP     
NULL .          -999.25      :NULL VALUE
COMP .                                                 :COMPANY
WELL .        15/9-F-5                                 :WELL
FLD  .        VOLVE                                    :FIELD
LOC  .                                                 :LOCATION
CNTY .        MAERSK INSPIRER                          :COUNTY
STAT .                                                 :STATE
CTRY .                                                 :COUNTRY
API  .                                                 :API NUMBER
UWI  .                                                 :UNIQUE WELL ID
DATE .                                                 :LOG DATE
SRVC .        CROCKER DATA PROCESSING                  :SERVICE COMPANY
LATI .DEG                                              :LATITUDE
LONG .DEG                                              :LONGITUDE
GDAT .                                                 :GeoDetic Datum
#-----------------------------------------------------------------------------
~PARAMETER INFORMATION
#MNEM.UNIT    VALUE                      DESCRIPTION
#---- -----   --------------------       ------------------------
WN   .        15/9-F-5                   :Well Name
FN   .        VOLVE                      :Field
CTRY .        NORWAY                     :Country
COUN .        MAERSK INSPIRER            :County or Rig name
PDAT .        MSL                        :Perm. Datum
ELZ  .M          0.00000                 :Elev. Log Zero (wrt EPD)
R2   .        INPUT                      :R2
RUN  .                                   :RUN NUMBER
EPD  .                                   :Elevation of Permanent Datum above Mean Sea Level
LMF  .                                   :Logging Measured From (Name of Logging Elevation Reference)
APD  .                                   :Elevation of Depth Reference (LMF) above Permanent Datum
#-----------------------------------------------------------------------------
~CURVE INFORMATION
#MNEM.UNIT   API CODE                                  DESCRIPTION
#---- -----  --------                                  -----------------------
DEPTH.F                                                :DEPTH (BOREHOLE) {F10.1}
DEPTH..1IN                                             :Measured Depth {I11}
BVW  .V/V_DECIMAL                                      :BVW:UNKNOWN:rC:NONE:v1 {F13.4}
CARB_FLAG.UNKNOWN                                      :CARB_FLAG:UNKNOWN:rC:NONE:v1 {F13.4}
COAL_FLAG.UNKNOWN                                      :COAL_FLAG:UNKNOWN:rC:NONE:v1 {F13.4}
KLOGH.MD                                               :KLOGH:UNKNOWN:rC:NONE:v1 {F13.4}
PHID .V/V_DECIMAL                                      :PHID:UNKNOWN:rC:NONE:v1 {F13.4}
PHIF .V/V_DECIMAL                                      :PHIF:UNKNOWN:rC:NONE:v1 {F13.4}
SAND_FLAG.UNKNOWN                                      :SAND_FLAG:UNKNOWN:rC:NONE:v1 {F13.4}
SW   .V/V_DECIMAL                                      :SW:UNKNOWN:rC:NONE:v1 {F13.4}
VSH  .V/V_DECIMAL                                      :VSH:UNKNOWN:rC:NONE:v1 {F13.4}
#-----------------------------------------------------------------------------
# 
#    DEPTH        DEPTH           BVW       CARB_FLAG    COAL_FLAG      KLOGH         PHID         PHIF      SAND_FLAG       SW           VSH
#
~A  
# ...
   11909.0    1429080       0.0100       0.0000       0.0000      61.3106       0.1833       0.1881       1.0000       0.0535       0.1914
   11909.5    1429140       0.0063       0.0000       0.0000     155.3485       0.2051       0.1951       1.0000       0.0321       0.1526
   11910.0    1429200       0.0041       0.0000       0.0000     117.8361       0.2114       0.1994       1.0000       0.0207       0.1693
   11910.5    1429260       0.0041       0.0000       0.0000      93.3915       0.1943       0.1915       1.0000       0.0213       0.1735
   11911.0    1429320       0.0040       0.0000       0.0000      48.3539       0.1768       0.1763       1.0000       0.0228       0.1918
   11911.5    1429380       0.0040       0.0000       0.0000      36.7115       0.1605       0.1724       1.0000       0.0233       0.2017
   11912.0    1429440       0.0040       0.0000       0.0000      25.9298       0.1600       0.1741       1.0000       0.0232       0.2200
   11912.5    1429500       0.0041       0.0000       0.0000      22.5484       0.1657       0.1806       1.0000       0.0226       0.2324
   11913.0    1429560       0.0041       0.0000       0.0000      21.0093       0.1771       0.1837       1.0000       0.0223       0.2386
   11913.5    1429620       0.0041       0.0000       0.0000      19.0836       0.1766       0.1881       1.0000       0.0220       0.2475
   11914.0    1429680       0.0041       0.0000       0.0000       8.6998       0.1603       0.1773       1.0000       0.0232       0.2758
   11914.5    1429740       0.0041       0.0000       0.0000       4.8413       0.1429       0.1698       1.0000       0.0241       0.2970
   11915.0    1429800       0.0040       0.0000       0.0000       1.6771       0.1257       0.1543       1.0000       0.0262       0.3344
   11915.5    1429860       0.0055       0.0000       0.0000       0.4052       0.1198       0.1207       1.0000       0.0453       0.3734
   11916.0    1429920       0.0158       0.0000       0.0000       0.2110       0.1144       0.1463       1.0000       0.1079       0.4276
   11916.5    1429980       0.0231       0.0000       0.0000       0.0628       0.1143       0.1143       1.0000       0.2020       0.4574
   11917.0    1430040       0.0334       0.0000       0.0000       0.0448       0.1200       0.1200       1.0000       0.2786       0.4788
   11917.5    1430100       0.0422       0.0000       0.0000       0.0622       0.1317       0.1317       1.0000       0.3201       0.4734
   11918.0    1430160       0.0464       0.0000       0.0000       0.0676       0.1426       0.1426       1.0000       0.3252       0.4790
   11918.5    1430220       0.0548       0.0000       0.0000       0.1485       0.1657       0.1829       1.0000       0.2994       0.4769
   11919.0    1430280       0.0647       0.0000       0.0000       0.1314       0.1771       0.1948       1.0000       0.3321       0.4933
   11919.5    1430340       0.0703       0.0000       0.0000       0.2105       0.1884       0.2099       1.0000       0.3347       0.4840
   11920.0    1430400       0.0704       0.0000       0.0000       0.2248       0.1830       0.2038       1.0000       0.3454       0.4754
   11920.5    1430460       0.0723       0.0000       0.0000       0.3247       0.1771       0.1968       1.0000       0.3675       0.4515
   11921.0    1430520       0.0718       0.0000       0.0000       0.3066       0.1771       0.2003       1.0000       0.3586       0.4573
   11921.5    1430580       0.0753       0.0000       0.0000       0.4239       0.1831       0.2028       1.0000       0.3714       0.4440
   11922.0    1430640       0.0782       0.0000       0.0000       0.6012       0.1940       0.2179       1.0000       0.3588       0.4405
   11922.5    1430700       0.0767       0.0000       0.0000       0.5857       0.1829       0.1992       1.0000       0.3849       0.4251
   11923.0    1430760       0.0745       0.0000       0.0000       0.4799       0.1829       0.2010       1.0000       0.3704       0.4363
   11923.5    1430820       0.0770       0.0000       0.0000       0.5009       0.1712       0.1958       1.0000       0.3935       0.4296
   11924.0    1430880       0.0703       0.0000       0.0000       0.4569       0.1603       0.1845       1.0000       0.3813       0.4240
   11924.5    1430940       0.0667       0.0000       0.0000       0.5444       0.1488       0.1743       1.0000       0.3828       0.4066
   11925.0    1431000       0.0625       0.0000       0.0000       0.5004       0.1314       0.1607       1.0000       0.3890       0.3984
   11925.5    1431060       0.0586       0.0000       0.0000       0.6586       0.1253       0.1562       1.0000       0.3755       0.3815
   11926.0    1431120       0.0508       0.0000       0.0000       0.2558       0.1025       0.1025       0.9702       0.4952       0.3791
   11926.5    1431180       0.0465       0.0000       0.0000       0.2340       0.0916       0.0916       0.0171       0.5078       0.3737
   11927.0    1431240       0.0440       0.0000       0.0000       0.2551       0.0743       0.0743       0.0000       0.5924       0.3542
   11927.5    1431300       0.0396       0.0000       0.0000       0.3616       0.0686       0.0686       0.0000       0.5777       0.3323
   11928.0    1431360       0.0397       0.0000       0.0000       0.5797       0.0627       0.0627       0.0000       0.6338       0.3043
   11928.5    1431420       0.0388       0.0000       0.0000       0.5569       0.0573       0.0573       0.0000       0.6780       0.3014
   11929.0    1431480       0.0362       1.0000       0.0000       0.5166       0.0400       0.0400       0.0000       0.9050       0.2897
   11929.5    1431540       0.0286       1.0000       0.0000       0.5405       0.0286       0.0286       0.0000       1.0000       0.2773
   11930.0    1431600       0.0171       1.0000       0.0000       0.3692       0.0171       0.0171       0.0000       1.0000       0.2856
   11930.5    1431660       0.0171       1.0000       0.0000       0.3488       0.0171       0.0171       0.0000       1.0000       0.2883
   11931.0    1431720       0.0343       0.0000       0.0000       0.4583       0.0343       0.0343       0.0000       1.0000       0.2903
   11931.5    1431780       0.0463       0.0000       0.0000       2.7705       0.0629       0.0918       0.0000       0.5041       0.2546
   11932.0    1431840       0.0473       0.0000       0.0000       6.6585       0.1096       0.1272       1.0000       0.3726       0.2439
   11932.5    1431900       0.0478       0.0000       0.0000      10.1983       0.1531       0.1587       1.0000       0.3013       0.2514
   11933.0    1431960       0.0479       0.0000       0.0000      13.1340       0.1886       0.1893       1.0000       0.2532       0.2663
   11933.5    1432020       0.0500       0.0000       0.0000      18.5814       0.2171       0.2186       1.0000       0.2287       0.2756
   11934.0    1432080       0.0513       0.0000       0.0000      16.1863       0.2287       0.2250       1.0000       0.2282       0.2879
   11934.5    1432140       0.0530       0.0000       0.0000      11.3019       0.2341       0.2305       1.0000       0.2298       0.3102
   11935.0    1432200       0.0541       0.0000       0.0000       8.5342       0.2229       0.2246       1.0000       0.2410       0.3184
   11935.5    1432260       0.0554       0.0000       0.0000       8.5560       0.2114       0.2327       1.0000       0.2381       0.3255
   11936.0    1432320       0.0553       0.0000       0.0000       7.3422       0.2001       0.2153       1.0000       0.2567       0.3174
   11936.5    1432380       0.0577       0.0000       0.0000       5.9599       0.2055       0.2164       1.0000       0.2666       0.3284
   11937.0    1432440       0.0604       0.0000       0.0000       5.4894       0.2113       0.2255       1.0000       0.2677       0.3405
   11937.5    1432500       0.0611       0.0000       0.0000       4.9780       0.2229       0.2330       1.0000       0.2621       0.3519
