~VERSION INFORMATION
VERS.           2.0   :CWLS Log ASCII Standard - VERSION 2.0
WRAP.           NO    :One Line per depth step
PROD.  Schlumberger   :LAS Producer
PROG.  DLIS to ASCII 2.3                               :LAS Program name and version
CREA.        2019/04/03 19:51                          :LAS Creation date {YYYY/MM/DD hh:mm}
DLIS_CREA.  2009-Feb-18 14:45                          :DLIS Creation date and time {YYYY-MMM-DD hh:mm}
SOURCE.     WLC_PETRO_COMPUTED_OUTPUT_1.DLIS           :DLIS File Name
FILE-ID.     OUTPUT.logdata                            :File Identification Number
#--------------------------------------------------
~WELL INFORMATION
#MNEM.UNIT      DATA             DESCRIPTION
#---- ------ --------------   -----------------------------
STRT .F         1382.0       :START DEPTH     
STOP .F        12441.0       :STOP DEPTH     
STEP .F            0.5       :STEP     
NULL .          -999.25      :NULL VALUE
COMP .                                                 :COMPANY
WELL .        15/9-F-5                                 :WELL
FLD  .        VOLVE                                    :FIELD
LOC  .                                                 :LOCATION
CNTY .        MAERSK INSPIRER                          :COUNTY
STAT .                                                 :STATE
CTRY .                                                 :COUNTRY
API  .                                                 :API NUMBER
UWI  .                                                 :UNIQUE WELL ID
DATE .                                                 :LOG DATE
SRVC .        CROCKER DATA PROCESSING                  :SERVICE COMPANY
LATI .DEG                                              :LATITUDE
LONG .DEG                                              :LONGITUDE
GDAT .                                                 :GeoDetic Datum
#-----------------------------------------------------------------------------
~PARAMETER INFORMATION
#MNEM.UNIT    VALUE                      DESCRIPTION
#---- -----   --------------------       ------------------------
WN   .        15/9-F-5                   :Well Name
FN   .        VOLVE                      :Field
CTRY .        NORWAY                     :Country
COUN .        MAERSK INSPIRER            :County or Rig name
PDAT .        MSL                        :Perm. Datum
ELZ  .M          0.00000                 :Elev. Log Zero (wrt EPD)
R2   .        INPUT                      :R2
RUN  .                                   :RUN NUMBER
EPD  .                                   :Elevation of Permanent Datum above Mean Sea Level
LMF  .                                   :Logging Measured From (Name of Logging Elevation Reference)
APD  .                                   :Elevation of Depth Reference (LMF) above Permanent Datum
#-----------------------------------------------------------------------------
~CURVE INFORMATION
#MNEM.UNIT   API CODE                                  DESCRIPTION
#---- -----  --------                                  -----------------------
DEPTH.F                                                :DEPTH (BOREHOLE) {F10.1}
DEPTH..1IN                                             :Measured Depth {I11}
BVW  .V/V_DECIMAL                                      :BVW:UNKNOWN:rC:NONE:v1 {F13.4}
CARB_FLAG.UNKNOWN                                      :CARB_FLAG:UNKNOWN:rC:NONE:v1 {F13.4}
COAL_FLAG.UNKNOWN                                      :COAL_FLAG:UNKNOWN:rC:NONE:v1 {F13.4}
KLOGH.MD                                               :KLOGH:UNKNOWN:rC:NONE:v1 {F13.4}
PHID .V/V_DECIMAL                                      :PHID:UNKNOWN:rC:NONE:v1 {F13.4}
PHIF .V/V_DECIMAL                                      :PHIF:UNKNOWN:rC:NONE:v1 {F13.4}
SAND_FLAG.UNKNOWN                                      :SAND_FLAG:UNKNOWN:rC:NONE:v1 {F13.4}
SW   .V/V_DECIMAL                                      :SW:UNKNOWN:rC:NONE:v1 {F13.4}
VSH  .V/V_DECIMAL                                      :VSH:UNKNOWN:rC:NONE:v1 {F13.4}
#-----------------------------------------------------------------------------
# 
#    DEPTH        DEPTH           BVW       CARB_FLAG    COAL_FLAG      KLOGH         PHID         PHIF      SAND_FLAG       SW           VSH
#
~A  
# ...
   11242.0    1349040       0.0783       0.0000       0.0000       0.0010       0.0783       0.0783       0.0000       1.0000       0.8035
   11242.5    1349100       0.0723       0.0000       0.0000       0.0010       0.0723       0.0723       0.0000       1.0000       0.7823
   11243.0    1349160       0.0723       0.0000       0.0000       0.0010       0.0723       0.0723       0.0000       1.0000       0.7914
   11243.5    1349220       0.0663       0.0000       0.0000       0.0010       0.0663       0.0663       0.0000       1.0000       0.7760
   11244.0    1349280       0.0783       0.0000       0.0000       0.0010       0.0783       0.0783       0.0000       1.0000       0.7758
   11244.5    1349340       0.0904       0.0000       0.0000       0.0010       0.0904       0.0904       0.0000       1.0000       0.8036
   11245.0    1349400       0.0904       0.0000       0.0000       0.0010       0.0904       0.0904       0.0000       1.0000       0.8287
   11245.5    1349460       0.1024       0.0000       0.0000       0.0010       0.1024       0.1024       0.0000       1.0000       0.8299
   11246.0    1349520       0.1024       0.0000       0.0000       0.0010       0.1024       0.1024       0.0000       1.0000       0.8280
   11246.5    1349580       0.1023       0.0000       0.0000       0.0010       0.1023       0.1023       0.0000       1.0000       0.8211
   11247.0    1349640       0.0966       0.0000       0.0000       0.0010       0.0966       0.0966       0.0000       1.0000       0.8137
   11247.5    1349700       0.0904       0.0000       0.0000       0.0010       0.0904       0.0904       0.0000       1.0000       0.7767
   11248.0    1349760       0.0904       0.0000       0.0000       0.0010       0.0904       0.0904       0.0000       1.0000       0.7411
   11248.5    1349820       0.0961       0.0000       0.0000       0.0010       0.0961       0.0961       0.0000       1.0000       0.7214
   11249.0    1349880       0.0788       0.0000       0.0000       0.0010       0.0788       0.0788       0.0000       1.0000       0.7167
   11249.5    1349940       0.0724       0.0000       0.0000       0.0010       0.0724       0.0724       0.0000       1.0000       0.6767
   11250.0    1350000       0.0301       1.0000       0.0000       0.0010       0.0301       0.0301       0.0000       1.0000       0.5849
   11250.5    1350060       0.0180       1.0000       0.0000       0.0010       0.0180       0.0180       0.0000       1.0000       0.4866
   11251.0    1350120       0.0131       0.9702       0.0000       0.0010       0.0131       0.0131       0.0000       1.0000       0.4275
   11251.5    1350180       0.0476       0.0172       0.0000       0.0010       0.0476       0.0476       0.0000       1.0000       0.3984
   11252.0    1350240       0.0663       0.0000       0.0000       0.0010       0.0663       0.0663       0.0000       1.0000       0.3725
   11252.5    1350300       0.0542       0.0000       0.0000       0.0010       0.0542       0.0542       0.0000       1.0000       0.3583
   11253.0    1350360       0.0487       0.0000       0.0000       0.0010       0.0487       0.0487       0.0000       1.0000       0.3754
   11253.5    1350420       0.0659       0.0000       0.0000       0.0010       0.0659       0.0659       0.0000       1.0000       0.3801
   11254.0    1350480       0.1024       0.0000       0.0000       0.0010       0.1024       0.1024       1.0000       1.0000       0.3983
   11254.5    1350540       0.1265       0.0000       0.0000       0.0010       0.1265       0.1265       1.0000       1.0000       0.3964
   11255.0    1350600       0.1265       0.0000       0.0000       0.0010       0.1265       0.1265       1.0000       1.0000       0.3991
   11255.5    1350660       0.1265       0.0000       0.0000       0.0010       0.1265       0.1265       1.0000       1.0000       0.3757
   11256.0    1350720       0.1325       0.0000       0.0000       0.0010       0.1325       0.1325       1.0000       1.0000       0.3502
   11256.5    1350780       0.1386       0.0000       0.0000       0.0010       0.1386       0.1386       1.0000       1.0000       0.3320
   11257.0    1350840       0.1443       0.0000       0.0000       0.0010       0.1443       0.1443       1.0000       1.0000       0.3176
   11257.5    1350900       0.1328       0.0000       0.0000       0.0010       0.1328       0.1328       1.0000       1.0000       0.3168
   11258.0    1350960       0.1265       0.0000       0.0000       0.0010       0.1265       0.1265       1.0000       1.0000       0.3272
   11258.5    1351020       0.1325       0.0000       0.0000       0.0010       0.1325       0.1325       1.0000       1.0000       0.3361
   11259.0    1351080       0.1324       0.0000       0.0000       0.0010       0.1324       0.1324       1.0000       1.0000       0.3294
   11259.5    1351140       0.1267       0.0000       0.0000       0.0010       0.1267       0.1267       1.0000       1.0000       0.3346
   11260.0    1351200       0.1084       0.0000       0.0000       0.0010       0.1084       0.1084       1.0000       1.0000       0.3202
   11260.5    1351260       0.1145       0.0000       0.0000       0.0010       0.1145       0.1145       1.0000       1.0000       0.3153
   11261.0    1351320       0.1209       0.0000       0.0000       0.0010       0.1209       0.1209       1.0000       1.0000       0.2838
   11261.5    1351380       0.1439       0.0000       0.0000       0.0010       0.1439       0.1439       1.0000       1.0000       0.2963
   11262.0    1351440       0.1505       0.0000       0.0000       0.0010       0.1505       0.1505       1.0000       1.0000       0.2978
   11262.5    1351500       0.1506       0.0000       0.0000       0.0010       0.1506       0.1506       1.0000       1.0000       0.3135
   11263.0    1351560       0.0958       1.0000       0.0000       0.0010       0.0958       0.0958       0.0000       1.0000       0.2856
   11263.5    1351620       0.0592       1.0000       0.0000       0.0010       0.0592       0.0592       0.0000       1.0000       0.2904
   11264.0    1351680       0.0247       1.0000       0.0000       0.0010       0.0247       0.0247       0.0000       1.0000       0.2927
   11264.5    1351740       0.0602       1.0000       0.0000       0.0010       0.0602       0.0602       0.0000       1.0000       0.3010
   11265.0    1351800       0.0904       1.0000       0.0000       0.0010       0.0904       0.0904       0.0000       1.0000       0.2919
   11265.5    1351860       0.0966       0.9722       0.0000       0.0010       0.0966       0.0966       0.0278       1.0000       0.2874
   11266.0    1351920       0.1023       0.0192       0.0000       0.0010       0.1023       0.1023       0.9808       1.0000       0.2807
   11266.5    1351980       0.1024       0.0000       0.0000       0.0010       0.1024       0.1024       1.0000       1.0000       0.2637
   11267.0    1352040       0.1205       0.0000       0.0000       0.0010       0.1205       0.1205       1.0000       1.0000       0.2347
   11267.5    1352100       0.1143       0.0000       0.0000       0.0010       0.1143       0.1143       1.0000       1.0000       0.2289
   11268.0    1352160       0.1086       0.0000       0.0000       0.0010       0.1086       0.1086       1.0000       1.0000       0.2109
   11268.5    1352220       0.0964       0.0000       0.0000       0.0010       0.0964       0.0964       0.0000       1.0000       0.2203
   11269.0    1352280       0.0904       0.0000       0.0000       0.0010       0.0904       0.0904       0.0000       1.0000       0.2161
   11269.5    1352340       0.0902       0.0000       0.0000       0.0010       0.0902       0.0902       0.0000       1.0000       0.2402
   11270.0    1352400       0.0845       0.0000       0.0000       0.0010       0.0845       0.0845       0.0000       1.0000       0.2362
   11270.5    1352460       0.0904       0.0000       0.0000       0.0010       0.0904       0.0904       0.0000       1.0000       0.2235
