~VERSION INFORMATION
VERS.           2.0   :CWLS Log ASCII Standard - VERSION 2.0
WRAP.           NO    :One Line per depth step
PROD.  Schlumberger   :LAS Producer
PROG.  DLIS to ASCII 2.3                               :LAS Program name and version
CREA.        2019/04/03 19:51                          :LAS Creation date {YYYY/MM/DD hh:mm}
DLIS_CREA.  2009-Feb-18 14:45                          :DLIS Creation date and time {YYYY-MMM-DD hh:mm}
SOURCE.     WLC_PETRO_COMPUTED_OUTPUT_1.DLIS           :DLIS File Name
FILE-ID.     OUTPUT.logdata                            :File Identification Number
#--------------------------------------------------
~WELL INFORMATION
#MNEM.UNIT      DATA             DESCRIPTION
#---- ------ --------------   -----------------------------
STRT .F         1382.0       :START DEPTH     
STOP .F        12441.0       :STOP DEPTH     
STEP .F            0.5       :STEP     
NULL .          -999.25      :NULL VALUE
COMP .                                                 :COMPANY
WELL .        15/9-F-5                                 :WELL
FLD  .        VOLVE                                    :FIELD
LOC  .                                                 :LOCATION
CNTY .        MAERSK INSPIRER                          :COUNTY
STAT .                                                 :STATE
CTRY .                                                 :COUNTRY
API  .                                                 :API NUMBER
UWI  .                                                 :UNIQUE WELL ID
DATE .                                                 :LOG DATE
SRVC .        CROCKER DATA PROCESSING                  :SERVICE COMPANY
LATI .DEG                                              :LATITUDE
LONG .DEG                                              :LONGITUDE
GDAT .                                                 :GeoDetic Datum
#-----------------------------------------------------------------------------
~PARAMETER INFORMATION
#MNEM.UNIT    VALUE                      DESCRIPTION
#---- -----   --------------------       ------------------------
WN   .        15/9-F-5                   :Well Name
FN   .        VOLVE                      :Field
CTRY .        NORWAY                     :Country
COUN .        MAERSK INSPIRER            :County or Rig name
PDAT .        MSL                        :Perm. Datum
ELZ  .M          0.00000                 :Elev. Log Zero (wrt EPD)
R2   .        INPUT                      :R2
RUN  .                                   :RUN NUMBER
EPD  .                                   :Elevation of Permanent Datum above Mean Sea Level
LMF  .                                   :Logging Measured From (Name of Logging Elevation Reference)
APD  .                                   :Elevation of Depth Reference (LMF) above Permanent Datum
#-----------------------------------------------------------------------------
~CURVE INFORMATION
#MNEM.UNIT   API CODE                                  DESCRIPTION
#---- -----  --------                                  -----------------------
DEPTH.F                                                :DEPTH (BOREHOLE) {F10.1}
DEPTH..1IN                                             :Measured Depth {I11}
BVW  .V/V_DECIMAL                                      :BVW:UNKNOWN:rC:NONE:v1 {F13.4}
CARB_FLAG.UNKNOWN                                      :CARB_FLAG:UNKNOWN:rC:NONE:v1 {F13.4}
COAL_FLAG.UNKNOWN                                      :COAL_FLAG:UNKNOWN:rC:NONE:v1 {F13.4}
KLOGH.MD                                               :KLOGH:UNKNOWN:rC:NONE:v1 {F13.4}
PHID .V/V_DECIMAL                                      :PHID:UNKNOWN:rC:NONE:v1 {F13.4}
PHIF .V/V_DECIMAL                                      :PHIF:UNKNOWN:rC:NONE:v1 {F13.4}
SAND_FLAG.UNKNOWN                                      :SAND_FLAG:UNKNOWN:rC:NONE:v1 {F13.4}
SW   .V/V_DECIMAL                                      :SW:UNKNOWN:rC:NONE:v1 {F13.4}
VSH  .V/V_DECIMAL                                      :VSH:UNKNOWN:rC:NONE:v1 {F13.4}
#-----------------------------------------------------------------------------
# 
#    DEPTH        DEPTH           BVW       CARB_FLAG    COAL_FLAG      KLOGH         PHID         PHIF      SAND_FLAG       SW           VSH
#
~A  
# ...
   12257.0    1470840       0.0768       0.0000       0.0000       0.4263       0.1205       0.1445       0.0000       0.5312       1.0000
   12257.5    1470900       0.0832       0.0000       0.0000       1.0400       0.1423       0.1567       0.0000       0.5308       1.0000
   12258.0    1470960       0.0931       0.0000       0.0000       2.4916       0.1600       0.1686       0.0000       0.5519       1.0000
   12258.5    1471020       0.1027       0.0000       0.0000       3.2294       0.1600       0.1722       0.0000       0.5968       1.0000
   12259.0    1471080       0.1163       0.0000       0.0000       5.2038       0.1657       0.1786       0.0000       0.6510       1.0000
   12259.5    1471140       0.1423       0.0000       0.0000       5.3221       0.1657       0.1789       0.0000       0.7951       1.0000
   12260.0    1471200       0.1572       0.0000       0.0000       8.0011       0.1713       0.1845       0.0000       0.8520       1.0000
   12260.5    1471260       0.1689       0.0000       0.0000      15.1046       0.1714       0.1931       0.0000       0.8749       1.0000
   12261.0    1471320       0.1556       0.0000       0.0000       9.4273       0.1656       0.1866       0.0000       0.8336       1.0000
   12261.5    1471380       0.1498       0.0000       0.0000       4.7092       0.1602       0.1771       0.0000       0.8456       1.0000
   12262.0    1471440       0.1603       0.0000       0.0000       6.1974       0.1488       0.1787       0.0000       0.8972       0.9635
   12262.5    1471500       0.1553       0.0000       0.0000       5.0890       0.1486       0.1759       0.0000       0.8829       0.9611
   12263.0    1471560       0.1539       0.0000       0.0000       2.3079       0.1486       0.1676       0.0000       0.9181       1.0000
   12263.5    1471620       0.1524       0.0000       0.0000       2.9713       0.1487       0.1710       0.0000       0.8913       1.0000
   12264.0    1471680       0.1514       0.0000       0.0000       4.9046       0.1542       0.1778       0.0000       0.8514       1.0000
   12264.5    1471740       0.1523       0.0000       0.0000       5.4236       0.1600       0.1752       0.0000       0.8693       0.9367
   12265.0    1471800       0.1618       0.0000       0.0000       9.3522       0.1600       0.1736       0.0000       0.9320       0.7928
   12265.5    1471860       0.1690       0.0000       0.0000      10.6422       0.1543       0.1692       0.0000       0.9984       0.6942
   12266.0    1471920       0.1713       0.0000       0.0000      11.6600       0.1543       0.1713       0.0000       1.0000       0.7073
   12266.5    1471980       0.1714       0.0000       0.0000      21.5129       0.1657       0.1847       0.0000       0.9282       0.7883
   12267.0    1472040       0.1658       0.0000       0.0000      37.7597       0.1829       0.1964       0.0000       0.8439       0.8544
   12267.5    1472100       0.1664       0.0000       0.0000      38.0580       0.1829       0.1992       0.0000       0.8352       0.8978
   12268.0    1472160       0.1676       0.0000       0.0000      31.3439       0.1829       0.1983       0.0000       0.8455       0.9242
   12268.5    1472220       0.1646       0.0000       0.0000      11.8140       0.1714       0.1877       0.0000       0.8772       0.9670
   12269.0    1472280       0.1588       0.0000       0.0000      12.1090       0.1714       0.1901       0.0000       0.8356       1.0000
   12269.5    1472340       0.1598       0.0000       0.0000      14.0687       0.1712       0.1920       0.0000       0.8324       1.0000
   12270.0    1472400       0.1507       0.0000       0.0000       5.0936       0.1603       0.1781       0.0000       0.8464       1.0000
   12270.5    1472460       0.1388       0.0000       0.0000       1.4535       0.1371       0.1613       0.0000       0.8602       1.0000
   12271.0    1472520       0.1245       0.0000       0.0000       0.6913       0.1200       0.1512       0.0000       0.8230       1.0000
   12271.5    1472580       0.1208       0.0000       0.0000       1.0807       0.1319       0.1572       0.0000       0.7685       1.0000
   12272.0    1472640       0.1245       0.0000       0.0000       2.4901       0.1537       0.1685       0.0000       0.7386       1.0000
   12272.5    1472700       0.1298       0.0000       0.0000       6.5650       0.1657       0.1818       0.0000       0.7138       1.0000
   12273.0    1472760       0.1400       0.0000       0.0000      12.6564       0.1714       0.1907       0.0000       0.7341       1.0000
   12273.5    1472820       0.1680       0.0000       0.0000      13.0151       0.1830       0.1911       0.0000       0.8791       1.0000
   12274.0    1472880       0.1924       0.0000       0.0000      15.1756       0.1884       0.1932       0.0000       0.9962       1.0000
   12274.5    1472940       0.1772       0.0000       0.0000      16.5837       0.1886       0.1944       0.0000       0.9114       1.0000
   12275.0    1473000       0.1626       0.0000       0.0000      14.3824       0.1771       0.1897       0.0000       0.8568       0.9567
   12275.5    1473060       0.1627       0.0000       0.0000       9.5638       0.1656       0.1829       0.0000       0.8897       0.9360
   12276.0    1473120       0.1576       0.0000       0.0000      10.3610       0.1600       0.1864       0.0000       0.8453       0.9776
   12276.5    1473180       0.1635       0.0000       0.0000       3.9439       0.1600       0.1747       0.0000       0.9360       0.9996
   12277.0    1473240       0.1620       0.0000       0.0000       2.7185       0.1486       0.1698       0.0000       0.9541       1.0000
   12277.5    1473300       0.1513       0.0000       0.0000       3.0490       0.1483       0.1713       0.0000       0.8830       1.0000
   12278.0    1473360       0.1288       0.0000       0.0000       1.0565       0.1308       0.1568       0.0000       0.8213       1.0000
   12278.5    1473420       0.1123       0.0000       0.0000       0.3350       0.1090       0.1411       0.0000       0.7954       1.0000
   12279.0    1473480       0.0800       0.0000       0.0000       0.0036       0.0800       0.0800       0.0000       1.0000       1.0000
   12279.5    1473540       0.0686       0.0000       0.0000       0.0016       0.0686       0.0686       0.0000       1.0000       1.0000
   12280.0    1473600       0.0746       0.0000       0.0000       0.0025       0.0746       0.0746       0.0000       1.0000       1.0000
   12280.5    1473660       0.0855       0.0000       0.0000       0.0055       0.0855       0.0855       0.0000       1.0000       1.0000
   12281.0    1473720       0.0914       0.0000       0.0000       0.0084       0.0914       0.0914       0.0000       1.0000       1.0000
   12281.5    1473780       0.0800       0.0000       0.0000       0.0036       0.0800       0.0800       0.0000       1.0000       1.0000
   12282.0    1473840       0.0800       0.0000       0.0000       0.0036       0.0800       0.0800       0.0000       1.0000       0.9991
   12282.5    1473900       0.0800       0.0000       0.0000       0.0044       0.0800       0.0800       0.0000       1.0000       0.9596
   12283.0    1473960       0.0914       0.0000       0.0000       0.0113       0.0914       0.0914       0.0000       1.0000       0.9370
   12283.5    1474020       0.0857       0.0000       0.0000       0.0082       0.0857       0.0857       0.0000       1.0000       0.9139
   12284.0    1474080       0.0792       0.0000       0.0000       0.0063       0.0792       0.0792       0.0000       1.0000       0.8765
   12284.5    1474140       0.0411       0.0000       0.0000       0.0012       0.0411       0.0411       0.0000       1.0000       0.8413
   12285.0    1474200       0.0286       1.0000       0.0000       0.0010       0.0286       0.0286       0.0000       1.0000       0.7873
   12285.5    1474260       0.0114       1.0000       0.0000       0.0010       0.0114       0.0114       0.0000       1.0000       0.7063
