~VERSION INFORMATION
VERS.           2.0   :CWLS Log ASCII Standard - VERSION 2.0
WRAP.           NO    :One Line per depth step
PROD.  Schlumberger   :LAS Producer
PROG.  DLIS to ASCII 2.3                               :LAS Program name and version
CREA.        2019/04/03 19:51                          :LAS Creation date {YYYY/MM/DD hh:mm}
DLIS_CREA.  2009-Feb-18 14:45                          :DLIS Creation date and time {YYYY-MMM-DD hh:mm}
SOURCE.     WLC_PETRO_COMPUTED_OUTPUT_1.DLIS           :DLIS File Name
FILE-ID.     OUTPUT.logdata                            :File Identification Number
#--------------------------------------------------
~WELL INFORMATION
#MNEM.UNIT      DATA             DESCRIPTION
#---- ------ --------------   -----------------------------
STRT .F         1382.0       :START DEPTH     
STOP .F        12441.0       :STOP DEPTH     
STEP .F            0.5       :STEP     
NULL .          -999.25      :NULL VALUE
COMP .                                                 :COMPANY
WELL .        15/9-F-5                                 :WELL
FLD  .        VOLVE                                    :FIELD
LOC  .                                                 :LOCATION
CNTY .        MAERSK INSPIRER                          :COUNTY
STAT .                                                 :STATE
CTRY .                                                 :COUNTRY
API  .                                                 :API NUMBER
UWI  .                                                 :UNIQUE WELL ID
DATE .                                                 :LOG DATE
SRVC .        CROCKER DATA PROCESSING                  :SERVICE COMPANY
LATI .DEG                                              :LATITUDE
LONG .DEG                                              :LONGITUDE
GDAT .                                                 :GeoDetic Datum
#-----------------------------------------------------------------------------
~PARAMETER INFORMATION
#MNEM.UNIT    VALUE                      DESCRIPTION
#---- -----   --------------------       ------------------------
WN   .        15/9-F-5                   :Well Name
FN   .        VOLVE                      :Field
CTRY .        NORWAY                     :Country
COUN .        MAERSK INSPIRER            :County or Rig name
PDAT .        MSL                        :Perm. Datum
ELZ  .M          0.00000                 :Elev. Log Zero (wrt EPD)
R2   .        INPUT                      :R2
RUN  .                                   :RUN NUMBER
EPD  .                                   :Elevation of Permanent Datum above Mean Sea Level
LMF  .                                   :Logging Measured From (Name of Logging Elevation Reference)
APD  .                                   :Elevation of Depth Reference (LMF) above Permanent Datum
#-----------------------------------------------------------------------------
~CURVE INFORMATION
#MNEM.UNIT   API CODE                                  DESCRIPTION
#---- -----  --------                                  -----------------------
DEPTH.F                                                :DEPTH (BOREHOLE) {F10.1}
DEPTH..1IN                                             :Measured Depth {I11}
BVW  .V/V_DECIMAL                                      :BVW:UNKNOWN:rC:NONE:v1 {F13.4}
CARB_FLAG.UNKNOWN                                      :CARB_FLAG:UNKNOWN:rC:NONE:v1 {F13.4}
COAL_FLAG.UNKNOWN                                      :COAL_FLAG:UNKNOWN:rC:NONE:v1 {F13.4}
KLOGH.MD                                               :KLOGH:UNKNOWN:rC:NONE:v1 {F13.4}
PHID .V/V_DECIMAL                                      :PHID:UNKNOWN:rC:NONE:v1 {F13.4}
PHIF .V/V_DECIMAL                                      :PHIF:UNKNOWN:rC:NONE:v1 {F13.4}
SAND_FLAG.UNKNOWN                                      :SAND_FLAG:UNKNOWN:rC:NONE:v1 {F13.4}
SW   .V/V_DECIMAL                                      :SW:UNKNOWN:rC:NONE:v1 {F13.4}
VSH  .V/V_DECIMAL                                      :VSH:UNKNOWN:rC:NONE:v1 {F13.4}
#-----------------------------------------------------------------------------
# 
#    DEPTH        DEPTH           BVW       CARB_FLAG    COAL_FLAG      KLOGH         PHID         PHIF      SAND_FLAG       SW           VSH
#
~A  
# ...
   11793.0    1415160       0.0492       0.0000       0.0000       0.6126       0.0914       0.1197       1.0000       0.4108       0.3523
   11793.5    1415220       0.0510       0.0000       0.0000       0.5024       0.0914       0.1165       1.0000       0.4380       0.3590
   11794.0    1415280       0.0538       0.0000       0.0000       0.6676       0.0971       0.1303       1.0000       0.4126       0.3576
   11794.5    1415340       0.0536       0.0000       0.0000       0.7548       0.1087       0.1378       1.0000       0.3890       0.3583
   11795.0    1415400       0.0496       0.0000       0.0000       0.6201       0.1141       0.1354       1.0000       0.3662       0.3656
   11795.5    1415460       0.0487       0.0000       0.0000       0.5356       0.0914       0.1252       1.0000       0.3889       0.3637
   11796.0    1415520       0.0430       0.0000       0.0000       0.1916       0.0629       0.0629       0.0000       0.6847       0.3578
   11796.5    1415580       0.0230       0.0000       0.0000       0.1100       0.0230       0.0230       0.0000       1.0000       0.3493
   11797.0    1415640       0.0284       0.0000       0.0000       0.1852       0.0284       0.0284       0.0000       1.0000       0.3290
   11797.5    1415700       0.0362       0.0000       0.0000       0.2638       0.0400       0.0400       0.0000       0.9047       0.3221
   11798.0    1415760       0.0438       0.0000       0.0000       1.4498       0.0800       0.1069       1.0000       0.4100       0.2993
   11798.5    1415820       0.0449       0.0000       0.0000       1.3752       0.1087       0.1270       1.0000       0.3538       0.3198
   11799.0    1415880       0.0441       0.0000       0.0000       1.7151       0.1141       0.1304       1.0000       0.3380       0.3122
   11799.5    1415940       0.0437       0.0000       0.0000       1.6115       0.1030       0.1236       1.0000       0.3538       0.3091
   11800.0    1416000       0.0418       0.0000       0.0000       2.0899       0.0857       0.1125       1.0000       0.3714       0.2867
   11800.5    1416060       0.0366       0.0000       0.0000       0.9074       0.0568       0.0568       0.0000       0.6469       0.2777
   11801.0    1416120       0.0327       0.0000       0.0000       0.3323       0.0332       0.0333       0.0000       0.9837       0.3052
   11801.5    1416180       0.0016       0.0000       0.0000       0.1739       0.0006       0.0016       0.0000       0.9997       0.3083
   11802.0    1416240    -999.2500       1.0000       0.0000    -999.2500    -999.2500    -999.2500       0.0000    -999.2500       0.3150
   11802.5    1416300    -999.2500       1.0000       0.0000    -999.2500    -999.2500    -999.2500       0.0000    -999.2500       0.2904
   11803.0    1416360    -999.2500       1.0000       0.0000    -999.2500    -999.2500    -999.2500       0.0000    -999.2500       0.2882
   11803.5    1416420    -999.2500       1.0000       0.0000    -999.2500    -999.2500    -999.2500       0.0000    -999.2500       0.2895
   11804.0    1416480       0.0145       1.0000       0.0000       0.4845       0.0144       0.0145       0.0000       1.0000       0.2888
   11804.5    1416540       0.0171       0.0000       0.0000       0.5466       0.0171       0.0171       0.0000       1.0000       0.2666
   11805.0    1416600       0.0368       0.0000       0.0000       2.9662       0.0875       0.0991       0.0256       0.3728       0.2585
   11805.5    1416660       0.0398       0.0000       0.0000       7.0533       0.1527       0.1423       0.9772       0.2801       0.2548
   11806.0    1416720       0.0415       0.0000       0.0000       5.1173       0.1886       0.1665       1.0000       0.2490       0.2915
   11806.5    1416780       0.0422       0.0000       0.0000       8.8467       0.2171       0.1834       1.0000       0.2303       0.2801
   11807.0    1416840       0.0425       0.0000       0.0000      12.2651       0.2344       0.1949       1.0000       0.2180       0.2746
   11807.5    1416900       0.0425       0.0000       0.0000      16.6626       0.2399       0.1984       1.0000       0.2143       0.2629
   11808.0    1416960       0.0427       0.0000       0.0000      17.9156       0.2400       0.2025       1.0000       0.2107       0.2630
   11808.5    1417020       0.0440       0.0000       0.0000      20.1943       0.2400       0.2144       1.0000       0.2054       0.2677
   11809.0    1417080       0.0432       0.0000       0.0000      25.6548       0.2400       0.2192       1.0000       0.1969       0.2605
   11809.5    1417140       0.0428       0.0000       0.0000      23.4821       0.2400       0.2259       1.0000       0.1895       0.2707
   11810.0    1417200       0.0408       0.0000       0.0000      26.0495       0.2343       0.2259       1.0000       0.1806       0.2657
   11810.5    1417260       0.0468       0.0000       0.0000      36.9089       0.2343       0.2339       1.0000       0.2002       0.2560
   11811.0    1417320       0.0428       0.0000       0.0000      36.4352       0.2285       0.2250       1.0000       0.1903       0.2487
   11811.5    1417380       0.0428       0.0000       0.0000      38.8117       0.2230       0.2201       1.0000       0.1946       0.2414
   11812.0    1417440       0.0426       0.0000       0.0000      40.9113       0.2060       0.2160       1.0000       0.1974       0.2351
   11812.5    1417500       0.0414       0.0000       0.0000      34.1084       0.1886       0.1974       1.0000       0.2097       0.2274
   11813.0    1417560       0.0396       0.0000       0.0000      29.2370       0.1771       0.1909       1.0000       0.2075       0.2290
   11813.5    1417620       0.0366       0.0000       0.0000      32.3455       0.1773       0.1900       1.0000       0.1926       0.2234
   11814.0    1417680       0.0356       0.0000       0.0000      35.6258       0.1828       0.1909       1.0000       0.1866       0.2195
   11814.5    1417740       0.0345       0.0000       0.0000      34.2861       0.1886       0.2023       1.0000       0.1705       0.2315
   11815.0    1417800       0.0321       0.0000       0.0000      28.6068       0.2000       0.2002       1.0000       0.1605       0.2383
   11815.5    1417860       0.0323       0.0000       0.0000      22.6812       0.2002       0.2059       1.0000       0.1568       0.2546
   11816.0    1417920       0.0299       0.0000       0.0000      25.2376       0.2056       0.2116       1.0000       0.1415       0.2545
   11816.5    1417980       0.0278       0.0000       0.0000      28.5784       0.2000       0.2103       1.0000       0.1321       0.2474
   11817.0    1418040       0.0246       0.0000       0.0000      22.3245       0.1886       0.1857       1.0000       0.1324       0.2374
   11817.5    1418100       0.0235       0.0000       0.0000      24.2766       0.1774       0.1803       1.0000       0.1304       0.2287
   11818.0    1418160       0.0238       0.0000       0.0000      35.9504       0.1883       0.1877       1.0000       0.1270       0.2163
   11818.5    1418220       0.0239       0.0000       0.0000      65.5539       0.2000       0.1946       1.0000       0.1229       0.1934
   11819.0    1418280       0.0225       0.0000       0.0000     105.1094       0.2229       0.2102       1.0000       0.1071       0.1844
   11819.5    1418340       0.0201       0.0000       0.0000     134.4010       0.2344       0.2188       1.0000       0.0920       0.1803
   11820.0    1418400       0.0196       0.0000       0.0000     187.9258       0.2399       0.2205       1.0000       0.0890       0.1656
   11820.5    1418460       0.0208       0.0000       0.0000     384.0199       0.2457       0.2213       1.0000       0.0941       0.1318
   11821.0    1418520       0.0199       0.0000       0.0000     665.8233       0.2457       0.2240       1.0000       0.0890       0.1077
   11821.5    1418580       0.0197       0.0000       0.0000     876.1069       0.2457       0.2308       1.0000       0.0854       0.1004
