~VERSION INFORMATION
VERS.           2.0   :CWLS Log ASCII Standard - VERSION 2.0
WRAP.           NO    :One Line per depth step
PROD.  Schlumberger   :LAS Producer
PROG.  DLIS to ASCII 2.3                               :LAS Program name and version
CREA.        2019/04/03 19:51                          :LAS Creation date {YYYY/MM/DD hh:mm}
DLIS_CREA.  2009-Feb-18 14:45                          :DLIS Creation date and time {YYYY-MMM-DD hh:mm}
SOURCE.     WLC_PETRO_COMPUTED_OUTPUT_1.DLIS           :DLIS File Name
FILE-ID.     OUTPUT.logdata                            :File Identification Number
#--------------------------------------------------
~WELL INFORMATION
#MNEM.UNIT      DATA             DESCRIPTION
#---- ------ --------------   -----------------------------
STRT .F         1382.0       :START DEPTH     
STOP .F        12441.0       :STOP DEPTH     
STEP .F            0.5       :STEP     
NULL .          -999.25      :NULL VALUE
COMP .                                                 :COMPANY
WELL .        15/9-F-5                                 :WELL
FLD  .        VOLVE                                    :FIELD
LOC  .                                                 :LOCATION
CNTY .        MAERSK INSPIRER                          :COUNTY
STAT .                                                 :STATE
CTRY .                                                 :COUNTRY
API  .                                                 :API NUMBER
UWI  .                                                 :UNIQUE WELL ID
DATE .                                                 :LOG DATE
SRVC .        CROCKER DATA PROCESSING                  :SERVICE COMPANY
LATI .DEG                                              :LATITUDE
LONG .DEG                                              :LONGITUDE
GDAT .                                                 :GeoDetic Datum
#-----------------------------------------------------------------------------
~PARAMETER INFORMATION
#MNEM.UNIT    VALUE                      DESCRIPTION
#---- -----   --------------------       ------------------------
WN   .        15/9-F-5                   :Well Name
FN   .        VOLVE                      :Field
CTRY .        NORWAY                     :Country
COUN .        MAERSK INSPIRER            :County or Rig name
PDAT .        MSL                        :Perm. Datum
ELZ  .M          0.00000                 :Elev. Log Zero (wrt EPD)
R2   .        INPUT                      :R2
RUN  .                                   :RUN NUMBER
EPD  .                                   :Elevation of Permanent Datum above Mean Sea Level
LMF  .                                   :Logging Measured From (Name of Logging Elevation Reference)
APD  .                                   :Elevation of Depth Reference (LMF) above Permanent Datum
#-----------------------------------------------------------------------------
~CURVE INFORMATION
#MNEM.UNIT   API CODE                                  DESCRIPTION
#---- -----  --------                                  -----------------------
DEPTH.F                                                :DEPTH (BOREHOLE) {F10.1}
DEPTH..1IN                                             :Measured Depth {I11}
BVW  .V/V_DECIMAL                                      :BVW:UNKNOWN:rC:NONE:v1 {F13.4}
CARB_FLAG.UNKNOWN                                      :CARB_FLAG:UNKNOWN:rC:NONE:v1 {F13.4}
COAL_FLAG.UNKNOWN                                      :COAL_FLAG:UNKNOWN:rC:NONE:v1 {F13.4}
KLOGH.MD                                               :KLOGH:UNKNOWN:rC:NONE:v1 {F13.4}
PHID .V/V_DECIMAL                                      :PHID:UNKNOWN:rC:NONE:v1 {F13.4}
PHIF .V/V_DECIMAL                                      :PHIF:UNKNOWN:rC:NONE:v1 {F13.4}
SAND_FLAG.UNKNOWN                                      :SAND_FLAG:UNKNOWN:rC:NONE:v1 {F13.4}
SW   .V/V_DECIMAL                                      :SW:UNKNOWN:rC:NONE:v1 {F13.4}
VSH  .V/V_DECIMAL                                      :VSH:UNKNOWN:rC:NONE:v1 {F13.4}
#-----------------------------------------------------------------------------
# 
#    DEPTH        DEPTH           BVW       CARB_FLAG    COAL_FLAG      KLOGH         PHID         PHIF      SAND_FLAG       SW           VSH
#
~A  
# ...
   11010.0    1321200       0.1025       0.0000       0.0000       0.0010       0.1025       0.1025       0.0000       1.0000       0.9091
   11010.5    1321260       0.1084       0.0000       0.0000       0.0010       0.1084       0.1084       0.0000       1.0000       0.8858
   11011.0    1321320       0.1143       0.0000       0.0000       0.0010       0.1143       0.1143       0.0000       1.0000       0.8806
   11011.5    1321380       0.1086       0.0000       0.0000       0.0010       0.1086       0.1086       0.0000       1.0000       0.8776
   11012.0    1321440       0.1084       0.0000       0.0000       0.0010       0.1084       0.1084       0.0000       1.0000       0.8821
   11012.5    1321500       0.1084       0.0000       0.0000       0.0010       0.1084       0.1084       0.0000       1.0000       0.8887
   11013.0    1321560       0.1083       0.0000       0.0000       0.0010       0.1083       0.1083       0.0000       1.0000       0.8884
   11013.5    1321620       0.1024       0.0000       0.0000       0.0010       0.1024       0.1024       0.0000       1.0000       0.8779
   11014.0    1321680       0.1024       0.0000       0.0000       0.0010       0.1024       0.1024       0.0000       1.0000       0.8883
   11014.5    1321740       0.1084       0.0000       0.0000       0.0010       0.1084       0.1084       0.0000       1.0000       0.8899
   11015.0    1321800       0.1145       0.0000       0.0000       0.0010       0.1145       0.1145       0.0000       1.0000       0.9130
   11015.5    1321860       0.1145       0.0000       0.0000       0.0010       0.1145       0.1145       0.0000       1.0000       0.9048
   11016.0    1321920       0.1145       0.0000       0.0000       0.0010       0.1145       0.1145       0.0000       1.0000       0.9185
   11016.5    1321980       0.1084       0.0000       0.0000       0.0010       0.1084       0.1084       0.0000       1.0000       0.8899
   11017.0    1322040       0.1024       0.0000       0.0000       0.0010       0.1024       0.1024       0.0000       1.0000       0.8865
   11017.5    1322100       0.0904       0.0000       0.0000       0.0010       0.0904       0.0904       0.0000       1.0000       0.8489
   11018.0    1322160       0.0904       0.0000       0.0000       0.0010       0.0904       0.0904       0.0000       1.0000       0.8717
   11018.5    1322220       0.0964       0.0000       0.0000       0.0010       0.0964       0.0964       0.0000       1.0000       0.8714
   11019.0    1322280       0.0783       0.0000       0.0000       0.0010       0.0783       0.0783       0.0000       1.0000       0.8514
   11019.5    1322340       0.0657       0.0000       0.0000       0.0010       0.0657       0.0657       0.0000       1.0000       0.8107
   11020.0    1322400       0.0428       0.0000       0.0000       0.0010       0.0428       0.0428       0.0000       1.0000       0.7810
   11020.5    1322460       0.0482       0.0000       0.0000       0.0010       0.0482       0.0482       0.0000       1.0000       0.7837
   11021.0    1322520       0.0723       0.0000       0.0000       0.0010       0.0723       0.0723       0.0000       1.0000       0.7894
   11021.5    1322580       0.0906       0.0000       0.0000       0.0010       0.0906       0.0906       0.0000       1.0000       0.8168
   11022.0    1322640       0.1021       0.0000       0.0000       0.0010       0.1021       0.1021       0.0000       1.0000       0.8352
   11022.5    1322700       0.0964       0.0000       0.0000       0.0010       0.0964       0.0964       0.0000       1.0000       0.8477
   11023.0    1322760       0.0904       0.0000       0.0000       0.0010       0.0904       0.0904       0.0000       1.0000       0.8290
   11023.5    1322820       0.0905       0.0000       0.0000       0.0010       0.0905       0.0905       0.0000       1.0000       0.8316
   11024.0    1322880       0.0962       0.0000       0.0000       0.0010       0.0962       0.0962       0.0000       1.0000       0.8316
   11024.5    1322940       0.1023       0.0000       0.0000       0.0010       0.1023       0.1023       0.0000       1.0000       0.8512
   11025.0    1323000       0.1024       0.0000       0.0000       0.0010       0.1024       0.1024       0.0000       1.0000       0.8380
   11025.5    1323060       0.1087       0.0000       0.0000       0.0010       0.1087       0.1087       0.0000       1.0000       0.8654
   11026.0    1323120       0.1265       0.0000       0.0000       0.0010       0.1265       0.1265       0.0000       1.0000       0.9029
   11026.5    1323180       0.1265       0.0000       0.0000       0.0010       0.1265       0.1265       0.0000       1.0000       0.9423
   11027.0    1323240       0.1325       0.0000       0.0000       0.0010       0.1325       0.1325       0.0000       1.0000       0.9202
   11027.5    1323300       0.1266       0.0000       0.0000       0.0010       0.1266       0.1266       0.0000       1.0000       0.9053
   11028.0    1323360       0.1325       0.0000       0.0000       0.0010       0.1325       0.1325       0.0000       1.0000       0.9161
   11028.5    1323420       0.1325       0.0000       0.0000       0.0010       0.1325       0.1325       0.0000       1.0000       0.9676
   11029.0    1323480       0.1325       0.0000       0.0000       0.0010       0.1325       0.1325       0.0000       1.0000       0.9822
   11029.5    1323540       0.1265       0.0000       0.0000       0.0010       0.1265       0.1265       0.0000       1.0000       0.9614
   11030.0    1323600       0.1146       0.0000       0.0000       0.0010       0.1146       0.1146       0.0000       1.0000       0.9382
   11030.5    1323660       0.1203       0.0000       0.0000       0.0010       0.1203       0.1203       0.0000       1.0000       0.9342
   11031.0    1323720       0.1205       0.0000       0.0000       0.0010       0.1205       0.1205       0.0000       1.0000       0.9068
   11031.5    1323780       0.1231       0.0000       0.0000       0.0010       0.1325       0.1325       0.0000       0.9288       0.8806
   11032.0    1323840       0.1177       0.0000       0.0000       0.0010       0.1265       0.1265       0.0000       0.9302       0.8535
   11032.5    1323900       0.1177       0.0000       0.0000       0.0010       0.1265       0.1265       0.0000       0.9302       0.8530
   11033.0    1323960       0.1205       0.0000       0.0000       0.0010       0.1205       0.1205       0.0000       1.0000       0.8439
   11033.5    1324020       0.1265       0.0000       0.0000       0.0010       0.1265       0.1265       0.0000       1.0000       0.8318
   11034.0    1324080       0.1238       0.0000       0.0000       0.0010       0.1265       0.1265       0.0000       0.9783       0.8149
   11034.5    1324140       0.1264       0.0000       0.0000       0.0010       0.1265       0.1265       0.0000       0.9994       0.8050
   11035.0    1324200       0.1253       0.0000       0.0000       0.0010       0.1265       0.1265       0.0000       0.9902       0.7792
   11035.5    1324260       0.1205       0.0000       0.0000       0.0010       0.1205       0.1205       0.0000       1.0000       0.7837
   11036.0    1324320       0.1022       0.0000       0.0000       0.0010       0.1022       0.1022       0.0000       1.0000       0.7504
   11036.5    1324380       0.0907       0.0000       0.0000       0.0010       0.0907       0.0907       0.0000       1.0000       0.7552
   11037.0    1324440       0.0904       0.0000       0.0000       0.0010       0.0904       0.0904       0.0000       1.0000       0.7480
   11037.5    1324500       0.0964       0.0000       0.0000       0.0010       0.0964       0.0964       0.0000       1.0000       0.7427
   11038.0    1324560       0.1025       0.0000       0.0000       0.0010       0.1025       0.1025       0.0000       1.0000       0.7288
   11038.5    1324620       0.1084       0.0000       0.0000       0.0010       0.1084       0.1084       0.0000       1.0000       0.7105
