~VERSION INFORMATION
VERS.           2.0   :CWLS Log ASCII Standard - VERSION 2.0
WRAP.           NO    :One Line per depth step
PROD.  Schlumberger   :LAS Producer
PROG.  DLIS to ASCII 2.3                               :LAS Program name and version
CREA.        2019/04/03 19:51                          :LAS Creation date {YYYY/MM/DD hh:mm}
DLIS_CREA.  2009-Feb-18 14:45                          :DLIS Creation date and time {YYYY-MMM-DD hh:mm}
SOURCE.     WLC_PETRO_COMPUTED_OUTPUT_1.DLIS           :DLIS File Name
FILE-ID.     OUTPUT.logdata                            :File Identification Number
#--------------------------------------------------
~WELL INFORMATION
#MNEM.UNIT      DATA             DESCRIPTION
#---- ------ --------------   -----------------------------
STRT .F         1382.0       :START DEPTH     
STOP .F        12441.0       :STOP DEPTH     
STEP .F            0.5       :STEP     
NULL .          -999.25      :NULL VALUE
COMP .                                                 :COMPANY
WELL .        15/9-F-5                                 :WELL
FLD  .        VOLVE                                    :FIELD
LOC  .                                                 :LOCATION
CNTY .        MAERSK INSPIRER                          :COUNTY
STAT .                                                 :STATE
CTRY .                                                 :COUNTRY
API  .                                                 :API NUMBER
UWI  .                                                 :UNIQUE WELL ID
DATE .                                                 :LOG DATE
SRVC .        CROCKER DATA PROCESSING                  :SERVICE COMPANY
LATI .DEG                                              :LATITUDE
LONG .DEG                                              :LONGITUDE
GDAT .                                                 :GeoDetic Datum
#-----------------------------------------------------------------------------
~PARAMETER INFORMATION
#MNEM.UNIT    VALUE                      DESCRIPTION
#---- -----   --------------------       ------------------------
WN   .        15/9-F-5                   :Well Name
FN   .        VOLVE                      :Field
CTRY .        NORWAY                     :Country
COUN .        MAERSK INSPIRER            :County or Rig name
PDAT .        MSL                        :Perm. Datum
ELZ  .M          0.00000                 :Elev. Log Zero (wrt EPD)
R2   .        INPUT                      :R2
RUN  .                                   :RUN NUMBER
EPD  .                                   :Elevation of Permanent Datum above Mean Sea Level
LMF  .                                   :Logging Measured From (Name of Logging Elevation Reference)
APD  .                                   :Elevation of Depth Reference (LMF) above Permanent Datum
#-----------------------------------------------------------------------------
~CURVE INFORMATION
#MNEM.UNIT   API CODE                                  DESCRIPTION
#---- -----  --------                                  -----------------------
DEPTH.F                                                :DEPTH (BOREHOLE) {F10.1}
DEPTH..1IN                                             :Measured Depth {I11}
BVW  .V/V_DECIMAL                                      :BVW:UNKNOWN:rC:NONE:v1 {F13.4}
CARB_FLAG.UNKNOWN                                      :CARB_FLAG:UNKNOWN:rC:NONE:v1 {F13.4}
COAL_FLAG.UNKNOWN                                      :COAL_FLAG:UNKNOWN:rC:NONE:v1 {F13.4}
KLOGH.MD                                               :KLOGH:UNKNOWN:rC:NONE:v1 {F13.4}
PHID .V/V_DECIMAL                                      :PHID:UNKNOWN:rC:NONE:v1 {F13.4}
PHIF .V/V_DECIMAL                                      :PHIF:UNKNOWN:rC:NONE:v1 {F13.4}
SAND_FLAG.UNKNOWN                                      :SAND_FLAG:UNKNOWN:rC:NONE:v1 {F13.4}
SW   .V/V_DECIMAL                                      :SW:UNKNOWN:rC:NONE:v1 {F13.4}
VSH  .V/V_DECIMAL                                      :VSH:UNKNOWN:rC:NONE:v1 {F13.4}
#-----------------------------------------------------------------------------
# 
#    DEPTH        DEPTH           BVW       CARB_FLAG    COAL_FLAG      KLOGH         PHID         PHIF      SAND_FLAG       SW           VSH
#
~A  
# ...
   10778.0    1293360       0.0420       0.0000       0.0000       0.0010       0.0420       0.0420       0.0000       1.0000       0.2998
   10778.5    1293420       0.0363       0.0000       0.0000       0.0010       0.0363       0.0363       0.0000       1.0000       0.3289
   10779.0    1293480       0.0361       0.0000       0.0000       0.0010       0.0361       0.0361       0.0000       1.0000       0.3310
   10779.5    1293540       0.0361       0.0000       0.0000       0.0010       0.0361       0.0361       0.0000       1.0000       0.2925
   10780.0    1293600       0.0301       0.0000       0.0000       0.0010       0.0301       0.0301       0.0000       1.0000       0.2350
   10780.5    1293660       0.0301       0.0000       0.0000       0.0010       0.0301       0.0301       0.0000       1.0000       0.2164
   10781.0    1293720       0.0301       0.0000       0.0000       0.0010       0.0301       0.0301       0.0000       1.0000       0.1930
   10781.5    1293780       0.0301       0.0000       0.0000       0.0010       0.0301       0.0301       0.0000       1.0000       0.1849
   10782.0    1293840       0.0240       0.0000       0.0000       0.0010       0.0240       0.0240       0.0000       1.0000       0.1626
   10782.5    1293900       0.0182       0.0000       0.0000       0.0010       0.0182       0.0182       0.0000       1.0000       0.1624
   10783.0    1293960       0.0120       0.0000       0.0000       0.0010       0.0120       0.0120       0.0000       1.0000       0.1714
   10783.5    1294020       0.0241       0.0000       0.0000       0.0010       0.0241       0.0241       0.0000       1.0000       0.1957
   10784.0    1294080       0.0361       0.0000       0.0000       0.0010       0.0361       0.0361       0.0000       1.0000       0.2424
   10784.5    1294140       0.0361       0.0000       0.0000       0.0010       0.0361       0.0361       0.0000       1.0000       0.3056
   10785.0    1294200       0.0422       0.0000       0.0000       0.0010       0.0422       0.0422       0.0000       1.0000       0.3783
   10785.5    1294260       0.0361       0.0000       0.0000       0.0010       0.0361       0.0361       0.0000       1.0000       0.4159
   10786.0    1294320       0.0421       0.0000       0.0000       0.0010       0.0421       0.0421       0.0000       1.0000       0.4178
   10786.5    1294380       0.0363       0.0000       0.0000       0.0010       0.0363       0.0363       0.0000       1.0000       0.3994
   10787.0    1294440       0.0361       0.0000       0.0000       0.0010       0.0361       0.0361       0.0000       1.0000       0.3704
   10787.5    1294500       0.0361       0.0000       0.0000       0.0010       0.0361       0.0361       0.0000       1.0000       0.3496
   10788.0    1294560       0.0361       0.0000       0.0000       0.0010       0.0361       0.0361       0.0000       1.0000       0.3481
   10788.5    1294620       0.0361       0.0000       0.0000       0.0010       0.0361       0.0361       0.0000       1.0000       0.3493
   10789.0    1294680       0.0361       0.0000       0.0000       0.0010       0.0361       0.0361       0.0000       1.0000       0.3786
   10789.5    1294740       0.0422       0.0000       0.0000       0.0010       0.0422       0.0422       0.0000       1.0000       0.4209
   10790.0    1294800       0.0482       0.0000       0.0000       0.0010       0.0482       0.0482       0.0000       1.0000       0.4577
   10790.5    1294860       0.0482       0.0000       0.0000       0.0010       0.0482       0.0482       0.0000       1.0000       0.4478
   10791.0    1294920       0.0482       0.0000       0.0000       0.0010       0.0482       0.0482       0.0000       1.0000       0.4107
   10791.5    1294980       0.0422       0.0000       0.0000       0.0010       0.0422       0.0422       0.0000       1.0000       0.4069
   10792.0    1295040       0.0422       0.0000       0.0000       0.0010       0.0422       0.0422       0.0000       1.0000       0.4237
   10792.5    1295100       0.0422       0.0000       0.0000       0.0010       0.0422       0.0422       0.0000       1.0000       0.4418
   10793.0    1295160       0.0422       0.0000       0.0000       0.0010       0.0422       0.0422       0.0000       1.0000       0.4601
   10793.5    1295220       0.0482       0.0000       0.0000       0.0010       0.0482       0.0482       0.0000       1.0000       0.4684
   10794.0    1295280       0.0482       0.0000       0.0000       0.0010       0.0482       0.0482       0.0000       1.0000       0.4672
   10794.5    1295340       0.0419       0.0000       0.0000       0.0010       0.0419       0.0419       0.0000       1.0000       0.4386
   10795.0    1295400       0.0304       0.0000       0.0000       0.0010       0.0304       0.0304       0.0000       1.0000       0.4230
   10795.5    1295460       0.0241       0.0000       0.0000       0.0010       0.0241       0.0241       0.0000       1.0000       0.4140
   10796.0    1295520       0.0120       0.0000       0.0000       0.0010       0.0120       0.0120       0.0000       1.0000       0.4143
   10796.5    1295580       0.0120       0.0000       0.0000       0.0010       0.0120       0.0120       0.0000       1.0000       0.4354
   10797.0    1295640       0.0120       0.0000       0.0000       0.0010       0.0120       0.0120       0.0000       1.0000       0.4344
   10797.5    1295700       0.0120       0.0000       0.0000       0.0010       0.0120       0.0120       0.0000       1.0000       0.4117
   10798.0    1295760       0.0120       0.0000       0.0000       0.0010       0.0120       0.0120       0.0000       1.0000       0.3546
   10798.5    1295820       0.0242       0.0000       0.0000       0.0010       0.0242       0.0242       0.0000       1.0000       0.3403
   10799.0    1295880       0.0299       0.0000       0.0000       0.0010       0.0299       0.0299       0.0000       1.0000       0.3721
   10799.5    1295940       0.0301       0.0000       0.0000       0.0010       0.0301       0.0301       0.0000       1.0000       0.4122
   10800.0    1296000       0.0241       0.0000       0.0000       0.0010       0.0241       0.0241       0.0000       1.0000       0.4390
   10800.5    1296060       0.0181       0.0000       0.0000       0.0010       0.0181       0.0181       0.0000       1.0000       0.4147
   10801.0    1296120       0.0181       0.0000       0.0000       0.0010       0.0181       0.0181       0.0000       1.0000       0.3976
   10801.5    1296180       0.0181       0.0000       0.0000       0.0010       0.0181       0.0181       0.0000       1.0000       0.3743
   10802.0    1296240       0.0181       0.0000       0.0000       0.0010       0.0181       0.0181       0.0000       1.0000       0.3616
   10802.5    1296300       0.0181       0.0000       0.0000       0.0010       0.0181       0.0181       0.0000       1.0000       0.3482
   10803.0    1296360       0.0181       0.0000       0.0000       0.0010       0.0181       0.0181       0.0000       1.0000       0.3512
   10803.5    1296420       0.0181       0.0000       0.0000       0.0010       0.0181       0.0181       0.0000       1.0000       0.3659
   10804.0    1296480       0.0241       0.0000       0.0000       0.0010       0.0241       0.0241       0.0000       1.0000       0.3787
   10804.5    1296540       0.0241       0.0000       0.0000       0.0010       0.0241       0.0241       0.0000       1.0000       0.3958
   10805.0    1296600       0.0300       0.0000       0.0000       0.0010       0.0300       0.0300       0.0000       1.0000       0.3970
   10805.5    1296660       0.0242       0.0000       0.0000       0.0010       0.0242       0.0242       0.0000       1.0000       0.3868
   10806.0    1296720       0.0241       0.0000       0.0000       0.0010       0.0241       0.0241       0.0000       1.0000       0.3705
   10806.5    1296780       0.0241       0.0000       0.0000       0.0010       0.0241       0.0241       0.0000       1.0000       0.3733
