~VERSION INFORMATION
VERS.           2.0   :CWLS Log ASCII Standard - VERSION 2.0
WRAP.           NO    :One Line per depth step
PROD.  Schlumberger   :LAS Producer
PROG.  DLIS to ASCII 2.3                               :LAS Program name and version
CREA.        2019/04/03 19:51                          :LAS Creation date {YYYY/MM/DD hh:mm}
DLIS_CREA.  2009-Feb-18 14:45                          :DLIS Creation date and time {YYYY-MMM-DD hh:mm}
SOURCE.     WLC_PETRO_COMPUTED_OUTPUT_1.DLIS           :DLIS File Name
FILE-ID.     OUTPUT.logdata                            :File Identification Number
#--------------------------------------------------
~WELL INFORMATION
#MNEM.UNIT      DATA             DESCRIPTION
#---- ------ --------------   -----------------------------
STRT .F         1382.0       :START DEPTH     
STOP .F        12441.0       :STOP DEPTH     
STEP .F            0.5       :STEP     
NULL .          -999.25      :NULL VALUE
COMP .                                                 :COMPANY
WELL .        15/9-F-5                                 :WELL
FLD  .        VOLVE                                    :FIELD
LOC  .                                                 :LOCATION
CNTY .        MAERSK INSPIRER                          :COUNTY
STAT .                                                 :STATE
CTRY .                                                 :COUNTRY
API  .                                                 :API NUMBER
UWI  .                                                 :UNIQUE WELL ID
DATE .                                                 :LOG DATE
SRVC .        CROCKER DATA PROCESSING                  :SERVICE COMPANY
LATI .DEG                                              :LATITUDE
LONG .DEG                                              :LONGITUDE
GDAT .                                                 :GeoDetic Datum
#-----------------------------------------------------------------------------
~PARAMETER INFORMATION
#MNEM.UNIT    VALUE                      DESCRIPTION
#---- -----   --------------------       ------------------------
WN   .        15/9-F-5                   :Well Name
FN   .        VOLVE                      :Field
CTRY .        NORWAY                     :Country
COUN .        MAERSK INSPIRER            :County or Rig name
PDAT .        MSL                        :Perm. Datum
ELZ  .M          0.00000                 :Elev. Log Zero (wrt EPD)
R2   .        INPUT                      :R2
RUN  .                                   :RUN NUMBER
EPD  .                                   :Elevation of Permanent Datum above Mean Sea Level
LMF  .                                   :Logging Measured From (Name of Logging Elevation Reference)
APD  .                                   :Elevation of Depth Reference (LMF) above Permanent Datum
#-----------------------------------------------------------------------------
~CURVE INFORMATION
#MNEM.UNIT   API CODE                                  DESCRIPTION
#---- -----  --------                                  -----------------------
DEPTH.F                                                :DEPTH (BOREHOLE) {F10.1}
DEPTH..1IN                                             :Measured Depth {I11}
BVW  .V/V_DECIMAL                                      :BVW:UNKNOWN:rC:NONE:v1 {F13.4}
CARB_FLAG.UNKNOWN                                      :CARB_FLAG:UNKNOWN:rC:NONE:v1 {F13.4}
COAL_FLAG.UNKNOWN                                      :COAL_FLAG:UNKNOWN:rC:NONE:v1 {F13.4}
KLOGH.MD                                               :KLOGH:UNKNOWN:rC:NONE:v1 {F13.4}
PHID .V/V_DECIMAL                                      :PHID:UNKNOWN:rC:NONE:v1 {F13.4}
PHIF .V/V_DECIMAL                                      :PHIF:UNKNOWN:rC:NONE:v1 {F13.4}
SAND_FLAG.UNKNOWN                                      :SAND_FLAG:UNKNOWN:rC:NONE:v1 {F13.4}
SW   .V/V_DECIMAL                                      :SW:UNKNOWN:rC:NONE:v1 {F13.4}
VSH  .V/V_DECIMAL                                      :VSH:UNKNOWN:rC:NONE:v1 {F13.4}
#-----------------------------------------------------------------------------
# 
#    DEPTH        DEPTH           BVW       CARB_FLAG    COAL_FLAG      KLOGH         PHID         PHIF      SAND_FLAG       SW           VSH
#
~A  
# ...
   12141.0    1456920       0.0536       0.0000       0.0000      17.2209       0.1659       0.1753       1.0000       0.3059       0.2413
   12141.5    1456980       0.0519       0.0000       0.0000       6.6526       0.1486       0.1630       1.0000       0.3184       0.2757
   12142.0    1457040       0.0547       0.0000       0.0000       2.4062       0.1314       0.1545       1.0000       0.3538       0.3172
   12142.5    1457100       0.0563       0.0000       0.0000       1.2302       0.1203       0.1476       1.0000       0.3817       0.3436
   12143.0    1457160       0.0552       0.0000       0.0000       0.6754       0.1312       0.1583       1.0000       0.3487       0.3822
   12143.5    1457220       0.0553       0.0000       0.0000       0.5437       0.1429       0.1673       1.0000       0.3304       0.4003
   12144.0    1457280       0.0688       0.0000       0.0000       0.5624       0.1486       0.1764       1.0000       0.3898       0.4068
   12144.5    1457340       0.0689       0.0000       0.0000       0.3774       0.1430       0.1430       1.0000       0.4816       0.3964
   12145.0    1457400       0.0743       0.0000       0.0000       0.3315       0.1484       0.1484       1.0000       0.5003       0.4074
   12145.5    1457460       0.0881       0.0000       0.0000       0.2454       0.1486       0.1486       1.0000       0.5931       0.4221
   12146.0    1457520       0.0965       0.0000       0.0000       0.4786       0.1657       0.1973       1.0000       0.4894       0.4331
   12146.5    1457580       0.1007       0.0000       0.0000       0.3545       0.1717       0.1998       1.0000       0.5039       0.4499
   12147.0    1457640       0.1025       0.0000       0.0000       0.4100       0.1825       0.2122       1.0000       0.4830       0.4539
   12147.5    1457700       0.1038       0.0000       0.0000       0.4497       0.1886       0.2175       1.0000       0.4771       0.4541
   12148.0    1457760       0.1085       0.0000       0.0000       0.6335       0.1886       0.2145       1.0000       0.5056       0.4350
   12148.5    1457820       0.1103       0.0000       0.0000       0.7652       0.1888       0.2183       1.0000       0.5054       0.4293
   12149.0    1457880       0.1228       0.0000       0.0000       1.1535       0.1997       0.2282       1.0000       0.5382       0.4183
   12149.5    1457940       0.1265       0.0000       0.0000       1.8743       0.2113       0.2365       1.0000       0.5351       0.4022
   12150.0    1458000       0.1252       0.0000       0.0000       3.4321       0.2171       0.2372       1.0000       0.5279       0.3736
   12150.5    1458060       0.1219       0.0000       0.0000       6.1903       0.2230       0.2460       1.0000       0.4953       0.3530
   12151.0    1458120       0.1193       0.0000       0.0000       8.5208       0.2286       0.2488       1.0000       0.4798       0.3400
   12151.5    1458180       0.1194       0.0000       0.0000       8.3632       0.2286       0.2493       1.0000       0.4790       0.3414
   12152.0    1458240       0.1189       0.0000       0.0000       8.8029       0.2286       0.2504       1.0000       0.4749       0.3398
   12152.5    1458300       0.1184       0.0000       0.0000      11.7658       0.2343       0.2563       1.0000       0.4621       0.3310
   12153.0    1458360       0.1174       0.0000       0.0000      13.9927       0.2341       0.2569       1.0000       0.4571       0.3233
   12153.5    1458420       0.1162       0.0000       0.0000      11.9126       0.2287       0.2501       1.0000       0.4648       0.3250
   12154.0    1458480       0.1151       0.0000       0.0000      13.6992       0.2286       0.2487       1.0000       0.4628       0.3170
   12154.5    1458540       0.1150       0.0000       0.0000      14.2766       0.2286       0.2573       1.0000       0.4469       0.3226
   12155.0    1458600       0.1137       0.0000       0.0000      15.4659       0.2344       0.2560       1.0000       0.4440       0.3176
   12155.5    1458660       0.1125       0.0000       0.0000      13.7569       0.2399       0.2600       1.0000       0.4329       0.3268
   12156.0    1458720       0.1124       0.0000       0.0000      16.1017       0.2400       0.2581       1.0000       0.4354       0.3176
   12156.5    1458780       0.1116       0.0000       0.0000      17.3585       0.2400       0.2622       1.0000       0.4254       0.3176
   12157.0    1458840       0.1109       0.0000       0.0000      18.2749       0.2400       0.2607       1.0000       0.4252       0.3138
   12157.5    1458900       0.1109       0.0000       0.0000      21.3779       0.2400       0.2601       1.0000       0.4263       0.3057
   12158.0    1458960       0.1104       0.0000       0.0000      24.5926       0.2400       0.2627       1.0000       0.4200       0.3012
   12158.5    1459020       0.1093       0.0000       0.0000      24.3125       0.2400       0.2611       1.0000       0.4185       0.3003
   12159.0    1459080       0.1084       0.0000       0.0000      18.9081       0.2342       0.2531       1.0000       0.4284       0.3053
   12159.5    1459140       0.1080       0.0000       0.0000      18.1842       0.2287       0.2511       1.0000       0.4301       0.3055
   12160.0    1459200       0.1063       0.0000       0.0000      19.9001       0.2229       0.2477       1.0000       0.4290       0.2981
   12160.5    1459260       0.1067       0.0000       0.0000      17.5653       0.2229       0.2452       1.0000       0.4352       0.3019
   12161.0    1459320       0.1067       0.0000       0.0000      16.9571       0.2287       0.2520       1.0000       0.4233       0.3096
   12161.5    1459380       0.1069       0.0000       0.0000      14.4710       0.2341       0.2526       1.0000       0.4231       0.3178
   12162.0    1459440       0.1079       0.0000       0.0000      14.8552       0.2399       0.2543       1.0000       0.4241       0.3181
   12162.5    1459500       0.1075       0.0000       0.0000      20.3157       0.2457       0.2613       1.0000       0.4113       0.3092
   12163.0    1459560       0.1084       0.0000       0.0000      20.0126       0.2457       0.2662       1.0000       0.4072       0.3143
   12163.5    1459620       0.1060       0.0000       0.0000      19.4885       0.2457       0.2668       1.0000       0.3974       0.3161
   12164.0    1459680       0.1054       0.0000       0.0000      18.9464       0.2457       0.2658       1.0000       0.3966       0.3165
   12164.5    1459740       0.1052       0.0000       0.0000      19.3965       0.2514       0.2677       1.0000       0.3928       0.3171
   12165.0    1459800       0.1050       0.0000       0.0000      21.6086       0.2514       0.2767       1.0000       0.3795       0.3199
   12165.5    1459860       0.1036       0.0000       0.0000      18.1817       0.2514       0.2680       1.0000       0.3864       0.3205
   12166.0    1459920       0.1031       0.0000       0.0000      21.6720       0.2514       0.2704       1.0000       0.3814       0.3141
   12166.5    1459980       0.1032       0.0000       0.0000      27.6498       0.2514       0.2747       1.0000       0.3756       0.3062
   12167.0    1460040       0.1032       0.0000       0.0000      18.8448       0.2514       0.2704       1.0000       0.3818       0.3209
   12167.5    1460100       0.1032       0.0000       0.0000      16.2543       0.2514       0.2676       1.0000       0.3858       0.3256
   12168.0    1460160       0.1023       0.0000       0.0000      15.0840       0.2514       0.2643       1.0000       0.3870       0.3262
   12168.5    1460220       0.1026       0.0000       0.0000      19.1358       0.2457       0.2658       1.0000       0.3859       0.3161
   12169.0    1460280       0.1023       0.0000       0.0000      18.4625       0.2457       0.2682       1.0000       0.3815       0.3199
   12169.5    1460340       0.1003       0.0000       0.0000      14.7582       0.2400       0.2582       1.0000       0.3886       0.3218
