~VERSION INFORMATION
VERS.           2.0   :CWLS Log ASCII Standard - VERSION 2.0
WRAP.           NO    :One Line per depth step
PROD.  Schlumberger   :LAS Producer
PROG.  DLIS to ASCII 2.3                               :LAS Program name and version
CREA.        2019/04/03 19:51                          :LAS Creation date {YYYY/MM/DD hh:mm}
DLIS_CREA.  2009-Feb-18 14:45                          :DLIS Creation date and time {YYYY-MMM-DD hh:mm}
SOURCE.     WLC_PETRO_COMPUTED_OUTPUT_1.DLIS           :DLIS File Name
FILE-ID.     OUTPUT.logdata                            :File Identification Number
#--------------------------------------------------
~WELL INFORMATION
#MNEM.UNIT      DATA             DESCRIPTION
#---- ------ --------------   -----------------------------
STRT .F         1382.0       :START DEPTH     
STOP .F        12441.0       :STOP DEPTH     
STEP .F            0.5       :STEP     
NULL .          -999.25      :NULL VALUE
COMP .                                                 :COMPANY
WELL .        15/9-F-5                                 :WELL
FLD  .        VOLVE                                    :FIELD
LOC  .                                                 :LOCATION
CNTY .        MAERSK INSPIRER                          :COUNTY
STAT .                                                 :STATE
CTRY .                                                 :COUNTRY
API  .                                                 :API NUMBER
UWI  .                                                 :UNIQUE WELL ID
DATE .                                                 :LOG DATE
SRVC .        CROCKER DATA PROCESSING                  :SERVICE COMPANY
LATI .DEG                                              :LATITUDE
LONG .DEG                                              :LONGITUDE
GDAT .                                                 :GeoDetic Datum
#-----------------------------------------------------------------------------
~PARAMETER INFORMATION
#MNEM.UNIT    VALUE                      DESCRIPTION
#---- -----   --------------------       ------------------------
WN   .        15/9-F-5                   :Well Name
FN   .        VOLVE                      :Field
CTRY .        NORWAY                     :Country
COUN .        MAERSK INSPIRER            :County or Rig name
PDAT .        MSL                        :Perm. Datum
ELZ  .M          0.00000                 :Elev. Log Zero (wrt EPD)
R2   .        INPUT                      :R2
RUN  .                                   :RUN NUMBER
EPD  .                                   :Elevation of Permanent Datum above Mean Sea Level
LMF  .                                   :Logging Measured From (Name of Logging Elevation Reference)
APD  .                                   :Elevation of Depth Reference (LMF) above Permanent Datum
#-----------------------------------------------------------------------------
~CURVE INFORMATION
#MNEM.UNIT   API CODE                                  DESCRIPTION
#---- -----  --------                                  -----------------------
DEPTH.F                                                :DEPTH (BOREHOLE) {F10.1}
DEPTH..1IN                                             :Measured Depth {I11}
BVW  .V/V_DECIMAL                                      :BVW:UNKNOWN:rC:NONE:v1 {F13.4}
CARB_FLAG.UNKNOWN                                      :CARB_FLAG:UNKNOWN:rC:NONE:v1 {F13.4}
COAL_FLAG.UNKNOWN                                      :COAL_FLAG:UNKNOWN:rC:NONE:v1 {F13.4}
KLOGH.MD                                               :KLOGH:UNKNOWN:rC:NONE:v1 {F13.4}
PHID .V/V_DECIMAL                                      :PHID:UNKNOWN:rC:NONE:v1 {F13.4}
PHIF .V/V_DECIMAL                                      :PHIF:UNKNOWN:rC:NONE:v1 {F13.4}
SAND_FLAG.UNKNOWN                                      :SAND_FLAG:UNKNOWN:rC:NONE:v1 {F13.4}
SW   .V/V_DECIMAL                                      :SW:UNKNOWN:rC:NONE:v1 {F13.4}
VSH  .V/V_DECIMAL                                      :VSH:UNKNOWN:rC:NONE:v1 {F13.4}
#-----------------------------------------------------------------------------
# 
#    DEPTH        DEPTH           BVW       CARB_FLAG    COAL_FLAG      KLOGH         PHID         PHIF      SAND_FLAG       SW           VSH
#
~A  
# ...
   10894.0    1307280       0.1566       0.0000       0.0000       0.0010       0.1566       0.1566       0.0000       1.0000       1.0000
   10894.5    1307340       0.1931       0.0000       0.0000       0.0010       0.1931       0.1931       0.0000       1.0000       1.0000
   10895.0    1307400       0.2045       0.0000       0.0000       0.0010       0.2045       0.2045       0.0000       1.0000       1.0000
   10895.5    1307460       0.1988       0.0000       0.0000       0.0010       0.1988       0.1988       0.0000       1.0000       1.0000
   10896.0    1307520       0.1928       0.0000       0.0000       0.0010       0.1928       0.1928       0.0000       1.0000       1.0000
   10896.5    1307580       0.1805       0.0000       0.0000       0.0010       0.1805       0.1805       0.0000       1.0000       1.0000
   10897.0    1307640       0.1690       0.0000       0.0000       0.0010       0.1690       0.1690       0.0000       1.0000       1.0000
   10897.5    1307700       0.1446       0.0000       0.0000       0.0010       0.1446       0.1446       0.0000       1.0000       1.0000
   10898.0    1307760       0.1446       0.0000       0.0000       0.0010       0.1446       0.1446       0.0000       1.0000       1.0000
   10898.5    1307820       0.1446       0.0000       0.0000       0.0010       0.1689       0.1689       0.0000       0.8567       1.0000
   10899.0    1307880       0.1093       0.0000       0.0000       0.0010       0.1804       0.1804       0.0000       0.6067       1.0000
   10899.5    1307940       0.1116       0.0000       0.0000       0.0010       0.1451       0.1451       0.0000       0.7697       1.0000
   10900.0    1308000       0.0602       1.0000       0.0000       0.0010       0.0602       0.0602       0.0000       1.0000       1.0000
   10900.5    1308060       0.0435       1.0000       0.0000       0.0010       0.0435       0.0435       0.0000       1.0000       1.0000
   10901.0    1308120       0.0269       0.9706       0.0000       0.0010       0.0269       0.0269       0.0000       1.0000       1.0000
   10901.5    1308180       0.1188       0.0176       0.0000       0.0010       0.1188       0.1188       0.0000       1.0000       1.0000
   10902.0    1308240       0.1178       0.0000       0.0000       0.0010       0.1867       0.1867       0.0000       0.6307       1.0000
   10902.5    1308300       0.1049       0.0000       0.0000       0.0010       0.2229       0.2229       0.0000       0.4705       1.0000
   10903.0    1308360       0.0939       0.0000       0.0000       0.0010       0.2227       0.2227       0.0000       0.4214       1.0000
   10903.5    1308420       0.0913       0.0000       0.0000       0.0010       0.2170       0.2170       0.0000       0.4207       1.0000
   10904.0    1308480       0.0984       0.0000       0.0000       0.0010       0.1988       0.1988       0.0000       0.4950       1.0000
   10904.5    1308540       0.1117       0.0000       0.0000       0.0010       0.1928       0.1928       0.0000       0.5792       1.0000
   10905.0    1308600       0.1150       0.0000       0.0000       0.0010       0.1926       0.1926       0.0000       0.5971       1.0000
   10905.5    1308660       0.1169       0.0000       0.0000       0.0010       0.1869       0.1869       0.0000       0.6258       1.0000
   10906.0    1308720       0.1088       0.0000       0.0000       0.0010       0.1506       0.1506       0.0000       0.7226       1.0000
   10906.5    1308780       0.1273       0.0000       0.0000       0.0010       0.1386       0.1386       0.0000       0.9188       1.0000
   10907.0    1308840       0.1321       0.0000       0.0000       0.0010       0.1328       0.1328       0.0000       0.9949       1.0000
   10907.5    1308900       0.1126       0.0000       0.0000       0.0010       0.1443       0.1443       0.0000       0.7812       1.0000
   10908.0    1308960       0.1205       0.0000       0.0000       0.0010       0.1205       0.1205       0.0000       1.0000       1.0000
   10908.5    1309020       0.0904       0.0000       0.0000       0.0010       0.0904       0.0904       0.0000       1.0000       1.0000
   10909.0    1309080       0.0787       0.0000       0.0000       0.0010       0.0787       0.0787       0.0000       0.9999       0.8661
   10909.5    1309140       0.0955       0.0000       0.0000       0.0010       0.0959       0.0959       0.0000       0.9962       0.7664
   10910.0    1309200       0.1001       0.0000       0.0000       0.0010       0.1083       0.1083       0.0000       0.9246       0.7529
   10910.5    1309260       0.1050       0.0000       0.0000       0.0010       0.1084       0.1084       0.0000       0.9688       0.7674
   10911.0    1309320       0.0927       0.0000       0.0000       0.0010       0.1024       0.1024       0.0000       0.9054       0.7456
   10911.5    1309380       0.0990       0.0000       0.0000       0.0010       0.1024       0.1024       0.0000       0.9665       0.7475
   10912.0    1309440       0.1024       0.0000       0.0000       0.0010       0.1024       0.1024       0.0000       0.9995       0.7548
   10912.5    1309500       0.1084       0.0000       0.0000       0.0010       0.1084       0.1084       0.0000       1.0000       0.7781
   10913.0    1309560       0.1092       0.0000       0.0000       0.0010       0.1145       0.1145       0.0000       0.9539       0.7964
   10913.5    1309620       0.1064       0.0000       0.0000       0.0010       0.1146       0.1146       0.0000       0.9278       0.8037
   10914.0    1309680       0.1054       0.0000       0.0000       0.0010       0.1204       0.1204       0.0000       0.8759       0.8183
   10914.5    1309740       0.1072       0.0000       0.0000       0.0010       0.1145       0.1145       0.0000       0.9363       0.8370
   10915.0    1309800       0.1084       0.0000       0.0000       0.0010       0.1084       0.1084       0.0000       1.0000       0.8775
   10915.5    1309860       0.1086       0.0000       0.0000       0.0010       0.1088       0.1088       0.0000       0.9985       0.8826
   10916.0    1309920       0.1139       0.0000       0.0000       0.0010       0.1202       0.1202       0.0000       0.9469       0.8711
   10916.5    1309980       0.1011       0.0000       0.0000       0.0010       0.1325       0.1325       0.0000       0.7630       0.8573
   10917.0    1310040       0.0855       0.0000       0.0000       0.0010       0.1386       0.1386       0.0000       0.6171       0.8776
   10917.5    1310100       0.0921       0.0000       0.0000       0.0010       0.1316       0.1316       0.0000       0.7017       0.9030
   10918.0    1310160       0.0963       0.0000       0.0000       0.0010       0.0972       0.0972       0.0000       0.9930       0.8633
   10918.5    1310220       0.0482       1.0000       0.0000       0.0010       0.0482       0.0482       0.0000       1.0000       0.7417
   10919.0    1310280       0.0361       1.0000       0.0000       0.0010       0.0361       0.0361       0.0000       1.0000       0.5517
   10919.5    1310340       0.0182       1.0000       0.0000       0.0010       0.0182       0.0182       0.0000       1.0000       0.3919
   10920.0    1310400       0.0239       1.0000       0.0000       0.0010       0.0239       0.0239       0.0000       1.0000       0.2694
   10920.5    1310460    -999.2500       1.0000       0.0000    -999.2500    -999.2500    -999.2500       0.0000    -999.2500       0.1858
   10921.0    1310520    -999.2500       1.0000       0.0000    -999.2500    -999.2500    -999.2500       0.0000    -999.2500       0.1406
   10921.5    1310580    -999.2500       1.0000       0.0000    -999.2500    -999.2500    -999.2500       0.0000    -999.2500       0.1343
   10922.0    1310640    -999.2500       1.0000       0.0000    -999.2500    -999.2500    -999.2500       0.0000    -999.2500       0.1332
   10922.5    1310700    -999.2500       1.0000       0.0000    -999.2500    -999.2500    -999.2500       0.0000    -999.2500       0.1456
