~VERSION INFORMATION
VERS.           2.0   :CWLS Log ASCII Standard - VERSION 2.0
WRAP.           NO    :One Line per depth step
PROD.  Schlumberger   :LAS Producer
PROG.  DLIS to ASCII 2.3                               :LAS Program name and version
CREA.        2019/04/03 19:51                          :LAS Creation date {YYYY/MM/DD hh:mm}
DLIS_CREA.  2009-Feb-18 14:45                          :DLIS Creation date and time {YYYY-MMM-DD hh:mm}
SOURCE.     WLC_PETRO_COMPUTED_OUTPUT_1.DLIS           :DLIS File Name
FILE-ID.     OUTPUT.logdata                            :File Identification Number
#--------------------------------------------------
~WELL INFORMATION
#MNEM.UNIT      DATA             DESCRIPTION
#---- ------ --------------   -----------------------------
STRT .F         1382.0       :START DEPTH     
STOP .F        12441.0       :STOP DEPTH     
STEP .F            0.5       :STEP     
NULL .          -999.25      :NULL VALUE
COMP .                                                 :COMPANY
WELL .        15/9-F-5                                 :WELL
FLD  .        VOLVE                                    :FIELD
LOC  .                                                 :LOCATION
CNTY .        MAERSK INSPIRER                          :COUNTY
STAT .                                                 :STATE
CTRY .                                                 :COUNTRY
API  .                                                 :API NUMBER
UWI  .                                                 :UNIQUE WELL ID
DATE .                                                 :LOG DATE
SRVC .        CROCKER DATA PROCESSING                  :SERVICE COMPANY
LATI .DEG                                              :LATITUDE
LONG .DEG                                              :LONGITUDE
GDAT .                                                 :GeoDetic Datum
#-----------------------------------------------------------------------------
~PARAMETER INFORMATION
#MNEM.UNIT    VALUE                      DESCRIPTION
#---- -----   --------------------       ------------------------
WN   .        15/9-F-5                   :Well Name
FN   .        VOLVE                      :Field
CTRY .        NORWAY                     :Country
COUN .        MAERSK INSPIRER            :County or Rig name
PDAT .        MSL                        :Perm. Datum
ELZ  .M          0.00000                 :Elev. Log Zero (wrt EPD)
R2   .        INPUT                      :R2
RUN  .                                   :RUN NUMBER
EPD  .                                   :Elevation of Permanent Datum above Mean Sea Level
LMF  .                                   :Logging Measured From (Name of Logging Elevation Reference)
APD  .                                   :Elevation of Depth Reference (LMF) above Permanent Datum
#-----------------------------------------------------------------------------
~CURVE INFORMATION
#MNEM.UNIT   API CODE                                  DESCRIPTION
#---- -----  --------                                  -----------------------
DEPTH.F                                                :DEPTH (BOREHOLE) {F10.1}
DEPTH..1IN                                             :Measured Depth {I11}
BVW  .V/V_DECIMAL                                      :BVW:UNKNOWN:rC:NONE:v1 {F13.4}
CARB_FLAG.UNKNOWN                                      :CARB_FLAG:UNKNOWN:rC:NONE:v1 {F13.4}
COAL_FLAG.UNKNOWN                                      :COAL_FLAG:UNKNOWN:rC:NONE:v1 {F13.4}
KLOGH.MD                                               :KLOGH:UNKNOWN:rC:NONE:v1 {F13.4}
PHID .V/V_DECIMAL                                      :PHID:UNKNOWN:rC:NONE:v1 {F13.4}
PHIF .V/V_DECIMAL                                      :PHIF:UNKNOWN:rC:NONE:v1 {F13.4}
SAND_FLAG.UNKNOWN                                      :SAND_FLAG:UNKNOWN:rC:NONE:v1 {F13.4}
SW   .V/V_DECIMAL                                      :SW:UNKNOWN:rC:NONE:v1 {F13.4}
VSH  .V/V_DECIMAL                                      :VSH:UNKNOWN:rC:NONE:v1 {F13.4}
#-----------------------------------------------------------------------------
# 
#    DEPTH        DEPTH           BVW       CARB_FLAG    COAL_FLAG      KLOGH         PHID         PHIF      SAND_FLAG       SW           VSH
#
~A  
# ...
   11358.0    1362960    -999.2500       1.0000       0.0000    -999.2500    -999.2500    -999.2500       0.0000    -999.2500       0.3579
   11358.5    1363020    -999.2500       1.0000       0.0000    -999.2500    -999.2500    -999.2500       0.0000    -999.2500       0.3611
   11359.0    1363080    -999.2500       1.0000       0.0000    -999.2500    -999.2500    -999.2500       0.0000    -999.2500       0.3547
   11359.5    1363140       0.0143       1.0000       0.0000       0.0010       0.0143       0.0143       0.0000       1.0000       0.3691
   11360.0    1363200       0.0120       0.0000       0.0000       0.0010       0.0120       0.0120       0.0000       1.0000       0.3683
   11360.5    1363260       0.0602       0.0000       0.0000       0.0010       0.0602       0.0602       0.0000       1.0000       0.3850
   11361.0    1363320       0.0416       0.0000       0.0000       0.0010       0.0416       0.0416       0.0000       1.0000       0.3836
   11361.5    1363380       0.0071       0.0000       0.0000       0.0010       0.0071       0.0071       0.0000       1.0000       0.3880
   11362.0    1363440    -999.2500       0.9848       0.0000    -999.2500    -999.2500    -999.2500       0.0000    -999.2500       0.3788
   11362.5    1363500    -999.2500       1.0000       0.0000    -999.2500    -999.2500    -999.2500       0.0000    -999.2500       0.3759
   11363.0    1363560       0.0063       0.9835       0.0000       0.0010       0.0063       0.0063       0.0000       1.0000       0.3524
   11363.5    1363620       0.0060       0.0000       0.0000       0.0010       0.0060       0.0060       0.0000       1.0000       0.3206
   11364.0    1363680       0.0060       0.0000       0.0000       0.0010       0.0060       0.0060       0.0000       1.0000       0.3103
   11364.5    1363740    -999.2500       1.0000       0.0000    -999.2500    -999.2500    -999.2500       0.0000    -999.2500       0.3405
   11365.0    1363800    -999.2500       1.0000       0.0000    -999.2500    -999.2500    -999.2500       0.0000    -999.2500       0.3543
   11365.5    1363860    -999.2500       1.0000       0.0000    -999.2500    -999.2500    -999.2500       0.0000    -999.2500       0.3321
   11366.0    1363920    -999.2500       1.0000       0.0000    -999.2500    -999.2500    -999.2500       0.0000    -999.2500       0.3063
   11366.5    1363980    -999.2500       1.0000       0.0000    -999.2500    -999.2500    -999.2500       0.0000    -999.2500       0.2883
   11367.0    1364040    -999.2500       1.0000       0.0000    -999.2500    -999.2500    -999.2500       0.0000    -999.2500       0.2912
   11367.5    1364100    -999.2500       1.0000       0.0000    -999.2500    -999.2500    -999.2500       0.0000    -999.2500       0.2900
   11368.0    1364160       0.0221       1.0000       0.0000       0.0010       0.0221       0.0221       0.0000       1.0000       0.2948
   11368.5    1364220       0.0241       0.0000       0.0000       0.0010       0.0241       0.0241       0.0000       1.0000       0.3176
   11369.0    1364280       0.0783       0.0000       0.0000       0.0010       0.0783       0.0783       0.0000       1.0000       0.3596
   11369.5    1364340       0.0958       0.0000       0.0000       0.0010       0.0958       0.0958       0.0000       1.0000       0.4071
   11370.0    1364400       0.0729       0.0000       0.0000       0.0010       0.0729       0.0729       0.0000       1.0000       0.4424
   11370.5    1364460       0.0422       0.0000       0.0000       0.0010       0.0422       0.0422       0.0000       1.0000       0.4361
   11371.0    1364520       0.0241       0.0000       0.0000       0.0010       0.0241       0.0241       0.0000       1.0000       0.4186
   11371.5    1364580       0.0365       0.0000       0.0000       0.0010       0.0365       0.0365       0.0000       1.0000       0.3992
   11372.0    1364640       0.0537       0.0000       0.0000       0.0010       0.0537       0.0537       0.0000       1.0000       0.3889
   11372.5    1364700       0.0720       0.0000       0.0000       0.0010       0.0720       0.0720       0.0000       1.0000       0.4125
   11373.0    1364760       0.0843       0.0000       0.0000       0.0010       0.0843       0.0843       0.0000       1.0000       0.4543
   11373.5    1364820       0.0778       0.0000       0.0000       0.0010       0.0778       0.0778       0.0000       1.0000       0.4837
   11374.0    1364880       0.0491       0.0000       0.0000       0.0010       0.0491       0.0491       0.0000       1.0000       0.4793
   11374.5    1364940       0.0126       0.0000       0.0000       0.0010       0.0126       0.0126       0.0000       1.0000       0.4637
   11375.0    1365000       0.0060       0.0000       0.0000       0.0010       0.0060       0.0060       0.0000       1.0000       0.4770
   11375.5    1365060       0.0184       0.0000       0.0000       0.0010       0.0184       0.0184       0.0000       1.0000       0.4952
   11376.0    1365120       0.0365       0.0000       0.0000       0.0010       0.0365       0.0365       0.0000       1.0000       0.5415
   11376.5    1365180       0.0480       0.0000       0.0000       0.0010       0.0480       0.0480       0.0000       1.0000       0.5541
   11377.0    1365240       0.0542       0.0000       0.0000       0.0010       0.0542       0.0542       0.0000       1.0000       0.5654
   11377.5    1365300       0.0542       0.0000       0.0000       0.0010       0.0542       0.0542       0.0000       1.0000       0.5146
   11378.0    1365360       0.0422       0.0000       0.0000       0.0010       0.0422       0.0422       0.0000       1.0000       0.5284
   11378.5    1365420       0.0422       0.0000       0.0000       0.0010       0.0422       0.0422       0.0000       1.0000       0.5707
   11379.0    1365480       0.0422       0.0000       0.0000       0.0010       0.0422       0.0422       0.0000       1.0000       0.6349
   11379.5    1365540       0.0482       0.0000       0.0000       0.0010       0.0482       0.0482       0.0000       1.0000       0.6941
   11380.0    1365600       0.0419       0.0000       0.0000       0.0010       0.0419       0.0419       0.0000       1.0000       0.7186
   11380.5    1365660       0.0304       0.0000       0.0000       0.0010       0.0304       0.0304       0.0000       1.0000       0.7213
   11381.0    1365720       0.0301       0.0000       0.0000       0.0010       0.0301       0.0301       0.0000       1.0000       0.6904
   11381.5    1365780       0.0241       0.0000       0.0000       0.0010       0.0241       0.0241       0.0000       1.0000       0.6706
   11382.0    1365840       0.0179       0.0000       0.0000       0.0010       0.0179       0.0179       0.0000       1.0000       0.6653
   11382.5    1365900       0.0122       0.0000       0.0000       0.0010       0.0122       0.0122       0.0000       1.0000       0.6239
   11383.0    1365960       0.0181       0.0000       0.0000       0.0010       0.0181       0.0181       0.0000       1.0000       0.5818
   11383.5    1366020       0.0181       0.0000       0.0000       0.0010       0.0181       0.0181       0.0000       1.0000       0.5319
   11384.0    1366080       0.0060       0.0195       0.0000       0.0010       0.0060       0.0060       0.0000       1.0000       0.5225
   11384.5    1366140    -999.2500       0.9726       0.0000    -999.2500    -999.2500    -999.2500       0.0000    -999.2500       0.5168
   11385.0    1366200    -999.2500       1.0000       0.0000    -999.2500    -999.2500    -999.2500       0.0000    -999.2500       0.5175
   11385.5    1366260    -999.2500       1.0000       0.0000    -999.2500    -999.2500    -999.2500       0.0000    -999.2500       0.5120
   11386.0    1366320    -999.2500       1.0000       0.0000    -999.2500    -999.2500    -999.2500       0.0000    -999.2500       0.5062
   11386.5    1366380    -999.2500       1.0000       0.0000    -999.2500    -999.2500    -999.2500       0.0000    -999.2500       0.4741
