~VERSION INFORMATION
VERS.           2.0   :CWLS Log ASCII Standard - VERSION 2.0
WRAP.           NO    :One Line per depth step
PROD.  Schlumberger   :LAS Producer
PROG.  DLIS to ASCII 2.3                               :LAS Program name and version
CREA.        2019/04/03 19:51                          :LAS Creation date {YYYY/MM/DD hh:mm}
DLIS_CREA.  2009-Feb-18 14:45                          :DLIS Creation date and time {YYYY-MMM-DD hh:mm}
SOURCE.     WLC_PETRO_COMPUTED_OUTPUT_1.DLIS           :DLIS File Name
FILE-ID.     OUTPUT.logdata                            :File Identification Number
#--------------------------------------------------
~WELL INFORMATION
#MNEM.UNIT      DATA             DESCRIPTION
#---- ------ --------------   -----------------------------
STRT .F         1382.0       :START DEPTH     
STOP .F        12441.0       :STOP DEPTH     
STEP .F            0.5       :STEP     
NULL .          -999.25      :NULL VALUE
COMP .                                                 :COMPANY
WELL .        15/9-F-5                                 :WELL
FLD  .        VOLVE                                    :FIELD
LOC  .                                                 :LOCATION
CNTY .        MAERSK INSPIRER                          :COUNTY
STAT .                                                 :STATE
CTRY .                                                 :COUNTRY
API  .                                                 :API NUMBER
UWI  .                                                 :UNIQUE WELL ID
DATE .                                                 :LOG DATE
SRVC .        CROCKER DATA PROCESSING                  :SERVICE COMPANY
LATI .DEG                                              :LATITUDE
LONG .DEG                                              :LONGITUDE
GDAT .                                                 :GeoDetic Datum
#-----------------------------------------------------------------------------
~PARAMETER INFORMATION
#MNEM.UNIT    VALUE                      DESCRIPTION
#---- -----   --------------------       ------------------------
WN   .        15/9-F-5                   :Well Name
FN   .        VOLVE                      :Field
CTRY .        NORWAY                     :Country
COUN .        MAERSK INSPIRER            :County or Rig name
PDAT .        MSL                        :Perm. Datum
ELZ  .M          0.00000                 :Elev. Log Zero (wrt EPD)
R2   .        INPUT                      :R2
RUN  .                                   :RUN NUMBER
EPD  .                                   :Elevation of Permanent Datum above Mean Sea Level
LMF  .                                   :Logging Measured From (Name of Logging Elevation Reference)
APD  .                                   :Elevation of Depth Reference (LMF) above Permanent Datum
#-----------------------------------------------------------------------------
~CURVE INFORMATION
#MNEM.UNIT   API CODE                                  DESCRIPTION
#---- -----  --------                                  -----------------------
DEPTH.F                                                :DEPTH (BOREHOLE) {F10.1}
DEPTH..1IN                                             :Measured Depth {I11}
BVW  .V/V_DECIMAL                                      :BVW:UNKNOWN:rC:NONE:v1 {F13.4}
CARB_FLAG.UNKNOWN                                      :CARB_FLAG:UNKNOWN:rC:NONE:v1 {F13.4}
COAL_FLAG.UNKNOWN                                      :COAL_FLAG:UNKNOWN:rC:NONE:v1 {F13.4}
KLOGH.MD                                               :KLOGH:UNKNOWN:rC:NONE:v1 {F13.4}
PHID .V/V_DECIMAL                                      :PHID:UNKNOWN:rC:NONE:v1 {F13.4}
PHIF .V/V_DECIMAL                                      :PHIF:UNKNOWN:rC:NONE:v1 {F13.4}
SAND_FLAG.UNKNOWN                                      :SAND_FLAG:UNKNOWN:rC:NONE:v1 {F13.4}
SW   .V/V_DECIMAL                                      :SW:UNKNOWN:rC:NONE:v1 {F13.4}
VSH  .V/V_DECIMAL                                      :VSH:UNKNOWN:rC:NONE:v1 {F13.4}
#-----------------------------------------------------------------------------
# 
#    DEPTH        DEPTH           BVW       CARB_FLAG    COAL_FLAG      KLOGH         PHID         PHIF      SAND_FLAG       SW           VSH
#
~A  
# ...
   11474.0    1376880       0.0344       0.0000       0.0000       3.1168       0.0798       0.1114       1.0000       0.3085       0.2664
   11474.5    1376940       0.0335       0.0000       0.0000       2.2038       0.0856       0.1147       1.0000       0.2920       0.2861
   11475.0    1377000       0.0346       0.0000       0.0000       2.2135       0.0914       0.1224       1.0000       0.2825       0.2927
   11475.5    1377060       0.0340       0.0000       0.0000       1.1085       0.0969       0.0969       0.0000       0.3515       0.3036
   11476.0    1377120       0.0317       0.0000       0.0000       0.4431       0.0795       0.0795       0.0000       0.3990       0.3326
   11476.5    1377180       0.0297       0.0000       0.0000       0.1935       0.0632       0.0632       0.0000       0.4700       0.3580
   11477.0    1377240       0.0300       0.0000       0.0000       0.0473       0.0514       0.0514       0.0000       0.5834       0.4151
   11477.5    1377300       0.0309       0.0000       0.0000       0.0230       0.0571       0.0571       0.0000       0.5402       0.4551
   11478.0    1377360       0.0382       0.0000       0.0000       0.0073       0.0571       0.0571       0.0000       0.6678       0.5104
   11478.5    1377420       0.0449       0.0000       0.0000       0.0043       0.0571       0.0571       0.0000       0.7852       0.5360
   11479.0    1377480       0.0457       0.0000       0.0000       0.0018       0.0457       0.0457       0.0000       1.0000       0.5681
   11479.5    1377540       0.0343       0.0000       0.0000       0.0014       0.0343       0.0343       0.0000       1.0000       0.5706
   11480.0    1377600       0.0344       0.0000       0.0000       0.0010       0.0344       0.0344       0.0000       1.0000       0.5858
   11480.5    1377660       0.0399       0.0000       0.0000       0.0014       0.0399       0.0399       0.0000       1.0000       0.5736
   11481.0    1377720       0.0457       0.0000       0.0000       0.0010       0.0457       0.0457       0.0000       1.0000       0.5940
   11481.5    1377780       0.0400       0.0000       0.0000       0.0015       0.0400       0.0400       0.0000       1.0000       0.5708
   11482.0    1377840       0.0338       0.0000       0.0000       0.0031       0.0338       0.0338       0.0000       1.0000       0.5320
   11482.5    1377900       0.0120       0.0000       0.0000       0.0104       0.0120       0.0120       0.0000       1.0000       0.4540
   11483.0    1377960       0.0229       0.0000       0.0000       0.0965       0.0229       0.0229       0.0000       1.0000       0.3554
   11483.5    1378020       0.0402       0.0000       0.0000       0.7589       0.0743       0.0743       0.0000       0.5415       0.3016
   11484.0    1378080       0.0453       0.0000       0.0000      14.5533       0.1436       0.1664       1.0000       0.2724       0.2416
   11484.5    1378140       0.0451       0.0000       0.0000      37.8336       0.1818       0.1848       1.0000       0.2444       0.2116
   11485.0    1378200       0.0442       0.0000       0.0000      86.7722       0.2114       0.2074       1.0000       0.2132       0.1912
   11485.5    1378260       0.0433       0.0000       0.0000     120.7087       0.2229       0.2246       1.0000       0.1926       0.1905
   11486.0    1378320       0.0401       0.0000       0.0000      72.2849       0.2229       0.2221       1.0000       0.1807       0.2131
   11486.5    1378380       0.0407       0.0000       0.0000      64.0140       0.2229       0.2259       1.0000       0.1800       0.2223
   11487.0    1378440       0.0396       0.0000       0.0000      57.6492       0.2229       0.2244       1.0000       0.1763       0.2260
   11487.5    1378500       0.0388       0.0000       0.0000      60.6398       0.2229       0.2307       1.0000       0.1682       0.2292
   11488.0    1378560       0.0376       0.0000       0.0000      75.0620       0.2228       0.2237       1.0000       0.1679       0.2127
   11488.5    1378620       0.0367       0.0000       0.0000      69.6915       0.2171       0.2225       1.0000       0.1649       0.2152
   11489.0    1378680       0.0361       0.0000       0.0000      68.4512       0.2171       0.2170       1.0000       0.1664       0.2112
   11489.5    1378740       0.0358       0.0000       0.0000      59.4893       0.2171       0.2166       1.0000       0.1655       0.2176
   11490.0    1378800       0.0357       0.0000       0.0000      79.6060       0.2229       0.2220       1.0000       0.1610       0.2084
   11490.5    1378860       0.0357       0.0000       0.0000      64.7568       0.2230       0.2257       1.0000       0.1581       0.2217
   11491.0    1378920       0.0355       0.0000       0.0000      51.4497       0.2285       0.2242       1.0000       0.1585       0.2314
   11491.5    1378980       0.0353       0.0000       0.0000      51.1574       0.2343       0.2292       1.0000       0.1539       0.2361
   11492.0    1379040       0.0359       0.0000       0.0000      72.6596       0.2457       0.2397       1.0000       0.1496       0.2285
   11492.5    1379100       0.0363       0.0000       0.0000      85.4711       0.2516       0.2480       1.0000       0.1462       0.2280
   11493.0    1379160       0.0368       0.0000       0.0000      71.9231       0.2570       0.2534       1.0000       0.1453       0.2412
   11493.5    1379220       0.0367       0.0000       0.0000      91.7499       0.2571       0.2473       1.0000       0.1485       0.2240
   11494.0    1379280       0.0364       0.0000       0.0000      96.4712       0.2514       0.2470       1.0000       0.1474       0.2213
   11494.5    1379340       0.0369       0.0000       0.0000     134.8490       0.2514       0.2476       1.0000       0.1488       0.2057
   11495.0    1379400       0.0368       0.0000       0.0000     117.4064       0.2514       0.2473       1.0000       0.1488       0.2121
   11495.5    1379460       0.0371       0.0000       0.0000     188.1608       0.2571       0.2517       1.0000       0.1473       0.1932
   11496.0    1379520       0.0376       0.0000       0.0000     184.7230       0.2629       0.2566       1.0000       0.1464       0.1984
   11496.5    1379580       0.0375       0.0000       0.0000     165.3883       0.2569       0.2523       1.0000       0.1486       0.2001
   11497.0    1379640       0.0375       0.0000       0.0000     121.9755       0.2460       0.2441       1.0000       0.1535       0.2074
   11497.5    1379700       0.0376       0.0000       0.0000     112.5896       0.2457       0.2408       1.0000       0.1562       0.2083
   11498.0    1379760       0.0383       0.0000       0.0000     118.7562       0.2457       0.2498       1.0000       0.1532       0.2137
   11498.5    1379820       0.0386       0.0000       0.0000      93.4560       0.2457       0.2483       1.0000       0.1554       0.2240
   11499.0    1379880       0.0382       0.0000       0.0000      78.5139       0.2457       0.2459       1.0000       0.1553       0.2302
   11499.5    1379940       0.0383       0.0000       0.0000      76.0901       0.2457       0.2485       1.0000       0.1543       0.2341
   11500.0    1380000       0.0388       0.0000       0.0000      80.6879       0.2514       0.2482       1.0000       0.1565       0.2310
   11500.5    1380060       0.0389       0.0000       0.0000      68.1739       0.2571       0.2456       1.0000       0.1585       0.2368
   11501.0    1380120       0.0397       0.0000       0.0000      60.2346       0.2571       0.2515       1.0000       0.1578       0.2481
   11501.5    1380180       0.0396       0.0000       0.0000      59.2794       0.2571       0.2494       1.0000       0.1589       0.2469
   11502.0    1380240       0.0398       0.0000       0.0000      77.1624       0.2571       0.2559       1.0000       0.1554       0.2400
   11502.5    1380300       0.0394       0.0000       0.0000      66.1437       0.2514       0.2441       1.0000       0.1614       0.2370
