~VERSION INFORMATION
VERS.           2.0   :CWLS Log ASCII Standard - VERSION 2.0
WRAP.           NO    :One Line per depth step
PROD.  Schlumberger   :LAS Producer
PROG.  DLIS to ASCII 2.3                               :LAS Program name and version
CREA.        2019/04/03 19:51                          :LAS Creation date {YYYY/MM/DD hh:mm}
DLIS_CREA.  2009-Feb-18 14:45                          :DLIS Creation date and time {YYYY-MMM-DD hh:mm}
SOURCE.     WLC_PETRO_COMPUTED_OUTPUT_1.DLIS           :DLIS File Name
FILE-ID.     OUTPUT.logdata                            :File Identification Number
#--------------------------------------------------
~WELL INFORMATION
#MNEM.UNIT      DATA             DESCRIPTION
#---- ------ --------------   -----------------------------
STRT .F         1382.0       :START DEPTH     
STOP .F        12441.0       :STOP DEPTH     
STEP .F            0.5       :STEP     
NULL .          -999.25      :NULL VALUE
COMP .                                                 :COMPANY
WELL .        15/9-F-5                                 :WELL
FLD  .        VOLVE                                    :FIELD
LOC  .                                                 :LOCATION
CNTY .        MAERSK INSPIRER                          :COUNTY
STAT .                                                 :STATE
CTRY .                                                 :COUNTRY
API  .                                                 :API NUMBER
UWI  .                                                 :UNIQUE WELL ID
DATE .                                                 :LOG DATE
SRVC .        CROCKER DATA PROCESSING                  :SERVICE COMPANY
LATI .DEG                                              :LATITUDE
LONG .DEG                                              :LONGITUDE
GDAT .                                                 :GeoDetic Datum
#-----------------------------------------------------------------------------
~PARAMETER INFORMATION
#MNEM.UNIT    VALUE                      DESCRIPTION
#---- -----   --------------------       ------------------------
WN   .        15/9-F-5                   :Well Name
FN   .        VOLVE                      :Field
CTRY .        NORWAY                     :Country
COUN .        MAERSK INSPIRER            :County or Rig name
PDAT .        MSL                        :Perm. Datum
ELZ  .M          0.00000                 :Elev. Log Zero (wrt EPD)
R2   .        INPUT                      :R2
RUN  .                                   :RUN NUMBER
EPD  .                                   :Elevation of Permanent Datum above Mean Sea Level
LMF  .                                   :Logging Measured From (Name of Logging Elevation Reference)
APD  .                                   :Elevation of Depth Reference (LMF) above Permanent Datum
#-----------------------------------------------------------------------------
~CURVE INFORMATION
#MNEM.UNIT   API CODE                                  DESCRIPTION
#---- -----  --------                                  -----------------------
DEPTH.F                                                :DEPTH (BOREHOLE) {F10.1}
DEPTH..1IN                                             :Measured Depth {I11}
BVW  .V/V_DECIMAL                                      :BVW:UNKNOWN:rC:NONE:v1 {F13.4}
CARB_FLAG.UNKNOWN                                      :CARB_FLAG:UNKNOWN:rC:NONE:v1 {F13.4}
COAL_FLAG.UNKNOWN                                      :COAL_FLAG:UNKNOWN:rC:NONE:v1 {F13.4}
KLOGH.MD                                               :KLOGH:UNKNOWN:rC:NONE:v1 {F13.4}
PHID .V/V_DECIMAL                                      :PHID:UNKNOWN:rC:NONE:v1 {F13.4}
PHIF .V/V_DECIMAL                                      :PHIF:UNKNOWN:rC:NONE:v1 {F13.4}
SAND_FLAG.UNKNOWN                                      :SAND_FLAG:UNKNOWN:rC:NONE:v1 {F13.4}
SW   .V/V_DECIMAL                                      :SW:UNKNOWN:rC:NONE:v1 {F13.4}
VSH  .V/V_DECIMAL                                      :VSH:UNKNOWN:rC:NONE:v1 {F13.4}
#-----------------------------------------------------------------------------
# 
#    DEPTH        DEPTH           BVW       CARB_FLAG    COAL_FLAG      KLOGH         PHID         PHIF      SAND_FLAG       SW           VSH
#
~A  
# ...
   12373.0    1484760       0.1209       0.0000       0.0000       3.7042       0.1143       0.1403       1.0000       0.8617       0.4610
   12373.5    1484820       0.1219       0.0000       0.0000       1.5900       0.0968       0.1288       0.9821       0.9466       0.4707
   12374.0    1484880       0.0813       0.0000       0.0000       0.0867       0.0805       0.0815       0.0305       0.9983       0.4865
   12374.5    1484940       0.0631       0.0000       0.0000       0.0090       0.0631       0.0631       0.0000       1.0000       0.5401
   12375.0    1485000       0.0457       0.0000       0.0000       0.0018       0.0457       0.0457       0.0000       1.0000       0.6070
   12375.5    1485060       0.0344       0.0000       0.0000       0.0010       0.0344       0.0344       0.0000       1.0000       0.6970
   12376.0    1485120       0.0397       0.0304       0.0000       0.0010       0.0397       0.0397       0.0000       1.0000       0.7749
   12376.5    1485180       0.0288       0.9819       0.0000       0.0010       0.0288       0.0288       0.0000       1.0000       0.8408
   12377.0    1485240       0.0229       1.0000       0.0000       0.0010       0.0229       0.0229       0.0000       1.0000       0.9120
   12377.5    1485300       0.0059       1.0000       0.0000       0.0010       0.0059       0.0059       0.0000       1.0000       0.9596
   12378.0    1485360       0.0171       1.0000       0.0000       0.0010       0.0171       0.0171       0.0000       1.0000       0.9658
   12378.5    1485420       0.0171       1.0000       0.0000       0.0010       0.0171       0.0171       0.0000       1.0000       0.8840
   12379.0    1485480       0.0229       1.0000       0.0000       0.0010       0.0229       0.0229       0.0000       1.0000       0.7180
   12379.5    1485540       0.0400       0.0000       0.0000       0.0015       0.0400       0.0400       0.0000       1.0000       0.5481
   12380.0    1485600       0.0690       0.0000       0.0000       0.0800       0.0693       0.0701       0.0255       0.9914       0.4157
   12380.5    1485660       0.0841       0.0000       0.0000       2.2083       0.0965       0.1259       0.9771       0.6709       0.3609
   12381.0    1485720       0.0892       0.0000       0.0000       7.6986       0.1200       0.1433       1.0000       0.6221       0.3499
   12381.5    1485780       0.0940       0.0000       0.0000       9.4689       0.1257       0.1457       1.0000       0.6448       0.3438
   12382.0    1485840       0.1146       0.0000       0.0000      11.5783       0.1314       0.1479       1.0000       0.7747       0.3348
   12382.5    1485900       0.1259       0.0000       0.0000      12.5402       0.1314       0.1486       1.0000       0.8474       0.3278
   12383.0    1485960       0.1274       0.0000       0.0000      13.2551       0.1314       0.1499       1.0000       0.8504       0.3365
   12383.5    1486020       0.1280       0.0000       0.0000      10.4551       0.1314       0.1460       1.0000       0.8768       0.3266
   12384.0    1486080       0.1276       0.0000       0.0000      10.8762       0.1314       0.1466       1.0000       0.8705       0.3281
   12384.5    1486140       0.1318       0.0000       0.0000      12.9838       0.1314       0.1495       1.0000       0.8820       0.3347
   12385.0    1486200       0.1359       0.0000       0.0000      13.6305       0.1371       0.1506       1.0000       0.9025       0.3424
   12385.5    1486260       0.1362       0.0000       0.0000      11.8689       0.1314       0.1481       1.0000       0.9199       0.3323
   12386.0    1486320       0.1330       0.0000       0.0000       8.8902       0.1198       0.1442       1.0000       0.9224       0.3341
   12386.5    1486380       0.1236       0.0000       0.0000       3.9758       0.1089       0.1345       1.0000       0.9188       0.3550
   12387.0    1486440       0.1233       0.0000       0.0000       3.6256       0.1142       0.1341       1.0000       0.9195       0.3664
   12387.5    1486500       0.1227       0.0000       0.0000       5.6303       0.1200       0.1388       1.0000       0.8841       0.3462
   12388.0    1486560       0.1186       0.0000       0.0000       7.0722       0.1257       0.1406       1.0000       0.8438       0.3245
   12388.5    1486620       0.1143       0.0000       0.0000       6.7781       0.1255       0.1397       1.0000       0.8180       0.3200
   12389.0    1486680       0.1177       0.0000       0.0000       5.1724       0.1201       0.1359       1.0000       0.8655       0.3185
   12389.5    1486740       0.1133       0.0000       0.0000       3.4862       0.1143       0.1312       1.0000       0.8639       0.3276
   12390.0    1486800       0.1109       0.0000       0.0000       3.0939       0.1086       0.1294       1.0000       0.8575       0.3249
   12390.5    1486860       0.1111       0.0000       0.0000       3.1426       0.1087       0.1298       1.0000       0.8564       0.3277
   12391.0    1486920       0.1156       0.0000       0.0000       4.2744       0.1142       0.1330       1.0000       0.8695       0.3125
   12391.5    1486980       0.1202       0.0000       0.0000       5.0058       0.1200       0.1350       1.0000       0.8903       0.3103
   12392.0    1487040       0.1248       0.0000       0.0000       5.8740       0.1200       0.1370       1.0000       0.9104       0.3082
   12392.5    1487100       0.1320       0.0000       0.0000       6.2306       0.1201       0.1367       1.0000       0.9654       0.2903
   12393.0    1487160       0.1329       0.0000       0.0000       8.7767       0.1256       0.1405       1.0000       0.9459       0.2773
   12393.5    1487220       0.1353       0.0000       0.0000      12.8615       0.1314       0.1449       1.0000       0.9338       0.2643
   12394.0    1487280       0.1403       0.0000       0.0000      12.2614       0.1314       0.1445       1.0000       0.9714       0.2670
   12394.5    1487340       0.1441       0.0000       0.0000      20.5297       0.1373       0.1503       1.0000       0.9586       0.2491
   12395.0    1487400       0.1439       0.0000       0.0000      32.4353       0.1427       0.1558       1.0000       0.9236       0.2374
   12395.5    1487460       0.1414       0.0000       0.0000      48.6795       0.1486       0.1616       1.0000       0.8751       0.2417
   12396.0    1487520    -999.2500       0.0000       0.0000    -999.2500       0.1486    -999.2500       1.0000    -999.2500       0.2601
   12396.5    1487580    -999.2500       0.0000       0.0000    -999.2500       0.1425    -999.2500       1.0000    -999.2500       0.3043
   12397.0    1487640    -999.2500       0.0000       0.0000    -999.2500       0.1262    -999.2500       1.0000    -999.2500       0.3163
   12397.5    1487700    -999.2500       0.0000       0.0000    -999.2500       0.0857    -999.2500       1.0000    -999.2500       0.3534
   12398.0    1487760    -999.2500       0.0000       0.0000    -999.2500       0.0971    -999.2500       1.0000    -999.2500       0.3921
   12398.5    1487820    -999.2500       0.0000       0.0000    -999.2500       0.0802    -999.2500       0.9828    -999.2500       0.4957
   12399.0    1487880    -999.2500       0.0000       0.0000    -999.2500       0.0911    -999.2500       0.0298    -999.2500       0.5718
   12399.5    1487940    -999.2500       0.0000       0.0000    -999.2500       0.0577    -999.2500       0.0000    -999.2500       0.6074
   12400.0    1488000    -999.2500       0.0000       0.0000    -999.2500       0.0800    -999.2500       0.0000    -999.2500       0.5877
   12400.5    1488060    -999.2500       0.0000       0.0000    -999.2500       0.1029    -999.2500       0.0000    -999.2500       0.5405
   12401.0    1488120    -999.2500       0.0000       0.0000    -999.2500       0.1030    -999.2500       0.0000    -999.2500       0.5198
   12401.5    1488180    -999.2500       0.0000       0.0000    -999.2500       0.1085    -999.2500       0.0000    -999.2500       0.4951
