~VERSION INFORMATION
VERS.           2.0   :CWLS Log ASCII Standard - VERSION 2.0
WRAP.           NO    :One Line per depth step
PROD.  Schlumberger   :LAS Producer
PROG.  DLIS to ASCII 2.3                               :LAS Program name and version
CREA.        2019/04/03 19:51                          :LAS Creation date {YYYY/MM/DD hh:mm}
DLIS_CREA.  2009-Feb-18 14:45                          :DLIS Creation date and time {YYYY-MMM-DD hh:mm}
SOURCE.     WLC_PETRO_COMPUTED_OUTPUT_1.DLIS           :DLIS File Name
FILE-ID.     OUTPUT.logdata                            :File Identification Number
#--------------------------------------------------
~WELL INFORMATION
#MNEM.UNIT      DATA             DESCRIPTION
#---- ------ --------------   -----------------------------
STRT .F         1382.0       :START DEPTH     
STOP .F        12441.0       :STOP DEPTH     
STEP .F            0.5       :STEP     
NULL .          -999.25      :NULL VALUE
COMP .                                                 :COMPANY
WELL .        15/9-F-5                                 :WELL
FLD  .        VOLVE                                    :FIELD
LOC  .                                                 :LOCATION
CNTY .        MAERSK INSPIRER                          :COUNTY
STAT .                                                 :STATE
CTRY .                                                 :COUNTRY
API  .                                                 :API NUMBER
UWI  .                                                 :UNIQUE WELL ID
DATE .                                                 :LOG DATE
SRVC .        CROCKER DATA PROCESSING                  :SERVICE COMPANY
LATI .DEG                                              :LATITUDE
LONG .DEG                                              :LONGITUDE
GDAT .                                                 :GeoDetic Datum
#-----------------------------------------------------------------------------
~PARAMETER INFORMATION
#MNEM.UNIT    VALUE                      DESCRIPTION
#---- -----   --------------------       ------------------------
WN   .        15/9-F-5                   :Well Name
FN   .        VOLVE                      :Field
CTRY .        NORWAY                     :Country
COUN .        MAERSK INSPIRER            :County or Rig name
PDAT .        MSL                        :Perm. Datum
ELZ  .M          0.00000                 :Elev. Log Zero (wrt EPD)
R2   .        INPUT                      :R2
RUN  .                                   :RUN NUMBER
EPD  .                                   :Elevation of Permanent Datum above Mean Sea Level
LMF  .                                   :Logging Measured From (Name of Logging Elevation Reference)
APD  .                                   :Elevation of Depth Reference (LMF) above Permanent Datum
#-----------------------------------------------------------------------------
~CURVE INFORMATION
#MNEM.UNIT   API CODE                                  DESCRIPTION
#---- -----  --------                                  -----------------------
DEPTH.F                                                :DEPTH (BOREHOLE) {F10.1}
DEPTH..1IN                                             :Measured Depth {I11}
BVW  .V/V_DECIMAL                                      :BVW:UNKNOWN:rC:NONE:v1 {F13.4}
CARB_FLAG.UNKNOWN                                      :CARB_FLAG:UNKNOWN:rC:NONE:v1 {F13.4}
COAL_FLAG.UNKNOWN                                      :COAL_FLAG:UNKNOWN:rC:NONE:v1 {F13.4}
KLOGH.MD                                               :KLOGH:UNKNOWN:rC:NONE:v1 {F13.4}
PHID .V/V_DECIMAL                                      :PHID:UNKNOWN:rC:NONE:v1 {F13.4}
PHIF .V/V_DECIMAL                                      :PHIF:UNKNOWN:rC:NONE:v1 {F13.4}
SAND_FLAG.UNKNOWN                                      :SAND_FLAG:UNKNOWN:rC:NONE:v1 {F13.4}
SW   .V/V_DECIMAL                                      :SW:UNKNOWN:rC:NONE:v1 {F13.4}
VSH  .V/V_DECIMAL                                      :VSH:UNKNOWN:rC:NONE:v1 {F13.4}
#-----------------------------------------------------------------------------
# 
#    DEPTH        DEPTH           BVW       CARB_FLAG    COAL_FLAG      KLOGH         PHID         PHIF      SAND_FLAG       SW           VSH
#
~A  
# ...
   12025.0    1443000       0.0745       0.0000       0.0000      16.1172       0.2114       0.2057       1.0000       0.3623       0.2710
   12025.5    1443060       0.0750       0.0000       0.0000      27.5111       0.2171       0.2143       1.0000       0.3501       0.2527
   12026.0    1443120       0.0750       0.0000       0.0000      32.8733       0.2116       0.2149       1.0000       0.3493       0.2447
   12026.5    1443180       0.0747       0.0000       0.0000      26.3406       0.2170       0.2185       1.0000       0.3421       0.2586
   12027.0    1443240       0.0741       0.0000       0.0000      17.4645       0.2171       0.2168       1.0000       0.3416       0.2770
   12027.5    1443300       0.0743       0.0000       0.0000      25.4321       0.2286       0.2294       1.0000       0.3237       0.2700
   12028.0    1443360       0.0731       0.0000       0.0000      39.3649       0.2286       0.2277       1.0000       0.3212       0.2475
   12028.5    1443420       0.0725       0.0000       0.0000      55.4580       0.2286       0.2234       1.0000       0.3245       0.2270
   12029.0    1443480       0.0724       0.0000       0.0000      45.1994       0.2286       0.2228       1.0000       0.3249       0.2363
   12029.5    1443540       0.0720       0.0000       0.0000      40.7571       0.2286       0.2227       1.0000       0.3231       0.2413
   12030.0    1443600       0.0727       0.0000       0.0000      32.6829       0.2287       0.2263       1.0000       0.3212       0.2553
   12030.5    1443660       0.0732       0.0000       0.0000      53.4045       0.2342       0.2395       1.0000       0.3058       0.2433
   12031.0    1443720       0.0738       0.0000       0.0000      39.7048       0.2343       0.2389       1.0000       0.3089       0.2570
   12031.5    1443780       0.0738       0.0000       0.0000      31.7441       0.2400       0.2414       1.0000       0.3059       0.2699
   12032.0    1443840       0.0741       0.0000       0.0000      14.4987       0.2342       0.2331       1.0000       0.3178       0.3005
   12032.5    1443900       0.0728       0.0000       0.0000      10.1777       0.2287       0.2241       1.0000       0.3250       0.3096
   12033.0    1443960       0.0743       0.0000       0.0000      17.3540       0.2286       0.2290       1.0000       0.3246       0.2881
   12033.5    1444020       0.0745       0.0000       0.0000      29.5382       0.2343       0.2401       1.0000       0.3101       0.2723
   12034.0    1444080       0.0736       0.0000       0.0000      37.2489       0.2343       0.2317       1.0000       0.3177       0.2536
   12034.5    1444140       0.0733       0.0000       0.0000      30.1843       0.2343       0.2274       1.0000       0.3225       0.2600
   12035.0    1444200       0.0731       0.0000       0.0000      36.4230       0.2286       0.2282       1.0000       0.3203       0.2516
   12035.5    1444260       0.0728       0.0000       0.0000      23.3034       0.2171       0.2144       1.0000       0.3394       0.2609
   12036.0    1444320       0.0716       0.0000       0.0000      18.5510       0.2112       0.2156       1.0000       0.3323       0.2732
   12036.5    1444380       0.0712       0.0000       0.0000       8.4675       0.2003       0.2031       1.0000       0.3507       0.3003
   12037.0    1444440       0.0717       0.0000       0.0000       8.1891       0.2113       0.2168       1.0000       0.3309       0.3135
   12037.5    1444500       0.0718       0.0000       0.0000       6.5459       0.2114       0.2183       1.0000       0.3291       0.3256
   12038.0    1444560       0.0728       0.0000       0.0000      12.0023       0.2288       0.2319       1.0000       0.3138       0.3086
   12038.5    1444620       0.0746       0.0000       0.0000      19.7941       0.2402       0.2349       1.0000       0.3174       0.2870
   12039.0    1444680       0.0752       0.0000       0.0000      25.7126       0.2456       0.2408       1.0000       0.3124       0.2796
   12039.5    1444740       0.0754       0.0000       0.0000      20.2626       0.2400       0.2390       1.0000       0.3157       0.2895
   12040.0    1444800       0.0745       0.0000       0.0000      10.0895       0.2171       0.2219       1.0000       0.3357       0.3079
   12040.5    1444860       0.0714       0.0000       0.0000       5.0942       0.1938       0.2057       1.0000       0.3472       0.3271
   12041.0    1444920       0.0718       0.0000       0.0000       1.8162       0.1775       0.1952       1.0000       0.3679       0.3677
   12041.5    1444980       0.0724       0.0000       0.0000       0.4489       0.1600       0.1765       1.0000       0.4103       0.4177
   12042.0    1445040       0.0769       0.0000       0.0000       0.1734       0.1486       0.1651       1.0000       0.4658       0.4536
   12042.5    1445100       0.0634       0.0000       0.0000       0.3210       0.1431       0.1601       1.0000       0.3962       0.4201
   12043.0    1445160       0.0457       0.0000       0.0000       0.7963       0.1540       0.1662       1.0000       0.2753       0.3813
   12043.5    1445220       0.0410       0.0000       0.0000       3.5756       0.1771       0.1820       1.0000       0.2250       0.3225
   12044.0    1445280       0.0392       0.0000       0.0000       6.8997       0.2057       0.1998       1.0000       0.1964       0.3066
   12044.5    1445340       0.0361       0.0000       0.0000       8.6665       0.2053       0.2045       1.0000       0.1765       0.2999
   12045.0    1445400       0.0351       0.0000       0.0000       5.5813       0.1890       0.1953       1.0000       0.1799       0.3130
   12045.5    1445460       0.0400       0.0000       0.0000       4.0577       0.1829       0.1933       1.0000       0.2070       0.3264
   12046.0    1445520       0.0382       0.0000       0.0000       5.5005       0.1886       0.1966       1.0000       0.1943       0.3147
   12046.5    1445580       0.0430       0.0000       0.0000       4.5684       0.1883       0.1979       1.0000       0.2171       0.3249
   12047.0    1445640       0.0510       0.0000       0.0000       3.1600       0.1775       0.1893       1.0000       0.2696       0.3351
   12047.5    1445700       0.0546       0.0000       0.0000       1.3365       0.1543       0.1687       1.0000       0.3235       0.3582
   12048.0    1445760       0.0577       0.0000       0.0000       1.3474       0.1371       0.1559       1.0000       0.3702       0.3464
   12048.5    1445820       0.0474       1.0000       0.0000       2.3002       0.1198       0.1479       0.0000       0.3202       0.3136
   12049.0    1445880       0.0472       1.0000       0.0000       3.4094       0.1089       0.1369       0.0000       0.3446       0.2848
   12049.5    1445940       0.0455       1.0000       0.0000       4.9902       0.1086       0.1340       0.0000       0.3397       0.2638
   12050.0    1446000       0.0419       1.0000       0.0000       4.9851       0.1029       0.1223       0.0000       0.3431       0.2534
   12050.5    1446060       0.0437       1.0000       0.0000       5.4886       0.1030       0.1218       0.0000       0.3592       0.2483
   12051.0    1446120       0.0434       1.0000       0.0000       5.8282       0.1146       0.1273       0.0000       0.3411       0.2504
   12051.5    1446180       0.0482       1.0000       0.0000       6.3811       0.1255       0.1390       0.0000       0.3470       0.2563
   12052.0    1446240       0.0537       0.0000       0.0000       4.5931       0.1429       0.1572       0.0000       0.3418       0.2883
   12052.5    1446300       0.0601       0.0000       0.0000       1.3325       0.1657       0.1811       0.0000       0.3318       0.3694
   12053.0    1446360       0.0614       0.0000       0.0000       0.2161       0.1829       0.2049       0.0000       0.2995       0.4798
   12053.5    1446420       0.0621       0.0000       0.0000       0.0347       0.1829       0.2027       0.0000       0.3062       0.5682
