~VERSION INFORMATION
VERS.           2.0   :CWLS Log ASCII Standard - VERSION 2.0
WRAP.           NO    :One Line per depth step
PROD.  Schlumberger   :LAS Producer
PROG.  DLIS to ASCII 2.3                               :LAS Program name and version
CREA.        2019/04/03 19:51                          :LAS Creation date {YYYY/MM/DD hh:mm}
DLIS_CREA.  2009-Feb-18 14:45                          :DLIS Creation date and time {YYYY-MMM-DD hh:mm}
SOURCE.     WLC_PETRO_COMPUTED_OUTPUT_1.DLIS           :DLIS File Name
FILE-ID.     OUTPUT.logdata                            :File Identification Number
#--------------------------------------------------
~WELL INFORMATION
#MNEM.UNIT      DATA             DESCRIPTION
#---- ------ --------------   -----------------------------
STRT .F         1382.0       :START DEPTH     
STOP .F        12441.0       :STOP DEPTH     
STEP .F            0.5       :STEP     
NULL .          -999.25      :NULL VALUE
COMP .                                                 :COMPANY
WELL .        15/9-F-5                                 :WELL
FLD  .        VOLVE                                    :FIELD
LOC  .                                                 :LOCATION
CNTY .        MAERSK INSPIRER                          :COUNTY
STAT .                                                 :STATE
CTRY .                                                 :COUNTRY
API  .                                                 :API NUMBER
UWI  .                                                 :UNIQUE WELL ID
DATE .                                                 :LOG DATE
SRVC .        CROCKER DATA PROCESSING                  :SERVICE COMPANY
LATI .DEG                                              :LATITUDE
LONG .DEG                                              :LONGITUDE
GDAT .                                                 :GeoDetic Datum
#-----------------------------------------------------------------------------
~PARAMETER INFORMATION
#MNEM.UNIT    VALUE                      DESCRIPTION
#---- -----   --------------------       ------------------------
WN   .        15/9-F-5                   :Well Name
FN   .        VOLVE                      :Field
CTRY .        NORWAY                     :Country
COUN .        MAERSK INSPIRER            :County or Rig name
PDAT .        MSL                        :Perm. Datum
ELZ  .M          0.00000                 :Elev. Log Zero (wrt EPD)
R2   .        INPUT                      :R2
RUN  .                                   :RUN NUMBER
EPD  .                                   :Elevation of Permanent Datum above Mean Sea Level
LMF  .                                   :Logging Measured From (Name of Logging Elevation Reference)
APD  .                                   :Elevation of Depth Reference (LMF) above Permanent Datum
#-----------------------------------------------------------------------------
~CURVE INFORMATION
#MNEM.UNIT   API CODE                                  DESCRIPTION
#---- -----  --------                                  -----------------------
DEPTH.F                                                :DEPTH (BOREHOLE) {F10.1}
DEPTH..1IN                                             :Measured Depth {I11}
BVW  .V/V_DECIMAL                                      :BVW:UNKNOWN:rC:NONE:v1 {F13.4}
CARB_FLAG.UNKNOWN                                      :CARB_FLAG:UNKNOWN:rC:NONE:v1 {F13.4}
COAL_FLAG.UNKNOWN                                      :COAL_FLAG:UNKNOWN:rC:NONE:v1 {F13.4}
KLOGH.MD                                               :KLOGH:UNKNOWN:rC:NONE:v1 {F13.4}
PHID .V/V_DECIMAL                                      :PHID:UNKNOWN:rC:NONE:v1 {F13.4}
PHIF .V/V_DECIMAL                                      :PHIF:UNKNOWN:rC:NONE:v1 {F13.4}
SAND_FLAG.UNKNOWN                                      :SAND_FLAG:UNKNOWN:rC:NONE:v1 {F13.4}
SW   .V/V_DECIMAL                                      :SW:UNKNOWN:rC:NONE:v1 {F13.4}
VSH  .V/V_DECIMAL                                      :VSH:UNKNOWN:rC:NONE:v1 {F13.4}
#-----------------------------------------------------------------------------
# 
#    DEPTH        DEPTH           BVW       CARB_FLAG    COAL_FLAG      KLOGH         PHID         PHIF      SAND_FLAG       SW           VSH
#
~A  
# ...
   11677.0    1401240       0.0603       0.0000       0.0000      85.6351       0.2114       0.2258       1.0000       0.2670       0.2082
   11677.5    1401300       0.0531       0.0000       0.0000     122.8876       0.2286       0.2337       1.0000       0.2270       0.1978
   11678.0    1401360       0.0453       0.0000       0.0000     113.2313       0.2171       0.2236       1.0000       0.2026       0.1928
   11678.5    1401420       0.0448       0.0000       0.0000     149.6881       0.2171       0.2290       1.0000       0.1957       0.1841
   11679.0    1401480       0.0449       0.0000       0.0000     113.2328       0.2000       0.2140       1.0000       0.2099       0.1843
   11679.5    1401540       0.0480       0.0000       0.0000     147.2185       0.2171       0.2221       1.0000       0.2160       0.1788
   11680.0    1401600       0.0445       0.0000       0.0000     281.3523       0.2346       0.2331       1.0000       0.1909       0.1574
   11680.5    1401660       0.0442       0.0000       0.0000     405.2183       0.2455       0.2408       1.0000       0.1835       0.1466
   11681.0    1401720       0.0434       0.0000       0.0000     402.1030       0.2400       0.2376       1.0000       0.1825       0.1441
   11681.5    1401780       0.0424       0.0000       0.0000     270.8774       0.2171       0.2211       1.0000       0.1918       0.1484
   11682.0    1401840       0.0422       0.0000       0.0000     256.0337       0.2116       0.2130       1.0000       0.1981       0.1440
   11682.5    1401900       0.0459       0.0000       0.0000     324.6555       0.2170       0.2157       1.0000       0.2126       0.1349
   11683.0    1401960       0.0424       0.0000       0.0000     377.2670       0.2286       0.2241       1.0000       0.1891       0.1351
   11683.5    1402020       0.0423       0.0000       0.0000     406.8377       0.2286       0.2307       1.0000       0.1832       0.1374
   11684.0    1402080       0.0428       0.0000       0.0000     184.2002       0.2230       0.2176       1.0000       0.1969       0.1640
   11684.5    1402140       0.0465       0.0000       0.0000     132.0571       0.2284       0.2258       1.0000       0.2060       0.1873
   11685.0    1402200       0.0421       0.0000       0.0000      94.5284       0.2229       0.2173       1.0000       0.1937       0.1959
   11685.5    1402260       0.0393       0.0000       0.0000     113.3058       0.2114       0.2140       1.0000       0.1837       0.1842
   11686.0    1402320       0.0380       0.0000       0.0000      61.8095       0.1882       0.1932       1.0000       0.1970       0.1949
   11686.5    1402380       0.0405       0.0000       0.0000      56.1673       0.1664       0.1867       1.0000       0.2168       0.1938
   11687.0    1402440       0.0481       0.0000       0.0000      40.6985       0.1601       0.1810       1.0000       0.2658       0.2044
   11687.5    1402500       0.0518       0.0000       0.0000      56.1048       0.1714       0.1868       1.0000       0.2772       0.1939
   11688.0    1402560       0.0460       0.0000       0.0000      58.0359       0.1829       0.1941       1.0000       0.2370       0.1988
   11688.5    1402620       0.0482       0.0000       0.0000      52.4179       0.1884       0.1963       1.0000       0.2456       0.2058
   11689.0    1402680       0.0468       0.0000       0.0000      39.6997       0.1830       0.1938       1.0000       0.2413       0.2169
   11689.5    1402740       0.0480       0.0000       0.0000      20.2742       0.1771       0.1880       1.0000       0.2556       0.2441
   11690.0    1402800       0.0453       0.0000       0.0000      15.0378       0.1771       0.1852       1.0000       0.2444       0.2561
   11690.5    1402860       0.0382       0.0000       0.0000      13.2767       0.1713       0.1812       1.0000       0.2107       0.2585
   11691.0    1402920       0.0325       0.0000       0.0000      16.2932       0.1658       0.1779       1.0000       0.1826       0.2457
   11691.5    1402980       0.0267       0.0000       0.0000      28.0847       0.1600       0.1722       1.0000       0.1553       0.2143
   11692.0    1403040       0.0253       0.0000       0.0000      57.5150       0.1600       0.1694       1.0000       0.1491       0.1773
   11692.5    1403100       0.0278       0.0000       0.0000      74.3256       0.1483       0.1612       1.0000       0.1727       0.1577
   11693.0    1403160       0.0260       0.0000       0.0000      56.4955       0.1374       0.1466       1.0000       0.1772       0.1579
   11693.5    1403220       0.0262       0.0000       0.0000      46.6721       0.1200       0.1365       1.0000       0.1920       0.1581
   11694.0    1403280       0.0247       1.0000       0.0000      47.4250       0.1143       0.1291       0.0000       0.1911       0.1508
   11694.5    1403340       0.0254       1.0000       0.0000      49.9402       0.1200       0.1296       0.0000       0.1963       0.1487
   11695.0    1403400       0.0266       1.0000       0.0000      51.7417       0.1200       0.1298       0.0000       0.2051       0.1472
   11695.5    1403460       0.0269       1.0000       0.0000      44.1269       0.1143       0.1201       0.0000       0.2240       0.1463
   11696.0    1403520       0.0289       1.0000       0.0000      39.2709       0.1143       0.1233       0.0000       0.2344       0.1547
   11696.5    1403580       0.0354       0.0000       0.0000      46.7927       0.1376       0.1476       1.0000       0.2400       0.1679
   11697.0    1403640       0.0361       0.0000       0.0000      62.3372       0.1594       0.1664       1.0000       0.2172       0.1708
   11697.5    1403700       0.0330       0.0000       0.0000      90.6117       0.1714       0.1751       1.0000       0.1886       0.1604
   11698.0    1403760       0.0347       0.0000       0.0000     117.2724       0.1657       0.1734       1.0000       0.2003       0.1464
   11698.5    1403820       0.0386       0.0000       0.0000      97.6667       0.1601       0.1646       1.0000       0.2347       0.1475
   11699.0    1403880       0.0419       0.0000       0.0000      89.5763       0.1655       0.1691       1.0000       0.2478       0.1556
   11699.5    1403940       0.0480       0.0000       0.0000      77.6495       0.1882       0.1915       1.0000       0.2505       0.1824
   11700.0    1404000       0.0507       0.0000       0.0000      82.1775       0.2114       0.2093       1.0000       0.2423       0.1955
   11700.5    1404060       0.0523       0.0000       0.0000      67.6115       0.2288       0.2236       1.0000       0.2339       0.2176
   11701.0    1404120       0.0544       0.0000       0.0000      66.7563       0.2398       0.2346       1.0000       0.2321       0.2280
   11701.5    1404180       0.0548       0.0000       0.0000      57.6943       0.2344       0.2340       1.0000       0.2343       0.2346
   11702.0    1404240       0.0572       0.0000       0.0000      62.0159       0.2286       0.2351       1.0000       0.2434       0.2320
   11702.5    1404300       0.0569       0.0000       0.0000      57.8144       0.2229       0.2274       1.0000       0.2501       0.2286
   11703.0    1404360       0.0544       0.0000       0.0000      43.4740       0.2227       0.2273       1.0000       0.2391       0.2423
   11703.5    1404420       0.0553       0.0000       0.0000      45.8185       0.2173       0.2234       1.0000       0.2476       0.2362
   11704.0    1404480       0.0566       0.0000       0.0000      42.7671       0.2171       0.2267       1.0000       0.2498       0.2425
   11704.5    1404540       0.0555       0.0000       0.0000      51.8412       0.2171       0.2257       1.0000       0.2457       0.2323
   11705.0    1404600       0.0581       0.0000       0.0000      53.4607       0.2227       0.2276       1.0000       0.2554       0.2325
   11705.5    1404660       0.0552       0.0000       0.0000      57.6002       0.2173       0.2241       1.0000       0.2465       0.2258
