~VERSION INFORMATION
VERS.           2.0   :CWLS Log ASCII Standard - VERSION 2.0
WRAP.           NO    :One Line per depth step
PROD.  Schlumberger   :LAS Producer
PROG.  DLIS to ASCII 2.3                               :LAS Program name and version
CREA.        2019/03/12 22:31                          :LAS Creation date {YYYY/MM/DD hh:mm}
DLIS_CREA.  2019-Mar-12 22:09                          :DLIS Creation date and time {YYYY-MMM-DD hh:mm}
SOURCE.     LIStoDLIS.dlis                             :DLIS File Name
#--------------------------------------------------
~WELL INFORMATION
#MNEM.UNIT      DATA             DESCRIPTION
#---- ------ --------------   -----------------------------
STRT .F         3281.0       :START DEPTH     
STOP .F        12467.0       :STOP DEPTH     
STEP .F            0.5       :STEP     
NULL .          -999.25      :NULL VALUE
COMP .        StatoilHydro                             :COMPANY
WELL .        15/9-F-14                                :WELL
FLD  .        Volve                                    :FIELD
LOC  .        Norwegian North Sea                      :LOCATION
CNTY .        Maersk Inspirer                          :COUNTY
STAT .        Norway                                   :STATE
CTRY .                                                 :COUNTRY
API  .                                                 :API NUMBER
UWI  .                                                 :UNIQUE WELL ID
DATE .                                                 :LOG DATE
SRVC .        Schlumberger                             :SERVICE COMPANY
LATI .DEG     058 26' 29.769" N    DMS                 :LATITUDE
LONG .DEG     001 53' 15.079" E    DMS                 :LONGITUDE
GDAT .                                                 :GeoDetic Datum
#-----------------------------------------------------------------------------
~PARAMETER INFORMATION
#MNEM.UNIT    VALUE                      DESCRIPTION
#---- -----   --------------------       ------------------------
RUN  .                                   :RUN NUMBER
PDAT .                                   :Permanent Datum
EPD  .                                   :Elevation of Permanent Datum above Mean Sea Level
LMF  .          DF                       :Logging Measured From (Name of Logging Elevation Reference)
APD  .M          54.900002               :Elevation of Depth Reference (LMF) above Permanent Datum
#-----------------------------------------------------------------------------
~CURVE INFORMATION
#MNEM.UNIT   API CODE                                  DESCRIPTION
#---- -----  --------                                  -----------------------
DEPT .F                                                :DEPTH (BOREHOLE) {F10.1}
DEPT .M                                                : {F13.4}
DTCO .US/F                                             : {F13.4}
DTSM .US/F                                             : {F13.4}
RHOB .G/CC                                             : {F13.4}
#-----------------------------------------------------------------------------
# 
#     DEPT        DEPT         DTCO         DTSM         RHOB
#
~A  
# ...
    3598.5    1096.8228     142.8664    -999.2500    -999.2500
    3599.0    1096.9752     142.3667    -999.2500    -999.2500
    3599.5    1097.1276     142.8182    -999.2500    -999.2500
    3600.0    1097.2800     144.1409    -999.2500    -999.2500
    3600.5    1097.4324     144.9344    -999.2500    -999.2500
    3601.0    1097.5848     145.7080    -999.2500    -999.2500
    3601.5    1097.7372     145.5479    -999.2500    -999.2500
    3602.0    1097.8896     145.7279    -999.2500    -999.2500
    3602.5    1098.0420     146.2015    -999.2500    -999.2500
    3603.0    1098.1944     145.5645    -999.2500    -999.2500
    3603.5    1098.3468     146.1019    -999.2500    -999.2500
    3604.0    1098.4992     146.5881    -999.2500    -999.2500
    3604.5    1098.6516     147.2587    -999.2500    -999.2500
    3605.0    1098.8040     148.0290    -999.2500    -999.2500
    3605.5    1098.9564     147.6817    -999.2500    -999.2500
    3606.0    1099.1088     147.4811    -999.2500    -999.2500
    3606.5    1099.2612     146.8214    -999.2500    -999.2500
    3607.0    1099.4136     145.0237    -999.2500    -999.2500
    3607.5    1099.5660     143.1861    -999.2500    -999.2500
    3608.0    1099.7184     142.9363    -999.2500    -999.2500
    3608.5    1099.8708     142.5565    -999.2500    -999.2500
    3609.0    1100.0232     142.9168    -999.2500    -999.2500
    3609.5    1100.1756     143.3971    -999.2500    -999.2500
    3610.0    1100.3280     143.6015    -999.2500    -999.2500
    3610.5    1100.4804     145.0074    -999.2500    -999.2500
    3611.0    1100.6328     145.0576    -999.2500    -999.2500
    3611.5    1100.7852     145.2444    -999.2500    -999.2500
    3612.0    1100.9376     144.8774    -999.2500    -999.2500
    3612.5    1101.0900     144.8644    -999.2500    -999.2500
    3613.0    1101.2424     145.0510    -999.2500    -999.2500
    3613.5    1101.3948     145.3378    -999.2500    -999.2500
    3614.0    1101.5472     146.0952    -999.2500    -999.2500
    3614.5    1101.6996     146.7744    -999.2500    -999.2500
    3615.0    1101.8521     145.9577    -999.2500    -999.2500
    3615.5    1102.0044     145.5543    -999.2500    -999.2500
    3616.0    1102.1568     144.7937    -999.2500    -999.2500
    3616.5    1102.3092     144.2074    -999.2500    -999.2500
    3617.0    1102.4616     144.6540    -999.2500    -999.2500
    3617.5    1102.6140     145.0444    -999.2500    -999.2500
    3618.0    1102.7664     145.1510    -999.2500    -999.2500
    3618.5    1102.9188     146.9290    -999.2500    -999.2500
    3619.0    1103.0712     147.0842    -999.2500    -999.2500
    3619.5    1103.2236     146.2478    -999.2500    -999.2500
    3620.0    1103.3760     146.4048    -999.2500    -999.2500
    3620.5    1103.5284     145.2911    -999.2500    -999.2500
    3621.0    1103.6808     146.0929    -999.2500    -999.2500
    3621.5    1103.8333     147.6157    -999.2500    -999.2500
    3622.0    1103.9856     148.2290    -999.2500    -999.2500
    3622.5    1104.1380     148.0619    -999.2500    -999.2500
    3623.0    1104.2904     147.6810    -999.2500    -999.2500
    3623.5    1104.4428     146.6417    -999.2500    -999.2500
    3624.0    1104.5952     147.4455    -999.2500    -999.2500
    3624.5    1104.7476     147.3818    -999.2500    -999.2500
    3625.0    1104.9000     145.7897    -999.2500    -999.2500
    3625.5    1105.0524     144.1456    -999.2500    -999.2500
    3626.0    1105.2048     143.0631    -999.2500    -999.2500
    3626.5    1105.3572     142.9334    -999.2500    -999.2500
    3627.0    1105.5096     142.9305    -999.2500    -999.2500
    3627.5    1105.6620     143.7709    -999.2500    -999.2500
    3628.0    1105.8145     143.9872    -999.2500    -999.2500
    3628.5    1105.9668     144.6476    -999.2500    -999.2500
    3629.0    1106.1191     143.8302    -999.2500    -999.2500
    3629.5    1106.2716     145.0147    -999.2500    -999.2500
    3630.0    1106.4240     145.0576    -999.2500    -999.2500
    3630.5    1106.5764     143.8434    -999.2500    -999.2500
    3631.0    1106.7288     143.8004    -999.2500    -999.2500
    3631.5    1106.8812     142.5858    -999.2500    -999.2500
    3632.0    1107.0336     141.8892    -999.2500    -999.2500
    3632.5    1107.1860     141.6795    -999.2500    -999.2500
    3633.0    1107.3384     142.3267    -999.2500    -999.2500
    3633.5    1107.4908     144.1248    -999.2500    -999.2500
    3634.0    1107.6432     144.8418    -999.2500    -999.2500
    3634.5    1107.7957     145.7048    -999.2500    -999.2500
    3635.0    1107.9480     146.3883    -999.2500    -999.2500
    3635.5    1108.1003     145.3840    -999.2500    -999.2500
    3636.0    1108.2528     144.6941    -999.2500    -999.2500
    3636.5    1108.4052     145.0442    -999.2500    -999.2500
    3637.0    1108.5576     143.8434    -999.2500    -999.2500
    3637.5    1108.7100     142.5862    -999.2500    -999.2500
    3638.0    1108.8624     142.4497    -999.2500    -999.2500
    3638.5    1109.0148     142.2604    -999.2500    -999.2500
    3639.0    1109.1672     142.9069    -999.2500    -999.2500
    3639.5    1109.3196     144.1443    -999.2500    -999.2500
    3640.0    1109.4720     145.4954    -999.2500    -999.2500
    3640.5    1109.6244     146.7557    -999.2500    -999.2500
    3641.0    1109.7769     147.1719    -999.2500    -999.2500
    3641.5    1109.9292     145.2237    -999.2500    -999.2500
    3642.0    1110.0815     142.2589    -999.2500    -999.2500
    3642.5    1110.2340     143.6497    -999.2500    -999.2500
    3643.0    1110.3864     142.2100    -999.2500    -999.2500
    3643.5    1110.5388     143.8376    -999.2500    -999.2500
    3644.0    1110.6912     145.2981    -999.2500    -999.2500
    3644.5    1110.8436     146.0965    -999.2500    -999.2500
    3645.0    1110.9960     148.6418    -999.2500    -999.2500
    3645.5    1111.1484     147.3430    -999.2500    -999.2500
    3646.0    1111.3008     146.4532    -999.2500    -999.2500
    3646.5    1111.4532     145.9378    -999.2500    -999.2500
    3647.0    1111.6056     152.7479    -999.2500    -999.2500
    3647.5    1111.7581     155.2290    -999.2500    -999.2500
    3648.0    1111.9104     156.8027    -999.2500    -999.2500
    3648.5    1112.0627     155.1744    -999.2500    -999.2500
    3649.0    1112.2152     150.5366    -999.2500    -999.2500
    3649.5    1112.3676     148.1338    -999.2500    -999.2500
    3650.0    1112.5200     147.2148    -999.2500    -999.2500
    3650.5    1112.6724     142.5151    -999.2500    -999.2500
    3651.0    1112.8248     142.9104    -999.2500    -999.2500
    3651.5    1112.9772     143.1189    -999.2500    -999.2500
    3652.0    1113.1296     145.1783    -999.2500    -999.2500
    3652.5    1113.2820     144.5038    -999.2500    -999.2500
    3653.0    1113.4344     145.0356    -999.2500    -999.2500
    3653.5    1113.5868     140.5715    -999.2500    -999.2500
    3654.0    1113.7393     137.1468    -999.2500    -999.2500
    3654.5    1113.8916     138.0584    -999.2500    -999.2500
    3655.0    1114.0439     138.7486    -999.2500    -999.2500
    3655.5    1114.1964     144.8400    -999.2500    -999.2500
    3656.0    1114.3488     141.0449    -999.2500    -999.2500
    3656.5    1114.5012     144.2617    -999.2500    -999.2500
    3657.0    1114.6536     143.2598    -999.2500    -999.2500
    3657.5    1114.8060     142.8469    -999.2500    -999.2500
    3658.0    1114.9584     143.3951    -999.2500    -999.2500
    3658.5    1115.1108     144.8146    -999.2500    -999.2500
    3659.0    1115.2632     144.6774    -999.2500    -999.2500
    3659.5    1115.4156     145.8847    -999.2500    -999.2500
    3660.0    1115.5680     145.4606    -999.2500    -999.2500
    3660.5    1115.7205     145.0708    -999.2500    -999.2500
    3661.0    1115.8728     145.7114    -999.2500    -999.2500
    3661.5    1116.0251     145.0807    -999.2500    -999.2500
