~VERSION INFORMATION
VERS.           2.0   :CWLS Log ASCII Standard - VERSION 2.0
WRAP.           NO    :One Line per depth step
PROD.  Schlumberger   :LAS Producer
PROG.  DLIS to ASCII 2.3                               :LAS Program name and version
CREA.        2019/03/12 22:31                          :LAS Creation date {YYYY/MM/DD hh:mm}
DLIS_CREA.  2019-Mar-12 22:09                          :DLIS Creation date and time {YYYY-MMM-DD hh:mm}
SOURCE.     LIStoDLIS.dlis                             :DLIS File Name
#--------------------------------------------------
~WELL INFORMATION
#MNEM.UNIT      DATA             DESCRIPTION
#---- ------ --------------   -----------------------------
STRT .F         3281.0       :START DEPTH     
STOP .F        12467.0       :STOP DEPTH     
STEP .F            0.5       :STEP     
NULL .          -999.25      :NULL VALUE
COMP .        StatoilHydro                             :COMPANY
WELL .        15/9-F-14                                :WELL
FLD  .        Volve                                    :FIELD
LOC  .        Norwegian North Sea                      :LOCATION
CNTY .        Maersk Inspirer                          :COUNTY
STAT .        Norway                                   :STATE
CTRY .                                                 :COUNTRY
API  .                                                 :API NUMBER
UWI  .                                                 :UNIQUE WELL ID
DATE .                                                 :LOG DATE
SRVC .        Schlumberger                             :SERVICE COMPANY
LATI .DEG     058 26' 29.769" N    DMS                 :LATITUDE
LONG .DEG     001 53' 15.079" E    DMS                 :LONGITUDE
GDAT .                                                 :GeoDetic Datum
#-----------------------------------------------------------------------------
~PARAMETER INFORMATION
#MNEM.UNIT    VALUE                      DESCRIPTION
#---- -----   --------------------       ------------------------
RUN  .                                   :RUN NUMBER
PDAT .                                   :Permanent Datum
EPD  .                                   :Elevation of Permanent Datum above Mean Sea Level
LMF  .          DF                       :Logging Measured From (Name of Logging Elevation Reference)
APD  .M          54.900002               :Elevation of Depth Reference (LMF) above Permanent Datum
#-----------------------------------------------------------------------------
~CURVE INFORMATION
#MNEM.UNIT   API CODE                                  DESCRIPTION
#---- -----  --------                                  -----------------------
DEPT .F                                                :DEPTH (BOREHOLE) {F10.1}
DEPT .M                                                : {F13.4}
DTCO .US/F                                             : {F13.4}
DTSM .US/F                                             : {F13.4}
RHOB .G/CC                                             : {F13.4}
#-----------------------------------------------------------------------------
# 
#     DEPT        DEPT         DTCO         DTSM         RHOB
#
~A  
# ...
    4678.0    1425.8544     141.8692    -999.2500    -999.2500
    4678.5    1426.0068     141.4927    -999.2500    -999.2500
    4679.0    1426.1592     142.0399    -999.2500    -999.2500
    4679.5    1426.3116     143.7407    -999.2500    -999.2500
    4680.0    1426.4640     143.3327    -999.2500    -999.2500
    4680.5    1426.6165     142.5697    -999.2500    -999.2500
    4681.0    1426.7688     143.3838    -999.2500    -999.2500
    4681.5    1426.9211     142.1060    -999.2500    -999.2500
    4682.0    1427.0736     142.8081    -999.2500    -999.2500
    4682.5    1427.2260     144.4204    -999.2500    -999.2500
    4683.0    1427.3784     144.6642    -999.2500    -999.2500
    4683.5    1427.5308     144.2971    -999.2500    -999.2500
    4684.0    1427.6832     144.8449    -999.2500    -999.2500
    4684.5    1427.8356     145.7038    -999.2500    -999.2500
    4685.0    1427.9880     144.7071    -999.2500    -999.2500
    4685.5    1428.1404     144.5774    -999.2500    -999.2500
    4686.0    1428.2928     144.8541    -999.2500    -999.2500
    4686.5    1428.4452     144.4908    -999.2500    -999.2500
    4687.0    1428.5977     144.7575    -999.2500    -999.2500
    4687.5    1428.7500     143.8335    -999.2500    -999.2500
    4688.0    1428.9023     142.9598    -999.2500    -999.2500
    4688.5    1429.0548     143.3967    -999.2500    -999.2500
    4689.0    1429.2072     142.9468    -999.2500    -999.2500
    4689.5    1429.3596     141.9961    -999.2500    -999.2500
    4690.0    1429.5120     141.2158    -999.2500    -999.2500
    4690.5    1429.6644     139.1332    -999.2500    -999.2500
    4691.0    1429.8168     136.9121    -999.2500    -999.2500
    4691.5    1429.9692     135.3433    -999.2500    -999.2500
    4692.0    1430.1216     136.0376    -999.2500    -999.2500
    4692.5    1430.2740     138.2138    -999.2500    -999.2500
    4693.0    1430.4264     141.3711    -999.2500    -999.2500
    4693.5    1430.5789     142.1333    -999.2500    -999.2500
    4694.0    1430.7312     142.3432    -999.2500    -999.2500
    4694.5    1430.8835     141.8828    -999.2500    -999.2500
    4695.0    1431.0360     141.6795    -999.2500    -999.2500
    4695.5    1431.1884     141.6729    -999.2500    -999.2500
    4696.0    1431.3408     142.3267    -999.2500    -999.2500
    4696.5    1431.4932     142.3498    -999.2500    -999.2500
    4697.0    1431.6456     143.0972    -999.2500    -999.2500
    4697.5    1431.7980     143.4040    -999.2500    -999.2500
    4698.0    1431.9504     143.7872    -999.2500    -999.2500
    4698.5    1432.1028     144.4542    -999.2500    -999.2500
    4699.0    1432.2552     144.1036    -999.2500    -999.2500
    4699.5    1432.4076     143.9032    -999.2500    -999.2500
    4700.0    1432.5601     143.2433    -999.2500    -999.2500
    4700.5    1432.7124     142.9400    -999.2500    -999.2500
    4701.0    1432.8647     142.7433    -999.2500    -999.2500
    4701.5    1433.0172     142.5498    -999.2500    -999.2500
    4702.0    1433.1696     142.5432    -999.2500    -999.2500
    4702.5    1433.3220     141.8894    -999.2500    -999.2500
    4703.0    1433.4744     141.3059    -999.2500    -999.2500
    4703.5    1433.6268     141.7531    -999.2500    -999.2500
    4704.0    1433.7792     141.7698    -999.2500    -999.2500
    4704.5    1433.9316     141.9564    -999.2500    -999.2500
    4705.0    1434.0840     142.1498    -999.2500    -999.2500
    4705.5    1434.2364     142.5300    -999.2500    -999.2500
    4706.0    1434.3888     142.5430    -999.2500    -999.2500
    4706.5    1434.5413     142.2630    -999.2500    -999.2500
    4707.0    1434.6936     141.8795    -999.2500    -999.2500
    4707.5    1434.8459     141.3059    -999.2500    -999.2500
    4708.0    1434.9984     141.2862    -999.2500    -999.2500
    4708.5    1435.1508     141.4721    -999.2500    -999.2500
    4709.0    1435.3032     140.7323    -999.2500    -999.2500
    4709.5    1435.4556     140.8926    -999.2500    -999.2500
    4710.0    1435.6080     141.2731    -999.2500    -999.2500
    4710.5    1435.7604     141.6600    -999.2500    -999.2500
    4711.0    1435.9128     142.0465    -999.2500    -999.2500
    4711.5    1436.0652     141.2191    -999.2500    -999.2500
    4712.0    1436.2176     141.6563    -999.2500    -999.2500
    4712.5    1436.3700     141.4852    -999.2500    -999.2500
    4713.0    1436.5224     140.4525    -999.2500    -999.2500
    4713.5    1436.6748     139.7619    -999.2500    -999.2500
    4714.0    1436.8271     139.5520    -999.2500    -999.2500
    4714.5    1436.9796     140.1060    -999.2500    -999.2500
    4715.0    1437.1320     140.4060    -999.2500    -999.2500
    4715.5    1437.2844     140.6025    -999.2500    -999.2500
    4716.0    1437.4368     141.0761    -999.2500    -999.2500
    4716.5    1437.5892     140.8126    -999.2500    -999.2500
    4717.0    1437.7416     141.0822    -999.2500    -999.2500
    4717.5    1437.8940     140.4389    -999.2500    -999.2500
    4718.0    1438.0464     140.2289    -999.2500    -999.2500
    4718.5    1438.1988     139.5691    -999.2500    -999.2500
    4719.0    1438.3512     140.7598    -999.2500    -999.2500
    4719.5    1438.5036     140.9893    -999.2500    -999.2500
    4720.0    1438.6560     139.4082    -999.2500    -999.2500
    4720.5    1438.8083     139.3520    -999.2500    -999.2500
    4721.0    1438.9608     139.1644    -999.2500    -999.2500
    4721.5    1439.1132     138.1322    -999.2500    -999.2500
    4722.0    1439.2656     139.1222    -999.2500    -999.2500
    4722.5    1439.4180     138.6916    -999.2500    -999.2500
    4723.0    1439.5704     138.3024    -999.2500    -999.2500
    4723.5    1439.7228     139.9683    -999.2500    -999.2500
    4724.0    1439.8752     138.8147    -999.2500    -999.2500
    4724.5    1440.0276     138.7718    -999.2500    -999.2500
    4725.0    1440.1800     138.5847    -999.2500    -999.2500
    4725.5    1440.3324     138.1111    -999.2500    -999.2500
    4726.0    1440.4848     137.8147    -999.2500    -999.2500
    4726.5    1440.6372     138.4585    -999.2500    -999.2500
    4727.0    1440.7896     139.6958    -999.2500    -999.2500
    4727.5    1440.9420     138.3376    -999.2500    -999.2500
    4728.0    1441.0944     138.1011    -999.2500    -999.2500
    4728.5    1441.2468     137.8146    -999.2500    -999.2500
    4729.0    1441.3992     137.2443    -999.2500    -999.2500
    4729.5    1441.5516     138.6260    -999.2500    -999.2500
    4730.0    1441.7040     139.6104    -999.2500    -999.2500
    4730.5    1441.8564     141.0431    -999.2500    -999.2500
    4731.0    1442.0088     140.6257    -999.2500    -999.2500
    4731.5    1442.1612     140.0488    -999.2500    -999.2500
    4732.0    1442.3136     140.1220    -999.2500    -999.2500
    4732.5    1442.4660     139.7522    -999.2500    -999.2500
    4733.0    1442.6184     139.0850    -999.2500    -999.2500
    4733.5    1442.7708     138.3147    -999.2500    -999.2500
    4734.0    1442.9232     138.6623    -999.2500    -999.2500
    4734.5    1443.0756     139.3291    -999.2500    -999.2500
    4735.0    1443.2280     139.5388    -999.2500    -999.2500
    4735.5    1443.3804     139.5454    -999.2500    -999.2500
    4736.0    1443.5328     139.9195    -999.2500    -999.2500
    4736.5    1443.6852     140.7714    -999.2500    -999.2500
    4737.0    1443.8376     139.2148    -999.2500    -999.2500
    4737.5    1443.9900     138.8784    -999.2500    -999.2500
    4738.0    1444.1424     139.1485    -999.2500    -999.2500
    4738.5    1444.2948     138.8783    -999.2500    -999.2500
    4739.0    1444.4472     138.7751    -999.2500    -999.2500
    4739.5    1444.5996     138.3047    -999.2500    -999.2500
    4740.0    1444.7520     137.6344    -999.2500    -999.2500
    4740.5    1444.9044     139.9469    -999.2500    -999.2500
    4741.0    1445.0568     140.8687    -999.2500    -999.2500
