~VERSION INFORMATION
VERS.           2.0   :CWLS Log ASCII Standard - VERSION 2.0
WRAP.           NO    :One Line per depth step
PROD.  Schlumberger   :LAS Producer
PROG.  DLIS to ASCII 2.3                               :LAS Program name and version
CREA.        2019/03/12 22:31                          :LAS Creation date {YYYY/MM/DD hh:mm}
DLIS_CREA.  2019-Mar-12 22:09                          :DLIS Creation date and time {YYYY-MMM-DD hh:mm}
SOURCE.     LIStoDLIS.dlis                             :DLIS File Name
#--------------------------------------------------
~WELL INFORMATION
#MNEM.UNIT      DATA             DESCRIPTION
#---- ------ --------------   -----------------------------
STRT .F         3281.0       :START DEPTH     
STOP .F        12467.0       :STOP DEPTH     
STEP .F            0.5       :STEP     
NULL .          -999.25      :NULL VALUE
COMP .        StatoilHydro                             :COMPANY
WELL .        15/9-F-14                                :WELL
FLD  .        Volve                                    :FIELD
LOC  .        Norwegian North Sea                      :LOCATION
CNTY .        Maersk Inspirer                          :COUNTY
STAT .        Norway                                   :STATE
CTRY .                                                 :COUNTRY
API  .                                                 :API NUMBER
UWI  .                                                 :UNIQUE WELL ID
DATE .                                                 :LOG DATE
SRVC .        Schlumberger                             :SERVICE COMPANY
LATI .DEG     058 26' 29.769" N    DMS                 :LATITUDE
LONG .DEG     001 53' 15.079" E    DMS                 :LONGITUDE
GDAT .                                                 :GeoDetic Datum
#-----------------------------------------------------------------------------
~PARAMETER INFORMATION
#MNEM.UNIT    VALUE                      DESCRIPTION
#---- -----   --------------------       ------------------------
RUN  .                                   :RUN NUMBER
PDAT .                                   :Permanent Datum
EPD  .                                   :Elevation of Permanent Datum above Mean Sea Level
LMF  .          DF                       :Logging Measured From (Name of Logging Elevation Reference)
APD  .M          54.900002               :Elevation of Depth Reference (LMF) above Permanent Datum
#-----------------------------------------------------------------------------
~CURVE INFORMATION
#MNEM.UNIT   API CODE                                  DESCRIPTION
#---- -----  --------                                  -----------------------
DEPT .F                                                :DEPTH (BOREHOLE) {F10.1}
DEPT .M                                                : {F13.4}
DTCO .US/F                                             : {F13.4}
DTSM .US/F                                             : {F13.4}
RHOB .G/CC                                             : {F13.4}
#-----------------------------------------------------------------------------
# 
#     DEPT        DEPT         DTCO         DTSM         RHOB
#
~A  
# ...
   10520.0    3206.4960      79.3678     140.6648       2.2676
   10520.5    3206.6484      77.8095     139.7191       2.2798
   10521.0    3206.8008      77.2510     136.0011       2.2942
   10521.5    3206.9532      79.1263     133.6438       2.3072
   10522.0    3207.1056      80.7253     133.9817       2.3136
   10522.5    3207.2580      83.7204     136.9420       2.3190
   10523.0    3207.4104      84.6703     140.9327       2.3325
   10523.5    3207.5628      84.5092     143.9017       2.3434
   10524.0    3207.7152      82.4624     145.4431       2.3645
   10524.5    3207.8676      79.7775     145.9201       2.3795
   10525.0    3208.0200      78.9487     145.7043       2.3993
   10525.5    3208.1724      77.8921     140.9706       2.4045
   10526.0    3208.3248      77.3691     138.1780       2.4120
   10526.5    3208.4772      77.0479     135.6951       2.4163
   10527.0    3208.6296      75.2478     132.7660       2.4281
   10527.5    3208.7820      74.2634     128.9343       2.4321
   10528.0    3208.9344      76.7788     126.2983       2.4393
   10528.5    3209.0868      80.2791     125.8906       2.4418
   10529.0    3209.2393      81.4470     123.5709       2.4449
   10529.5    3209.3916      80.0148     123.3261       2.4438
   10530.0    3209.5439      77.1313     123.5876       2.4550
   10530.5    3209.6964      76.9009     122.0951       2.4606
   10531.0    3209.8488      77.0737     122.6608       2.4735
   10531.5    3210.0012      76.1572     124.9505       2.4799
   10532.0    3210.1536      72.9985     128.0375       2.4921
   10532.5    3210.3060      70.8823    -999.2500       2.4941
   10533.0    3210.4584      70.3636    -999.2500       2.5063
   10533.5    3210.6108      72.4906    -999.2500       2.5077
   10534.0    3210.7632      77.4322    -999.2500       2.5234
   10534.5    3210.9156      76.0776    -999.2500       2.5211
   10535.0    3211.0680      74.5505    -999.2500       2.5317
   10535.5    3211.2204      73.1105    -999.2500       2.5355
   10536.0    3211.3728      74.3000    -999.2500       2.5397
   10536.5    3211.5252      78.2857    -999.2500       2.5395
   10537.0    3211.6776      80.9521    -999.2500       2.5269
   10537.5    3211.8300      82.1342    -999.2500       2.5179
   10538.0    3211.9824      81.8387    -999.2500       2.5149
   10538.5    3212.1348      81.2492    -999.2500       2.5080
   10539.0    3212.2872      82.3737    -999.2500       2.4976
   10539.5    3212.4396      84.6295    -999.2500       2.4781
   10540.0    3212.5920      86.2225    -999.2500       2.4730
   10540.5    3212.7444      85.9855    -999.2500       2.4655
   10541.0    3212.8968      86.6581    -999.2500       2.4682
   10541.5    3213.0492      86.8979    -999.2500       2.4616
   10542.0    3213.2016      86.4513    -999.2500       2.4561
   10542.5    3213.3540      84.8820    -999.2500       2.4372
   10543.0    3213.5063      83.8780    -999.2500       2.4193
   10543.5    3213.6588      83.0623    -999.2500       2.4058
   10544.0    3213.8112      83.1563    -999.2500       2.3883
   10544.5    3213.9636      86.8926    -999.2500       2.3767
   10545.0    3214.1160      89.0405    -999.2500       2.3671
   10545.5    3214.2684      90.8953    -999.2500       2.3626
   10546.0    3214.4208      90.4878    -999.2500       2.3552
   10546.5    3214.5732      92.1174    -999.2500       2.3489
   10547.0    3214.7256      89.6897    -999.2500       2.3551
   10547.5    3214.8780      87.2380    -999.2500       2.3657
   10548.0    3215.0304      87.3409    -999.2500       2.3766
   10548.5    3215.1828      89.9428    -999.2500       2.3834
   10549.0    3215.3352      92.2575    -999.2500       2.3786
   10549.5    3215.4876      92.2232    -999.2500       2.3728
   10550.0    3215.6400      88.4964    -999.2500       2.3638
   10550.5    3215.7924      83.7255    -999.2500       2.3653
   10551.0    3215.9448      82.3766    -999.2500       2.3660
   10551.5    3216.0972      82.6714    -999.2500       2.3731
   10552.0    3216.2496      85.4563    -999.2500       2.3827
   10552.5    3216.4020      83.3778    -999.2500       2.3935
   10553.0    3216.5544      79.6926    -999.2500       2.4077
   10553.5    3216.7068      73.7926    -999.2500       2.4193
   10554.0    3216.8592      73.3686    -999.2500       2.4439
   10554.5    3217.0116      74.4168    -999.2500       2.4778
   10555.0    3217.1640      73.8649    -999.2500       2.5143
   10555.5    3217.3164      72.3831    -999.2500       2.5298
   10556.0    3217.4688      72.4279    -999.2500       2.5232
   10556.5    3217.6212      72.9895    -999.2500       2.5100
   10557.0    3217.7736      75.5920    -999.2500       2.4957
   10557.5    3217.9260      78.3650    -999.2500       2.4868
   10558.0    3218.0784      80.2311    -999.2500       2.4835
   10558.5    3218.2308      80.3141    -999.2500       2.4803
   10559.0    3218.3832      80.9603    -999.2500       2.4822
   10559.5    3218.5356      80.1900    -999.2500       2.4769
   10560.0    3218.6880      79.0717    -999.2500       2.4740
   10560.5    3218.8404      76.5227    -999.2500       2.4746
   10561.0    3218.9928      76.7189    -999.2500       2.4801
   10561.5    3219.1452      76.1244    -999.2500       2.4897
   10562.0    3219.2976      73.9085    -999.2500       2.5068
   10562.5    3219.4500      72.0086    -999.2500       2.5311
   10563.0    3219.6024      71.8301    -999.2500       2.5559
   10563.5    3219.7548      70.1328    -999.2500       2.5777
   10564.0    3219.9072      63.6249    -999.2500       2.5859
   10564.5    3220.0596      64.5585    -999.2500       2.5925
   10565.0    3220.2120      63.2627    -999.2500       2.5756
   10565.5    3220.3644      66.2571    -999.2500       2.5493
   10566.0    3220.5168      79.0025    -999.2500       2.5129
   10566.5    3220.6692      80.0164    -999.2500       2.4787
   10567.0    3220.8216      80.6813    -999.2500       2.4670
   10567.5    3220.9740      80.4599    -999.2500       2.4647
   10568.0    3221.1264      77.2566    -999.2500       2.4757
   10568.5    3221.2788      73.2120    -999.2500       2.4582
   10569.0    3221.4312      82.8097    -999.2500       2.4136
   10569.5    3221.5836      90.4771    -999.2500       2.3628
   10570.0    3221.7360      74.9208    -999.2500       2.3468
   10570.5    3221.8884      73.6621    -999.2500       2.3681
   10571.0    3222.0408      75.4131    -999.2500       2.4014
   10571.5    3222.1932      78.2033    -999.2500       2.4161
   10572.0    3222.3456      80.9049    -999.2500       2.4061
   10572.5    3222.4980      82.3590    -999.2500       2.3889
   10573.0    3222.6504      80.4205    -999.2500       2.3882
   10573.5    3222.8028      77.8566    -999.2500       2.4012
   10574.0    3222.9552      79.3860    -999.2500       2.4285
   10574.5    3223.1076      80.9170    -999.2500       2.4317
   10575.0    3223.2600      82.0294    -999.2500       2.4065
   10575.5    3223.4124      87.8896    -999.2500       2.3578
   10576.0    3223.5648      92.1837    -999.2500       2.3132
   10576.5    3223.7172      97.6186    -999.2500       2.2855
   10577.0    3223.8696     101.0721    -999.2500       2.2723
   10577.5    3224.0220     100.7449    -999.2500       2.2755
   10578.0    3224.1744     102.2581    -999.2500       2.2851
   10578.5    3224.3268     104.7306    -999.2500       2.2964
   10579.0    3224.4792     103.4980    -999.2500       2.2958
   10579.5    3224.6316     102.5970    -999.2500       2.2918
   10580.0    3224.7840     106.3057    -999.2500       2.2778
   10580.5    3224.9364     103.7772    -999.2500       2.2671
   10581.0    3225.0888      95.0794    -999.2500       2.2625
   10581.5    3225.2412      93.2376    -999.2500       2.2705
   10582.0    3225.3936      91.4615    -999.2500       2.2948
   10582.5    3225.5460      89.5415    -999.2500       2.3139
   10583.0    3225.6984      86.8062    -999.2500       2.3402
