~VERSION INFORMATION
VERS.           2.0   :CWLS Log ASCII Standard - VERSION 2.0
WRAP.           NO    :One Line per depth step
PROD.  Schlumberger   :LAS Producer
PROG.  DLIS to ASCII 2.3                               :LAS Program name and version
CREA.        2019/03/12 22:31                          :LAS Creation date {YYYY/MM/DD hh:mm}
DLIS_CREA.  2019-Mar-12 22:09                          :DLIS Creation date and time {YYYY-MMM-DD hh:mm}
SOURCE.     LIStoDLIS.dlis                             :DLIS File Name
#--------------------------------------------------
~WELL INFORMATION
#MNEM.UNIT      DATA             DESCRIPTION
#---- ------ --------------   -----------------------------
STRT .F         3281.0       :START DEPTH     
STOP .F        12467.0       :STOP DEPTH     
STEP .F            0.5       :STEP     
NULL .          -999.25      :NULL VALUE
COMP .        StatoilHydro                             :COMPANY
WELL .        15/9-F-14                                :WELL
FLD  .        Volve                                    :FIELD
LOC  .        Norwegian North Sea                      :LOCATION
CNTY .        Maersk Inspirer                          :COUNTY
STAT .        Norway                                   :STATE
CTRY .                                                 :COUNTRY
API  .                                                 :API NUMBER
UWI  .                                                 :UNIQUE WELL ID
DATE .                                                 :LOG DATE
SRVC .        Schlumberger                             :SERVICE COMPANY
LATI .DEG     058 26' 29.769" N    DMS                 :LATITUDE
LONG .DEG     001 53' 15.079" E    DMS                 :LONGITUDE
GDAT .                                                 :GeoDetic Datum
#-----------------------------------------------------------------------------
~PARAMETER INFORMATION
#MNEM.UNIT    VALUE                      DESCRIPTION
#---- -----   --------------------       ------------------------
RUN  .                                   :RUN NUMBER
PDAT .                                   :Permanent Datum
EPD  .                                   :Elevation of Permanent Datum above Mean Sea Level
LMF  .          DF                       :Logging Measured From (Name of Logging Elevation Reference)
APD  .M          54.900002               :Elevation of Depth Reference (LMF) above Permanent Datum
#-----------------------------------------------------------------------------
~CURVE INFORMATION
#MNEM.UNIT   API CODE                                  DESCRIPTION
#---- -----  --------                                  -----------------------
DEPT .F                                                :DEPTH (BOREHOLE) {F10.1}
DEPT .M                                                : {F13.4}
DTCO .US/F                                             : {F13.4}
DTSM .US/F                                             : {F13.4}
RHOB .G/CC                                             : {F13.4}
#-----------------------------------------------------------------------------
# 
#     DEPT        DEPT         DTCO         DTSM         RHOB
#
~A  
# ...
    6392.5    1948.4340     137.5442    -999.2500    -999.2500
    6393.0    1948.5864     137.9849    -999.2500    -999.2500
    6393.5    1948.7388     138.4651    -999.2500    -999.2500
    6394.0    1948.8912     139.4153    -999.2500    -999.2500
    6394.5    1949.0436     138.8887    -999.2500    -999.2500
    6395.0    1949.1960     139.3354    -999.2500    -999.2500
    6395.5    1949.3484     139.8190    -999.2500    -999.2500
    6396.0    1949.5008     137.5008    -999.2500    -999.2500
    6396.5    1949.6532     138.2599    -999.2500    -999.2500
    6397.0    1949.8056     140.0620    -999.2500    -999.2500
    6397.5    1949.9580     138.1642    -999.2500    -999.2500
    6398.0    1950.1104     137.6278    -999.2500    -999.2500
    6398.5    1950.2628     138.0779    -999.2500    -999.2500
    6399.0    1950.4152     137.5347    -999.2500    -999.2500
    6399.5    1950.5676     137.5146    -999.2500    -999.2500
    6400.0    1950.7200     138.4486    -999.2500    -999.2500
    6400.5    1950.8724     137.4549    -999.2500    -999.2500
    6401.0    1951.0248     138.6323    -999.2500    -999.2500
    6401.5    1951.1772     138.8618    -999.2500    -999.2500
    6402.0    1951.3296     140.1761    -999.2500    -999.2500
    6402.5    1951.4820     140.2219    -999.2500    -999.2500
    6403.0    1951.6344     139.1939    -999.2500    -999.2500
    6403.5    1951.7868     137.9449    -999.2500    -999.2500
    6404.0    1951.9392     139.3024    -999.2500    -999.2500
    6404.5    1952.0916     142.6210    -999.2500    -999.2500
    6405.0    1952.2440     141.3733    -999.2500    -999.2500
    6405.5    1952.3964     141.6422    -999.2500    -999.2500
    6406.0    1952.5488     140.2900    -999.2500    -999.2500
    6406.5    1952.7012     140.1857    -999.2500    -999.2500
    6407.0    1952.8536     139.3827    -999.2500    -999.2500
    6407.5    1953.0060     143.4547    -999.2500    -999.2500
    6408.0    1953.1584     136.0416    -999.2500    -999.2500
    6408.5    1953.3108     137.8287    -999.2500    -999.2500
    6409.0    1953.4632     136.2197    -999.2500    -999.2500
    6409.5    1953.6156     134.9479    -999.2500    -999.2500
    6410.0    1953.7680     136.6774    -999.2500    -999.2500
    6410.5    1953.9204     137.2079    -999.2500    -999.2500
    6411.0    1954.0728     137.5981    -999.2500    -999.2500
    6411.5    1954.2252     137.6104    -999.2500    -999.2500
    6412.0    1954.3776     136.2088    -999.2500    -999.2500
    6412.5    1954.5300     134.7597    -999.2500    -999.2500
    6413.0    1954.6824     135.9243    -999.2500    -999.2500
    6413.5    1954.8348     141.1022    -999.2500    -999.2500
    6414.0    1954.9872     137.3615    -999.2500    -999.2500
    6414.5    1955.1396     135.4499    -999.2500    -999.2500
    6415.0    1955.2920     133.3323    -999.2500    -999.2500
    6415.5    1955.4444     137.4640    -999.2500    -999.2500
    6416.0    1955.5968     140.9700    -999.2500    -999.2500
    6416.5    1955.7492     136.3313    -999.2500    -999.2500
    6417.0    1955.9016     134.8531    -999.2500    -999.2500
    6417.5    1956.0540     135.9742    -999.2500    -999.2500
    6418.0    1956.2064     138.9551    -999.2500    -999.2500
    6418.5    1956.3588     135.2316    -999.2500    -999.2500
    6419.0    1956.5112     134.4431    -999.2500    -999.2500
    6419.5    1956.6636     133.8596    -999.2500    -999.2500
    6420.0    1956.8160     135.0556    -999.2500    -999.2500
    6420.5    1956.9684     137.9932    -999.2500    -999.2500
    6421.0    1957.1208     138.9354    -999.2500    -999.2500
    6421.5    1957.2732     140.0859    -999.2500    -999.2500
    6422.0    1957.4256     137.3223    -999.2500    -999.2500
    6422.5    1957.5780     134.1419    -999.2500    -999.2500
    6423.0    1957.7304     133.6598    -999.2500    -999.2500
    6423.5    1957.8828     135.8880    -999.2500    -999.2500
    6424.0    1958.0352     138.3957    -999.2500    -999.2500
    6424.5    1958.1876     136.2403    -999.2500    -999.2500
    6425.0    1958.3400     136.7202    -999.2500    -999.2500
    6425.5    1958.4924     135.8069    -999.2500    -999.2500
    6426.0    1958.6448     135.4937    -999.2500    -999.2500
    6426.5    1958.7972     133.8948    -999.2500    -999.2500
    6427.0    1958.9496     131.6914    -999.2500    -999.2500
    6427.5    1959.1021     131.4288    -999.2500    -999.2500
    6428.0    1959.2544     135.5317    -999.2500    -999.2500
    6428.5    1959.4068     137.6384    -999.2500    -999.2500
    6429.0    1959.5592     137.2403    -999.2500    -999.2500
    6429.5    1959.7116     136.2909    -999.2500    -999.2500
    6430.0    1959.8640     134.2960    -999.2500    -999.2500
    6430.5    1960.0164     132.1718    -999.2500    -999.2500
    6431.0    1960.1688     132.6611    -999.2500    -999.2500
    6431.5    1960.3212     135.1984    -999.2500    -999.2500
    6432.0    1960.4736     132.5818    -999.2500    -999.2500
    6432.5    1960.6260     132.4859    -999.2500    -999.2500
    6433.0    1960.7784     132.4398    -999.2500    -999.2500
    6433.5    1960.9308     133.5118    -999.2500    -999.2500
    6434.0    1961.0833     133.6431    -999.2500    -999.2500
    6434.5    1961.2356     135.7012    -999.2500    -999.2500
    6435.0    1961.3880     137.5485    -999.2500    -999.2500
    6435.5    1961.5404     137.5180    -999.2500    -999.2500
    6436.0    1961.6928     137.6079    -999.2500    -999.2500
    6436.5    1961.8452     138.5453    -999.2500    -999.2500
    6437.0    1961.9976     138.6717    -999.2500    -999.2500
    6437.5    1962.1500     137.4593    -999.2500    -999.2500
    6438.0    1962.3024     134.9869    -999.2500    -999.2500
    6438.5    1962.4548     132.4752    -999.2500    -999.2500
    6439.0    1962.6072     132.4826    -999.2500    -999.2500
    6439.5    1962.7596     130.4317    -999.2500    -999.2500
    6440.0    1962.9120     131.4794    -999.2500    -999.2500
    6440.5    1963.0645     131.7057    -999.2500    -999.2500
    6441.0    1963.2168     134.9813    -999.2500    -999.2500
    6441.5    1963.3691     133.6026    -999.2500    -999.2500
    6442.0    1963.5216     132.3372    -999.2500    -999.2500
    6442.5    1963.6740     134.6264    -999.2500    -999.2500
    6443.0    1963.8264     136.2979    -999.2500    -999.2500
    6443.5    1963.9788     135.9805    -999.2500    -999.2500
    6444.0    1964.1312     135.2229    -999.2500    -999.2500
    6444.5    1964.2836     139.6758    -999.2500    -999.2500
    6445.0    1964.4360     138.6213    -999.2500    -999.2500
    6445.5    1964.5884     138.7651    -999.2500    -999.2500
    6446.0    1964.7408     136.6220    -999.2500    -999.2500
    6446.5    1964.8932     133.5555    -999.2500    -999.2500
    6447.0    1965.0457     129.9038    -999.2500    -999.2500
    6447.5    1965.1980     131.5528    -999.2500    -999.2500
    6448.0    1965.3503     133.3902    -999.2500    -999.2500
    6448.5    1965.5028     139.4336    -999.2500    -999.2500
    6449.0    1965.6552     143.4695    -999.2500    -999.2500
    6449.5    1965.8076     141.7390    -999.2500    -999.2500
    6450.0    1965.9600     141.0658    -999.2500    -999.2500
    6450.5    1966.1124     142.3055    -999.2500    -999.2500
    6451.0    1966.2648     142.7647    -999.2500    -999.2500
    6451.5    1966.4172     137.3002    -999.2500    -999.2500
    6452.0    1966.5696     133.5898    -999.2500    -999.2500
    6452.5    1966.7220     133.2676    -999.2500    -999.2500
    6453.0    1966.8744     135.2222    -999.2500    -999.2500
    6453.5    1967.0269     136.6913    -999.2500    -999.2500
    6454.0    1967.1792     135.6201    -999.2500    -999.2500
    6454.5    1967.3315     136.1409    -999.2500    -999.2500
    6455.0    1967.4840     133.2650    -999.2500    -999.2500
    6455.5    1967.6364     132.7895    -999.2500    -999.2500
