~VERSION INFORMATION
VERS.           2.0   :CWLS Log ASCII Standard - VERSION 2.0
WRAP.           NO    :One Line per depth step
PROD.  Schlumberger   :LAS Producer
PROG.  DLIS to ASCII 2.3                               :LAS Program name and version
CREA.        2019/03/12 22:31                          :LAS Creation date {YYYY/MM/DD hh:mm}
DLIS_CREA.  2019-Mar-12 22:09                          :DLIS Creation date and time {YYYY-MMM-DD hh:mm}
SOURCE.     LIStoDLIS.dlis                             :DLIS File Name
#--------------------------------------------------
~WELL INFORMATION
#MNEM.UNIT      DATA             DESCRIPTION
#---- ------ --------------   -----------------------------
STRT .F         3281.0       :START DEPTH     
STOP .F        12467.0       :STOP DEPTH     
STEP .F            0.5       :STEP     
NULL .          -999.25      :NULL VALUE
COMP .        StatoilHydro                             :COMPANY
WELL .        15/9-F-14                                :WELL
FLD  .        Volve                                    :FIELD
LOC  .        Norwegian North Sea                      :LOCATION
CNTY .        Maersk Inspirer                          :COUNTY
STAT .        Norway                                   :STATE
CTRY .                                                 :COUNTRY
API  .                                                 :API NUMBER
UWI  .                                                 :UNIQUE WELL ID
DATE .                                                 :LOG DATE
SRVC .        Schlumberger                             :SERVICE COMPANY
LATI .DEG     058 26' 29.769" N    DMS                 :LATITUDE
LONG .DEG     001 53' 15.079" E    DMS                 :LONGITUDE
GDAT .                                                 :GeoDetic Datum
#-----------------------------------------------------------------------------
~PARAMETER INFORMATION
#MNEM.UNIT    VALUE                      DESCRIPTION
#---- -----   --------------------       ------------------------
RUN  .                                   :RUN NUMBER
PDAT .                                   :Permanent Datum
EPD  .                                   :Elevation of Permanent Datum above Mean Sea Level
LMF  .          DF                       :Logging Measured From (Name of Logging Elevation Reference)
APD  .M          54.900002               :Elevation of Depth Reference (LMF) above Permanent Datum
#-----------------------------------------------------------------------------
~CURVE INFORMATION
#MNEM.UNIT   API CODE                                  DESCRIPTION
#---- -----  --------                                  -----------------------
DEPT .F                                                :DEPTH (BOREHOLE) {F10.1}
DEPT .M                                                : {F13.4}
DTCO .US/F                                             : {F13.4}
DTSM .US/F                                             : {F13.4}
RHOB .G/CC                                             : {F13.4}
#-----------------------------------------------------------------------------
# 
#     DEPT        DEPT         DTCO         DTSM         RHOB
#
~A  
# ...
    6900.5    2103.2724     135.7270    -999.2500    -999.2500
    6901.0    2103.4248     138.3891    -999.2500    -999.2500
    6901.5    2103.5771     140.9100    -999.2500    -999.2500
    6902.0    2103.7296     142.1175    -999.2500    -999.2500
    6902.5    2103.8820     143.1849    -999.2500    -999.2500
    6903.0    2104.0344     144.1542    -999.2500    -999.2500
    6903.5    2104.1868     144.1835    -999.2500    -999.2500
    6904.0    2104.3392     142.1315    -999.2500    -999.2500
    6904.5    2104.4916     141.6864    -999.2500    -999.2500
    6905.0    2104.6440     141.8597    -999.2500    -999.2500
    6905.5    2104.7964     142.8937    -999.2500    -999.2500
    6906.0    2104.9488     143.5834    -999.2500    -999.2500
    6906.5    2105.1012     142.5797    -999.2500    -999.2500
    6907.0    2105.2536     142.7294    -999.2500    -999.2500
    6907.5    2105.4060     142.1765    -999.2500    -999.2500
    6908.0    2105.5584     142.3449    -999.2500    -999.2500
    6908.5    2105.7108     143.1897    -999.2500    -999.2500
    6909.0    2105.8632     143.5936    -999.2500    -999.2500
    6909.5    2106.0156     142.5796    -999.2500    -999.2500
    6910.0    2106.1680     142.9168    -999.2500    -999.2500
    6910.5    2106.3204     143.5833    -999.2500    -999.2500
    6911.0    2106.4728     142.5796    -999.2500    -999.2500
    6911.5    2106.6252     142.5441    -999.2500    -999.2500
    6912.0    2106.7776     143.1987    -999.2500    -999.2500
    6912.5    2106.9300     144.1546    -999.2500    -999.2500
    6913.0    2107.0824     144.3739    -999.2500    -999.2500
    6913.5    2107.2348     144.4740    -999.2500    -999.2500
    6914.0    2107.3872     144.6642    -999.2500    -999.2500
    6914.5    2107.5396     145.3246    -999.2500    -999.2500
    6915.0    2107.6920     144.3192    -999.2500    -999.2500
    6915.5    2107.8444     142.7909    -999.2500    -999.2500
    6916.0    2107.9968     144.0436    -999.2500    -999.2500
    6916.5    2108.1492     143.6241    -999.2500    -999.2500
    6917.0    2108.3016     143.9812    -999.2500    -999.2500
    6917.5    2108.4540     144.2738    -999.2500    -999.2500
    6918.0    2108.6064     142.9763    -999.2500    -999.2500
    6918.5    2108.7588     142.4630    -999.2500    -999.2500
    6919.0    2108.9112     141.8864    -999.2500    -999.2500
    6919.5    2109.0636     142.5205    -999.2500    -999.2500
    6920.0    2109.2160     143.0099    -999.2500    -999.2500
    6920.5    2109.3684     142.7479    -999.2500    -999.2500
    6921.0    2109.5208     143.5760    -999.2500    -999.2500
    6921.5    2109.6732     142.9538    -999.2500    -999.2500
    6922.0    2109.8256     142.7434    -999.2500    -999.2500
    6922.5    2109.9780     143.3905    -999.2500    -999.2500
    6923.0    2110.1304     142.9466    -999.2500    -999.2500
    6923.5    2110.2828     142.9302    -999.2500    -999.2500
    6924.0    2110.4352     143.1167    -999.2500    -999.2500
    6924.5    2110.5876     142.9335    -999.2500    -999.2500
    6925.0    2110.7400     140.5036    -999.2500    -999.2500
    6925.5    2110.8924     141.6334    -999.2500    -999.2500
    6926.0    2111.0448     143.3527    -999.2500    -999.2500
    6926.5    2111.1972     142.0132    -999.2500    -999.2500
    6927.0    2111.3496     141.6828    -999.2500    -999.2500
    6927.5    2111.5020     143.5409    -999.2500    -999.2500
    6928.0    2111.6544     143.9810    -999.2500    -999.2500
    6928.5    2111.8068     144.6459    -999.2500    -999.2500
    6929.0    2111.9592     142.9889    -999.2500    -999.2500
    6929.5    2112.1116     142.5558    -999.2500    -999.2500
    6930.0    2112.2640     142.1696    -999.2500    -999.2500
    6930.5    2112.4164     142.1564    -999.2500    -999.2500
    6931.0    2112.5688     141.9696    -999.2500    -999.2500
    6931.5    2112.7212     142.8970    -999.2500    -999.2500
    6932.0    2112.8736     142.7428    -999.2500    -999.2500
    6932.5    2113.0260     141.7091    -999.2500    -999.2500
    6933.0    2113.1784     141.4861    -999.2500    -999.2500
    6933.5    2113.3308     141.4779    -999.2500    -999.2500
    6934.0    2113.4832     140.4485    -999.2500    -999.2500
    6934.5    2113.6356     138.5495    -999.2500    -999.2500
    6935.0    2113.7880     138.7617    -999.2500    -999.2500
    6935.5    2113.9404     143.1615    -999.2500    -999.2500
    6936.0    2114.0928     137.3393    -999.2500    -999.2500
    6936.5    2114.2452     141.3316    -999.2500    -999.2500
    6937.0    2114.3976     142.8796    -999.2500    -999.2500
    6937.5    2114.5500     141.9048    -999.2500    -999.2500
    6938.0    2114.7024     143.5479    -999.2500    -999.2500
    6938.5    2114.8548     143.7968    -999.2500    -999.2500
    6939.0    2115.0072     145.2936    -999.2500    -999.2500
    6939.5    2115.1596     145.0676    -999.2500    -999.2500
    6940.0    2115.3120     142.2556    -999.2500    -999.2500
    6940.5    2115.4644     140.6620    -999.2500    -999.2500
    6941.0    2115.6168     138.5516    -999.2500    -999.2500
    6941.5    2115.7692     134.3725    -999.2500    -999.2500
    6942.0    2115.9216     134.7918    -999.2500    -999.2500
    6942.5    2116.0740     138.1739    -999.2500    -999.2500
    6943.0    2116.2264     140.8184    -999.2500    -999.2500
    6943.5    2116.3788     144.7259    -999.2500    -999.2500
    6944.0    2116.5313     147.3859    -999.2500    -999.2500
    6944.5    2116.6836     153.4527    -999.2500    -999.2500
    6945.0    2116.8360     155.8112    -999.2500    -999.2500
    6945.5    2116.9884     152.6117    -999.2500    -999.2500
    6946.0    2117.1408     142.5106    -999.2500    -999.2500
    6946.5    2117.2932     142.9058    -999.2500    -999.2500
    6947.0    2117.4456     144.3285    -999.2500    -999.2500
    6947.5    2117.5980     142.9809    -999.2500    -999.2500
    6948.0    2117.7504     142.3700    -999.2500    -999.2500
    6948.5    2117.9028     140.2950    -999.2500    -999.2500
    6949.0    2118.0552     139.6619    -999.2500    -999.2500
    6949.5    2118.2076     140.3894    -999.2500    -999.2500
    6950.0    2118.3600     140.6010    -999.2500    -999.2500
    6950.5    2118.5124     138.9261    -999.2500    -999.2500
    6951.0    2118.6648     137.4680    -999.2500    -999.2500
    6951.5    2118.8172     137.7937    -999.2500    -999.2500
    6952.0    2118.9696     138.9245    -999.2500    -999.2500
    6952.5    2119.1220     139.8987    -999.2500    -999.2500
    6953.0    2119.2744     141.6134    -999.2500    -999.2500
    6953.5    2119.4268     142.3267    -999.2500    -999.2500
    6954.0    2119.5792     139.6418    -999.2500    -999.2500
    6954.5    2119.7316     140.5741    -999.2500    -999.2500
    6955.0    2119.8840     141.8211    -999.2500    -999.2500
    6955.5    2120.0364     140.2296    -999.2500    -999.2500
    6956.0    2120.1888     139.0111    -999.2500    -999.2500
    6956.5    2120.3412     141.2052    -999.2500    -999.2500
    6957.0    2120.4937     142.6871    -999.2500    -999.2500
    6957.5    2120.6460     141.1489    -999.2500    -999.2500
    6958.0    2120.7984     140.6258    -999.2500    -999.2500
    6958.5    2120.9508     140.9816    -999.2500    -999.2500
    6959.0    2121.1032     139.4085    -999.2500    -999.2500
    6959.5    2121.2556     139.7277    -999.2500    -999.2500
    6960.0    2121.4080     141.1361    -999.2500    -999.2500
    6960.5    2121.5604     139.1365    -999.2500    -999.2500
    6961.0    2121.7128     139.8087    -999.2500    -999.2500
    6961.5    2121.8652     139.2751    -999.2500    -999.2500
    6962.0    2122.0176     139.3487    -999.2500    -999.2500
    6962.5    2122.1700     138.5109    -999.2500    -999.2500
    6963.0    2122.3224     137.6407    -999.2500    -999.2500
    6963.5    2122.4748     137.2392    -999.2500    -999.2500
