~VERSION INFORMATION
VERS.           2.0   :CWLS Log ASCII Standard - VERSION 2.0
WRAP.           NO    :One Line per depth step
PROD.  Schlumberger   :LAS Producer
PROG.  DLIS to ASCII 2.3                               :LAS Program name and version
CREA.        2019/03/12 22:31                          :LAS Creation date {YYYY/MM/DD hh:mm}
DLIS_CREA.  2019-Mar-12 22:09                          :DLIS Creation date and time {YYYY-MMM-DD hh:mm}
SOURCE.     LIStoDLIS.dlis                             :DLIS File Name
#--------------------------------------------------
~WELL INFORMATION
#MNEM.UNIT      DATA             DESCRIPTION
#---- ------ --------------   -----------------------------
STRT .F         3281.0       :START DEPTH     
STOP .F        12467.0       :STOP DEPTH     
STEP .F            0.5       :STEP     
NULL .          -999.25      :NULL VALUE
COMP .        StatoilHydro                             :COMPANY
WELL .        15/9-F-14                                :WELL
FLD  .        Volve                                    :FIELD
LOC  .        Norwegian North Sea                      :LOCATION
CNTY .        Maersk Inspirer                          :COUNTY
STAT .        Norway                                   :STATE
CTRY .                                                 :COUNTRY
API  .                                                 :API NUMBER
UWI  .                                                 :UNIQUE WELL ID
DATE .                                                 :LOG DATE
SRVC .        Schlumberger                             :SERVICE COMPANY
LATI .DEG     058 26' 29.769" N    DMS                 :LATITUDE
LONG .DEG     001 53' 15.079" E    DMS                 :LONGITUDE
GDAT .                                                 :GeoDetic Datum
#-----------------------------------------------------------------------------
~PARAMETER INFORMATION
#MNEM.UNIT    VALUE                      DESCRIPTION
#---- -----   --------------------       ------------------------
RUN  .                                   :RUN NUMBER
PDAT .                                   :Permanent Datum
EPD  .                                   :Elevation of Permanent Datum above Mean Sea Level
LMF  .          DF                       :Logging Measured From (Name of Logging Elevation Reference)
APD  .M          54.900002               :Elevation of Depth Reference (LMF) above Permanent Datum
#-----------------------------------------------------------------------------
~CURVE INFORMATION
#MNEM.UNIT   API CODE                                  DESCRIPTION
#---- -----  --------                                  -----------------------
DEPT .F                                                :DEPTH (BOREHOLE) {F10.1}
DEPT .M                                                : {F13.4}
DTCO .US/F                                             : {F13.4}
DTSM .US/F                                             : {F13.4}
RHOB .G/CC                                             : {F13.4}
#-----------------------------------------------------------------------------
# 
#     DEPT        DEPT         DTCO         DTSM         RHOB
#
~A  
# ...
   12171.0    3709.7208      73.4142     128.8965       2.5215
   12171.5    3709.8732      74.2578     125.7397       2.5102
   12172.0    3710.0256      73.6160     126.8014       2.5034
   12172.5    3710.1780      73.1808     128.4837       2.4927
   12173.0    3710.3304      72.7793     128.4431       2.4911
   12173.5    3710.4828      72.5831     127.4639       2.4879
   12174.0    3710.6353      71.4428     125.1616       2.4989
   12174.5    3710.7876      70.9513     125.8569       2.5012
   12175.0    3710.9399      71.8306     128.4734       2.4993
   12175.5    3711.0924      73.6683    -999.2500       2.4833
   12176.0    3711.2448      74.7369    -999.2500       2.4685
   12176.5    3711.3972      76.3261    -999.2500       2.4515
   12177.0    3711.5496      76.4705    -999.2500       2.4421
   12177.5    3711.7020      75.3736    -999.2500       2.4373
   12178.0    3711.8544      74.3408    -999.2500       2.4398
   12178.5    3712.0068      74.9311    -999.2500       2.4458
   12179.0    3712.1592      76.1961    -999.2500       2.4517
   12179.5    3712.3116      77.1754    -999.2500       2.4515
   12180.0    3712.4640      75.4441    -999.2500       2.4462
   12180.5    3712.6164      78.2491    -999.2500       2.4395
   12181.0    3712.7688      80.2182    -999.2500       2.4322
   12181.5    3712.9212      81.0362    -999.2500       2.4075
   12182.0    3713.0736      77.9150    -999.2500       2.3696
   12182.5    3713.2260      78.8204    -999.2500       2.3450
   12183.0    3713.3784      79.4520    -999.2500       2.3303
   12183.5    3713.5308      79.0762    -999.2500       2.3443
   12184.0    3713.6832      77.0245    -999.2500       2.3498
   12184.5    3713.8356      73.6771    -999.2500       2.3610
   12185.0    3713.9880      71.6522    -999.2500       2.3609
   12185.5    3714.1404    -999.2500    -999.2500       2.3752
   12186.0    3714.2928    -999.2500    -999.2500       2.3896
   12186.5    3714.4452    -999.2500    -999.2500       2.4138
   12187.0    3714.5977    -999.2500    -999.2500       2.4307
   12187.5    3714.7500    -999.2500    -999.2500       2.4620
   12188.0    3714.9023    -999.2500    -999.2500       2.4812
   12188.5    3715.0548    -999.2500    -999.2500       2.4958
   12189.0    3715.2072    -999.2500    -999.2500       2.4986
   12189.5    3715.3596    -999.2500    -999.2500       2.5120
   12190.0    3715.5120    -999.2500    -999.2500       2.5333
   12190.5    3715.6644    -999.2500    -999.2500       2.5573
   12191.0    3715.8168    -999.2500    -999.2500       2.5771
   12191.5    3715.9692    -999.2500    -999.2500       2.5816
   12192.0    3716.1216    -999.2500    -999.2500       2.5868
   12192.5    3716.2740    -999.2500    -999.2500       2.5921
   12193.0    3716.4264    -999.2500    -999.2500       2.5942
   12193.5    3716.5788    -999.2500    -999.2500       2.5951
   12194.0    3716.7312    -999.2500    -999.2500       2.5842
   12194.5    3716.8836    -999.2500    -999.2500       2.5835
   12195.0    3717.0360    -999.2500    -999.2500       2.5765
   12195.5    3717.1884    -999.2500    -999.2500       2.5805
   12196.0    3717.3408    -999.2500    -999.2500       2.5795
   12196.5    3717.4932    -999.2500    -999.2500       2.5822
   12197.0    3717.6456    -999.2500    -999.2500       2.5798
   12197.5    3717.7980    -999.2500    -999.2500       2.5748
   12198.0    3717.9504    -999.2500    -999.2500       2.5630
   12198.5    3718.1028    -999.2500    -999.2500       2.5411
   12199.0    3718.2552    -999.2500    -999.2500       2.5112
   12199.5    3718.4076    -999.2500    -999.2500       2.4741
   12200.0    3718.5601    -999.2500    -999.2500       2.4374
   12200.5    3718.7124    -999.2500    -999.2500       2.4116
   12201.0    3718.8647    -999.2500    -999.2500       2.4024
   12201.5    3719.0172    -999.2500    -999.2500       2.4028
   12202.0    3719.1696    -999.2500    -999.2500       2.3945
   12202.5    3719.3220    -999.2500    -999.2500       2.3751
   12203.0    3719.4744    -999.2500    -999.2500       2.3697
   12203.5    3719.6268    -999.2500    -999.2500       2.3808
   12204.0    3719.7792    -999.2500    -999.2500       2.4055
   12204.5    3719.9316    -999.2500    -999.2500       2.4075
   12205.0    3720.0840    -999.2500    -999.2500       2.4040
   12205.5    3720.2364    -999.2500    -999.2500       2.3925
   12206.0    3720.3888    -999.2500    -999.2500       2.3923
   12206.5    3720.5412    -999.2500    -999.2500       2.3960
   12207.0    3720.6936    -999.2500    -999.2500       2.4084
   12207.5    3720.8460    -999.2500    -999.2500       2.4279
   12208.0    3720.9984    -999.2500    -999.2500       2.4460
   12208.5    3721.1508    -999.2500    -999.2500       2.4432
   12209.0    3721.3032    -999.2500    -999.2500       2.4211
   12209.5    3721.4556    -999.2500    -999.2500       2.3969
   12210.0    3721.6080    -999.2500    -999.2500       2.3831
   12210.5    3721.7604    -999.2500    -999.2500       2.3759
   12211.0    3721.9128    -999.2500    -999.2500       2.3682
   12211.5    3722.0652    -999.2500    -999.2500       2.3551
   12212.0    3722.2176    -999.2500    -999.2500       2.3415
   12212.5    3722.3700    -999.2500    -999.2500       2.3330
   12213.0    3722.5224    -999.2500    -999.2500       2.3277
   12213.5    3722.6748    -999.2500    -999.2500       2.3292
   12214.0    3722.8271    -999.2500    -999.2500       2.3264
   12214.5    3722.9796    -999.2500    -999.2500       2.3313
   12215.0    3723.1320    -999.2500    -999.2500       2.3326
   12215.5    3723.2844    -999.2500    -999.2500       2.3367
   12216.0    3723.4368    -999.2500    -999.2500       2.3464
   12216.5    3723.5892    -999.2500    -999.2500       2.3645
   12217.0    3723.7416    -999.2500    -999.2500       2.3860
   12217.5    3723.8940    -999.2500    -999.2500       2.4044
   12218.0    3724.0464    -999.2500    -999.2500       2.4162
   12218.5    3724.1988    -999.2500    -999.2500       2.4252
   12219.0    3724.3512    -999.2500    -999.2500       2.4344
   12219.5    3724.5036    -999.2500    -999.2500       2.4393
   12220.0    3724.6560    -999.2500    -999.2500       2.4395
   12220.5    3724.8084    -999.2500    -999.2500       2.4183
   12221.0    3724.9608    -999.2500    -999.2500       2.3930
   12221.5    3725.1132    -999.2500    -999.2500       2.3668
   12222.0    3725.2656    -999.2500    -999.2500       2.3543
   12222.5    3725.4180    -999.2500    -999.2500       2.3408
   12223.0    3725.5704    -999.2500    -999.2500       2.3361
   12223.5    3725.7228    -999.2500    -999.2500       2.3354
   12224.0    3725.8752    -999.2500    -999.2500       2.3396
   12224.5    3726.0276    -999.2500    -999.2500       2.3463
   12225.0    3726.1800    -999.2500    -999.2500       2.3503
   12225.5    3726.3324    -999.2500    -999.2500       2.3435
   12226.0    3726.4848    -999.2500    -999.2500       2.3348
   12226.5    3726.6372    -999.2500    -999.2500       2.3266
   12227.0    3726.7896    -999.2500    -999.2500       2.3321
   12227.5    3726.9420    -999.2500    -999.2500       2.3400
   12228.0    3727.0944    -999.2500    -999.2500       2.3474
   12228.5    3727.2468    -999.2500    -999.2500       2.3553
   12229.0    3727.3992    -999.2500    -999.2500       2.3628
   12229.5    3727.5516    -999.2500    -999.2500       2.3681
   12230.0    3727.7040    -999.2500    -999.2500       2.3705
   12230.5    3727.8564    -999.2500    -999.2500       2.3751
   12231.0    3728.0088    -999.2500    -999.2500       2.3511
   12231.5    3728.1612    -999.2500    -999.2500       2.3444
   12232.0    3728.3136    -999.2500    -999.2500       2.3290
   12232.5    3728.4660    -999.2500    -999.2500       2.3438
   12233.0    3728.6184    -999.2500    -999.2500       2.3493
   12233.5    3728.7708    -999.2500    -999.2500       2.3558
   12234.0    3728.9232    -999.2500    -999.2500       2.3668
