~VERSION INFORMATION
VERS.           2.0   :CWLS Log ASCII Standard - VERSION 2.0
WRAP.           NO    :One Line per depth step
PROD.  Schlumberger   :LAS Producer
PROG.  DLIS to ASCII 2.3                               :LAS Program name and version
CREA.        2019/03/12 22:31                          :LAS Creation date {YYYY/MM/DD hh:mm}
DLIS_CREA.  2019-Mar-12 22:09                          :DLIS Creation date and time {YYYY-MMM-DD hh:mm}
SOURCE.     LIStoDLIS.dlis                             :DLIS File Name
#--------------------------------------------------
~WELL INFORMATION
#MNEM.UNIT      DATA             DESCRIPTION
#---- ------ --------------   -----------------------------
STRT .F         3281.0       :START DEPTH     
STOP .F        12467.0       :STOP DEPTH     
STEP .F            0.5       :STEP     
NULL .          -999.25      :NULL VALUE
COMP .        StatoilHydro                             :COMPANY
WELL .        15/9-F-14                                :WELL
FLD  .        Volve                                    :FIELD
LOC  .        Norwegian North Sea                      :LOCATION
CNTY .        Maersk Inspirer                          :COUNTY
STAT .        Norway                                   :STATE
CTRY .                                                 :COUNTRY
API  .                                                 :API NUMBER
UWI  .                                                 :UNIQUE WELL ID
DATE .                                                 :LOG DATE
SRVC .        Schlumberger                             :SERVICE COMPANY
LATI .DEG     058 26' 29.769" N    DMS                 :LATITUDE
LONG .DEG     001 53' 15.079" E    DMS                 :LONGITUDE
GDAT .                                                 :GeoDetic Datum
#-----------------------------------------------------------------------------
~PARAMETER INFORMATION
#MNEM.UNIT    VALUE                      DESCRIPTION
#---- -----   --------------------       ------------------------
RUN  .                                   :RUN NUMBER
PDAT .                                   :Permanent Datum
EPD  .                                   :Elevation of Permanent Datum above Mean Sea Level
LMF  .          DF                       :Logging Measured From (Name of Logging Elevation Reference)
APD  .M          54.900002               :Elevation of Depth Reference (LMF) above Permanent Datum
#-----------------------------------------------------------------------------
~CURVE INFORMATION
#MNEM.UNIT   API CODE                                  DESCRIPTION
#---- -----  --------                                  -----------------------
DEPT .F                                                :DEPTH (BOREHOLE) {F10.1}
DEPT .M                                                : {F13.4}
DTCO .US/F                                             : {F13.4}
DTSM .US/F                                             : {F13.4}
RHOB .G/CC                                             : {F13.4}
#-----------------------------------------------------------------------------
# 
#     DEPT        DEPT         DTCO         DTSM         RHOB
#
~A  
# ...
   11091.5    3380.6892      87.6696     148.7967       2.2495
   11092.0    3380.8416      86.3811     148.5800       2.2464
   11092.5    3380.9940      87.7951     146.5700       2.2418
   11093.0    3381.1464      87.6322     143.7840       2.2347
   11093.5    3381.2988      87.5426     143.5096       2.2329
   11094.0    3381.4512      87.7054     144.2832       2.2319
   11094.5    3381.6036      86.5975     145.6001       2.2378
   11095.0    3381.7560      86.3640     145.8535       2.2457
   11095.5    3381.9084      88.3732     145.6050       2.2494
   11096.0    3382.0608      89.4281     144.9707       2.2432
   11096.5    3382.2132      88.5593     145.4379       2.2336
   11097.0    3382.3656      85.7721     146.3503       2.2329
   11097.5    3382.5180      85.8107     147.8183       2.2361
   11098.0    3382.6704      85.6464     148.6646       2.2399
   11098.5    3382.8228      85.1126     148.4846       2.2393
   11099.0    3382.9752      84.1691     148.6172       2.2384
   11099.5    3383.1276      84.0739     149.0743       2.2350
   11100.0    3383.2800      85.3347     149.4080       2.2316
   11100.5    3383.4324      85.2789     149.4838       2.2244
   11101.0    3383.5848      85.9919     149.4449       2.2215
   11101.5    3383.7372      86.8263     150.1394       2.2182
   11102.0    3383.8896      86.3466     151.1591       2.2178
   11102.5    3384.0420      88.4846     151.7574       2.2129
   11103.0    3384.1944      87.6415     152.6801       2.2142
   11103.5    3384.3468      88.2882     153.1289       2.2153
   11104.0    3384.4992      87.7703     153.3631       2.2191
   11104.5    3384.6516      87.1415     152.2567       2.2143
   11105.0    3384.8040      87.6809     151.6905       2.2066
   11105.5    3384.9564      87.4025     150.7215       2.2032
   11106.0    3385.1088      87.0830     151.5082       2.2012
   11106.5    3385.2612      87.8472     152.7671       2.2041
   11107.0    3385.4136      89.8491     153.2153       2.2045
   11107.5    3385.5660      90.6667     152.1983       2.2045
   11108.0    3385.7184      89.9980     150.9365       2.2060
   11108.5    3385.8708      90.9587     149.6560       2.2052
   11109.0    3386.0232      88.5484     149.9022       2.2101
   11109.5    3386.1756      87.4704     150.0765       2.2149
   11110.0    3386.3280      88.3964     149.7171       2.2174
   11110.5    3386.4804      89.7723     149.2947       2.2165
   11111.0    3386.6328      88.5262     149.0232       2.2130
   11111.5    3386.7852      87.4340     149.8225       2.2146
   11112.0    3386.9376      86.3709     149.7338       2.2128
   11112.5    3387.0900      87.8230     149.1603       2.2142
   11113.0    3387.2424      89.0387     148.7362       2.2125
   11113.5    3387.3948      90.4482     148.9773       2.2151
   11114.0    3387.5472      91.1035     149.9252       2.2172
   11114.5    3387.6996      91.6595     148.7915       2.2212
   11115.0    3387.8521      89.4598     144.1407       2.2238
   11115.5    3388.0044      85.9637     142.3207       2.2266
   11116.0    3388.1568      82.6752     140.0389       2.2298
   11116.5    3388.3092      81.5589     138.1222       2.2335
   11117.0    3388.4616      80.8326     139.9404       2.2396
   11117.5    3388.6140      82.2304     144.3195       2.2387
   11118.0    3388.7664      84.7862     147.8202       2.2309
   11118.5    3388.9188      88.1718     149.3718       2.2213
   11119.0    3389.0712      89.6261     149.9796       2.2194
   11119.5    3389.2236      90.5951     150.6040       2.2197
   11120.0    3389.3760      91.2756     150.9504       2.2259
   11120.5    3389.5284      90.6736     150.7621       2.2294
   11121.0    3389.6808      88.3354     150.2551       2.2382
   11121.5    3389.8332      87.0764     150.5499       2.2394
   11122.0    3389.9856      88.1277     152.0377       2.2411
   11122.5    3390.1380      89.3245     153.1543       2.2411
   11123.0    3390.2904      90.0367     153.3085       2.2379
   11123.5    3390.4428      90.7908     153.5573       2.2367
   11124.0    3390.5952      90.8990     153.9256       2.2380
   11124.5    3390.7476      92.0061     154.2938       2.2401
   11125.0    3390.9000      92.0122     154.6952       2.2361
   11125.5    3391.0524      90.5175     155.1962       2.2243
   11126.0    3391.2048      89.1117     155.7299       2.2171
   11126.5    3391.3572      90.2948     156.2634       2.2162
   11127.0    3391.5096      91.9370     156.7004       2.2190
   11127.5    3391.6620      93.6295     156.8129       2.2216
   11128.0    3391.8145      93.5144     156.8152       2.2153
   11128.5    3391.9668      92.0872     157.0149       2.2180
   11129.0    3392.1191      91.7276     156.6690       2.2233
   11129.5    3392.2716      93.0590     155.3647       2.2292
   11130.0    3392.4240      95.0447     155.7998       2.2266
   11130.5    3392.5764      96.3869     156.9727       2.2146
   11131.0    3392.7288      96.2249     157.5609       2.2027
   11131.5    3392.8812      96.9274     161.3418       2.1931
   11132.0    3393.0336      98.2128     166.3561       2.1896
   11132.5    3393.1860      98.6415     162.8318       2.1903
   11133.0    3393.3384      98.8635     162.6584       2.1922
   11133.5    3393.4908      97.8498     161.8693       2.1943
   11134.0    3393.6432      95.4561     160.6705       2.2016
   11134.5    3393.7956      92.7219     159.4720       2.2154
   11135.0    3393.9480      89.9446     158.4457       2.2269
   11135.5    3394.1004      89.3078     158.0339       2.2315
   11136.0    3394.2528      90.1861     159.2265       2.2205
   11136.5    3394.4052      93.7376     162.5361       2.2142
   11137.0    3394.5576      96.3801     162.8362       2.2057
   11137.5    3394.7100      97.0760     162.6956       2.2019
   11138.0    3394.8624      95.8921     161.6511       2.1976
   11138.5    3395.0148      93.6007     156.9496       2.2135
   11139.0    3395.1672      90.3368     150.4006       2.2487
   11139.5    3395.3196      84.5056     144.8282       2.2975
   11140.0    3395.4720      78.0679     139.4682       2.3429
   11140.5    3395.6244      76.1862     137.8146       2.3623
   11141.0    3395.7769      74.9057     137.6008       2.3546
   11141.5    3395.9292      75.5566     137.9019       2.3193
   11142.0    3396.0815      78.2051     139.3279       2.2797
   11142.5    3396.2340      78.9941     143.1087       2.2495
   11143.0    3396.3864      80.8058     145.6238       2.2392
   11143.5    3396.5388      85.4009     149.8486       2.2382
   11144.0    3396.6912      89.0889     151.5149       2.2350
   11144.5    3396.8436      90.6260     154.9807       2.2245
   11145.0    3396.9960      90.3717     155.9740       2.2171
   11145.5    3397.1484      88.9204     157.2933       2.2142
   11146.0    3397.3008      88.3041     158.3486       2.2067
   11146.5    3397.4532      86.7435     158.7340       2.1963
   11147.0    3397.6056      83.5113     157.8032       2.1857
   11147.5    3397.7580      77.7764     158.0098       2.1850
   11148.0    3397.9104      77.2137     157.9055       2.1842
   11148.5    3398.0628      78.1063     157.5943       2.1832
   11149.0    3398.2152      82.0381     157.2841       2.1793
   11149.5    3398.3676      91.1373     156.8096       2.1806
   11150.0    3398.5200      93.0691     156.3058       2.1825
   11150.5    3398.6724      93.0466     156.7839       2.1790
   11151.0    3398.8248      93.0323     157.1953       2.1760
   11151.5    3398.9772      93.9107     158.1514       2.1735
   11152.0    3399.1296      94.6248     159.4260       2.1738
   11152.5    3399.2820      95.4969     161.0039       2.1752
   11153.0    3399.4344      96.9360     161.8574       2.1740
   11153.5    3399.5868      96.3946     161.7421       2.1770
   11154.0    3399.7393      94.8774     161.4367       2.1788
   11154.5    3399.8916      94.9522     161.0893       2.1804
