~VERSION INFORMATION
VERS.           2.0   :CWLS Log ASCII Standard - VERSION 2.0
WRAP.           NO    :One Line per depth step
PROD.  Schlumberger   :LAS Producer
PROG.  DLIS to ASCII 2.3                               :LAS Program name and version
CREA.        2019/03/12 22:31                          :LAS Creation date {YYYY/MM/DD hh:mm}
DLIS_CREA.  2019-Mar-12 22:09                          :DLIS Creation date and time {YYYY-MMM-DD hh:mm}
SOURCE.     LIStoDLIS.dlis                             :DLIS File Name
#--------------------------------------------------
~WELL INFORMATION
#MNEM.UNIT      DATA             DESCRIPTION
#---- ------ --------------   -----------------------------
STRT .F         3281.0       :START DEPTH     
STOP .F        12467.0       :STOP DEPTH     
STEP .F            0.5       :STEP     
NULL .          -999.25      :NULL VALUE
COMP .        StatoilHydro                             :COMPANY
WELL .        15/9-F-14                                :WELL
FLD  .        Volve                                    :FIELD
LOC  .        Norwegian North Sea                      :LOCATION
CNTY .        Maersk Inspirer                          :COUNTY
STAT .        Norway                                   :STATE
CTRY .                                                 :COUNTRY
API  .                                                 :API NUMBER
UWI  .                                                 :UNIQUE WELL ID
DATE .                                                 :LOG DATE
SRVC .        Schlumberger                             :SERVICE COMPANY
LATI .DEG     058 26' 29.769" N    DMS                 :LATITUDE
LONG .DEG     001 53' 15.079" E    DMS                 :LONGITUDE
GDAT .                                                 :GeoDetic Datum
#-----------------------------------------------------------------------------
~PARAMETER INFORMATION
#MNEM.UNIT    VALUE                      DESCRIPTION
#---- -----   --------------------       ------------------------
RUN  .                                   :RUN NUMBER
PDAT .                                   :Permanent Datum
EPD  .                                   :Elevation of Permanent Datum above Mean Sea Level
LMF  .          DF                       :Logging Measured From (Name of Logging Elevation Reference)
APD  .M          54.900002               :Elevation of Depth Reference (LMF) above Permanent Datum
#-----------------------------------------------------------------------------
~CURVE INFORMATION
#MNEM.UNIT   API CODE                                  DESCRIPTION
#---- -----  --------                                  -----------------------
DEPT .F                                                :DEPTH (BOREHOLE) {F10.1}
DEPT .M                                                : {F13.4}
DTCO .US/F                                             : {F13.4}
DTSM .US/F                                             : {F13.4}
RHOB .G/CC                                             : {F13.4}
#-----------------------------------------------------------------------------
# 
#     DEPT        DEPT         DTCO         DTSM         RHOB
#
~A  
# ...
   11599.5    3535.5276      89.9202     151.2326       2.2600
   11600.0    3535.6800      89.0458     152.2845       2.2597
   11600.5    3535.8324      87.2499     151.9744       2.2601
   11601.0    3535.9848      89.0346     151.9699       2.2591
   11601.5    3536.1372      88.7067     151.1830       2.2604
   11602.0    3536.2896      87.9307     149.5703       2.2611
   11602.5    3536.4420      87.2656     147.9750       2.2624
   11603.0    3536.5944      86.8763     146.8787       2.2653
   11603.5    3536.7468      85.6973     145.9121       2.2627
   11604.0    3536.8992      85.8161     145.1695       2.2601
   11604.5    3537.0516      87.2787     145.2060       2.2560
   11605.0    3537.2040      87.6312     144.5666       2.2564
   11605.5    3537.3564      86.8945     144.5409       2.2548
   11606.0    3537.5088      87.3529     144.4764       2.2540
   11606.5    3537.6612      87.1744     144.3643       2.2483
   11607.0    3537.8136      88.5857     144.1475       2.2468
   11607.5    3537.9660      88.9320     144.0141       2.2425
   11608.0    3538.1184      86.8227     143.7126       2.2442
   11608.5    3538.2708      87.8283     143.0070       2.2436
   11609.0    3538.4232      87.5675     143.1151       2.2458
   11609.5    3538.5756      88.8069     144.1353       2.2484
   11610.0    3538.7280      90.0183     145.5940       2.2537
   11610.5    3538.8804      88.5523     145.7874       2.2591
   11611.0    3539.0328      89.4863     145.9044       2.2573
   11611.5    3539.1852      88.9101     145.7623       2.2577
   11612.0    3539.3376      87.7309     145.3394       2.2556
   11612.5    3539.4900      87.7555     144.5198       2.2616
   11613.0    3539.6424      87.7451     144.4283       2.2608
   11613.5    3539.7948      86.7860     146.2660       2.2663
   11614.0    3539.9472      85.5426     147.0971       2.2643
   11614.5    3540.0996      87.6159     147.1141       2.2612
   11615.0    3540.2520      87.5997     146.1735       2.2554
   11615.5    3540.4044      87.7305     145.7000       2.2571
   11616.0    3540.5568      87.2852     146.0149       2.2594
   11616.5    3540.7092      85.9578     145.3631       2.2608
   11617.0    3540.8616      85.7379     144.4873       2.2570
   11617.5    3541.0140      86.0234     144.9785       2.2569
   11618.0    3541.1664      85.6389     145.1972       2.2530
   11618.5    3541.3188      86.1562     143.9931       2.2541
   11619.0    3541.4712      86.8360     143.3260       2.2537
   11619.5    3541.6236      86.4757     143.7394       2.2627
   11620.0    3541.7760      86.4659     144.1171       2.2643
   11620.5    3541.9284      85.7458     144.2681       2.2677
   11621.0    3542.0808      86.3151     145.5926       2.2616
   11621.5    3542.2332      87.8458     148.6454       2.2520
   11622.0    3542.3856      87.8620     149.0312       2.2423
   11622.5    3542.5380      87.6322     149.5767       2.2362
   11623.0    3542.6904      87.4685     150.3854       2.2351
   11623.5    3542.8428      87.6321     150.1376       2.2317
   11624.0    3542.9952      87.4439     148.5999       2.2356
   11624.5    3543.1476      87.6412     148.1432       2.2364
   11625.0    3543.3000      88.3828     148.3401       2.2426
   11625.5    3543.4524      89.8041     150.0013       2.2335
   11626.0    3543.6048      89.0580     151.1599       2.2317
   11626.5    3543.7572      91.1843     151.5720       2.2192
   11627.0    3543.9096      91.9479     151.8178       2.2169
   11627.5    3544.0620      91.5618     151.2195       2.2210
   11628.0    3544.2144      90.3391     150.1119       2.2303
   11628.5    3544.3668      88.6881     148.8426       2.2384
   11629.0    3544.5192      87.1414     148.3571       2.2389
   11629.5    3544.6716      87.9048     151.4248       2.2397
   11630.0    3544.8240      88.7598     152.3535       2.2383
   11630.5    3544.9764      90.0768     151.8969       2.2356
   11631.0    3545.1288      90.6264     151.0539       2.2344
   11631.5    3545.2813      90.1184     150.3477       2.2332
   11632.0    3545.4336      89.2716     148.3186       2.2324
   11632.5    3545.5860      87.4686     147.9397       2.2320
   11633.0    3545.7384      87.7799     148.0225       2.2286
   11633.5    3545.8908      87.4166     148.0617       2.2272
   11634.0    3546.0432      86.4532     147.9817       2.2270
   11634.5    3546.1956      87.4686     147.3882       2.2290
   11635.0    3546.3480      87.5087     146.8366       2.2330
   11635.5    3546.5004      86.9188     146.1611       2.2351
   11636.0    3546.6528      87.0913     146.4057       2.2367
   11636.5    3546.8052      86.8099     146.7613       2.2412
   11637.0    3546.9576      84.8365     147.1133       2.2450
   11637.5    3547.1100      85.0359     147.4010       2.2512
   11638.0    3547.2624      85.0040     147.5451       2.2451
   11638.5    3547.4148      84.0896     147.8117       2.2352
   11639.0    3547.5672      84.1443     148.3518       2.2298
   11639.5    3547.7196      78.5295     148.7274       2.2314
   11640.0    3547.8720      76.4993     149.0275       2.2405
   11640.5    3548.0244      78.3244     149.1200       2.2471
   11641.0    3548.1768      81.2663     148.7075       2.2522
   11641.5    3548.3292      85.0590     148.4183       2.2526
   11642.0    3548.4816      87.1501     148.1293       2.2496
   11642.5    3548.6340      88.1743     147.8532       2.2511
   11643.0    3548.7864      88.1121     147.6408       2.2546
   11643.5    3548.9388      86.3697     147.5065       2.2575
   11644.0    3549.0912      84.8916     147.3746       2.2619
   11644.5    3549.2437      83.7764     147.3089       2.2578
   11645.0    3549.3960      84.5972     147.4832       2.2563
   11645.5    3549.5484      85.8042     147.8953       2.2456
   11646.0    3549.7008      87.2652     148.4816       2.2422
   11646.5    3549.8532      88.8509     148.9576       2.2352
   11647.0    3550.0056      91.0401     148.5204       2.2357
   11647.5    3550.1580      92.0295     149.0391       2.2354
   11648.0    3550.3104      91.7025     149.9455       2.2349
   11648.5    3550.4628      91.0609     151.8705       2.2352
   11649.0    3550.6152      88.6151     154.0895       2.2380
   11649.5    3550.7676      85.3150     154.3599       2.2531
   11650.0    3550.9200      81.1312     154.2686       2.2671
   11650.5    3551.0724      79.4268     153.3383       2.2769
   11651.0    3551.2248      79.0813     153.1861       2.2647
   11651.5    3551.3772      78.8590     155.1831       2.2483
   11652.0    3551.5296      81.6340     157.7191       2.2346
   11652.5    3551.6820      84.3650     159.1209       2.2272
   11653.0    3551.8344      85.4668     158.8640       2.2279
   11653.5    3551.9868      87.6596     159.7575       2.2278
   11654.0    3552.1392      90.0768     160.0696       2.2349
   11654.5    3552.2916      89.8004     159.9638       2.2322
   11655.0    3552.4440      90.9301     159.8321       2.2323
   11655.5    3552.5964      90.2881     159.4913       2.2311
   11656.0    3552.7488      88.6590     158.8306       2.2356
   11656.5    3552.9012      87.5498     158.3731       2.2335
   11657.0    3553.0536      86.3339     158.0341       2.2326
   11657.5    3553.2061      86.1833     157.6695       2.2271
   11658.0    3553.3584      87.4872     157.3619       2.2279
   11658.5    3553.5107      88.0185     156.4772       2.2261
   11659.0    3553.6632      88.8649     155.9544       2.2292
   11659.5    3553.8156      90.0879     156.0719       2.2303
   11660.0    3553.9680      91.1942     155.1546       2.2323
   11660.5    3554.1204      91.4726     153.4187       2.2295
   11661.0    3554.2728      91.6125     153.7796       2.2266
   11661.5    3554.4252      91.7416     154.9859       2.2245
   11662.0    3554.5776      90.5380     154.3294       2.2259
   11662.5    3554.7300      91.0034     153.0928       2.2381
