~VERSION INFORMATION
VERS.           2.0   :CWLS Log ASCII Standard - VERSION 2.0
WRAP.           NO    :One Line per depth step
PROD.  Schlumberger   :LAS Producer
PROG.  DLIS to ASCII 2.3                               :LAS Program name and version
CREA.        2019/03/12 22:31                          :LAS Creation date {YYYY/MM/DD hh:mm}
DLIS_CREA.  2019-Mar-12 22:09                          :DLIS Creation date and time {YYYY-MMM-DD hh:mm}
SOURCE.     LIStoDLIS.dlis                             :DLIS File Name
#--------------------------------------------------
~WELL INFORMATION
#MNEM.UNIT      DATA             DESCRIPTION
#---- ------ --------------   -----------------------------
STRT .F         3281.0       :START DEPTH     
STOP .F        12467.0       :STOP DEPTH     
STEP .F            0.5       :STEP     
NULL .          -999.25      :NULL VALUE
COMP .        StatoilHydro                             :COMPANY
WELL .        15/9-F-14                                :WELL
FLD  .        Volve                                    :FIELD
LOC  .        Norwegian North Sea                      :LOCATION
CNTY .        Maersk Inspirer                          :COUNTY
STAT .        Norway                                   :STATE
CTRY .                                                 :COUNTRY
API  .                                                 :API NUMBER
UWI  .                                                 :UNIQUE WELL ID
DATE .                                                 :LOG DATE
SRVC .        Schlumberger                             :SERVICE COMPANY
LATI .DEG     058 26' 29.769" N    DMS                 :LATITUDE
LONG .DEG     001 53' 15.079" E    DMS                 :LONGITUDE
GDAT .                                                 :GeoDetic Datum
#-----------------------------------------------------------------------------
~PARAMETER INFORMATION
#MNEM.UNIT    VALUE                      DESCRIPTION
#---- -----   --------------------       ------------------------
RUN  .                                   :RUN NUMBER
PDAT .                                   :Permanent Datum
EPD  .                                   :Elevation of Permanent Datum above Mean Sea Level
LMF  .          DF                       :Logging Measured From (Name of Logging Elevation Reference)
APD  .M          54.900002               :Elevation of Depth Reference (LMF) above Permanent Datum
#-----------------------------------------------------------------------------
~CURVE INFORMATION
#MNEM.UNIT   API CODE                                  DESCRIPTION
#---- -----  --------                                  -----------------------
DEPT .F                                                :DEPTH (BOREHOLE) {F10.1}
DEPT .M                                                : {F13.4}
DTCO .US/F                                             : {F13.4}
DTSM .US/F                                             : {F13.4}
RHOB .G/CC                                             : {F13.4}
#-----------------------------------------------------------------------------
# 
#     DEPT        DEPT         DTCO         DTSM         RHOB
#
~A  
# ...
    7599.0    2316.1752     110.2010    -999.2500    -999.2500
    7599.5    2316.3276     108.4077    -999.2500    -999.2500
    7600.0    2316.4800     107.2561    -999.2500    -999.2500
    7600.5    2316.6324     106.8874    -999.2500    -999.2500
    7601.0    2316.7848     105.8724    -999.2500    -999.2500
    7601.5    2316.9372     106.1201    -999.2500    -999.2500
    7602.0    2317.0896     106.0758    -999.2500    -999.2500
    7602.5    2317.2420     104.0509    -999.2500    -999.2500
    7603.0    2317.3944     105.7893    -999.2500    -999.2500
    7603.5    2317.5468     107.5163    -999.2500    -999.2500
    7604.0    2317.6992     105.1732    -999.2500    -999.2500
    7604.5    2317.8516     104.1806    -999.2500    -999.2500
    7605.0    2318.0040     104.6386    -999.2500    -999.2500
    7605.5    2318.1564     103.7510    -999.2500    -999.2500
    7606.0    2318.3088     105.6733    -999.2500    -999.2500
    7606.5    2318.4612     108.3784    -999.2500    -999.2500
    7607.0    2318.6136     108.9831    -999.2500    -999.2500
    7607.5    2318.7660     107.3402    -999.2500    -999.2500
    7608.0    2318.9185     106.0516    -999.2500    -999.2500
    7608.5    2319.0708     107.1749    -999.2500    -999.2500
    7609.0    2319.2231     111.6280    -999.2500    -999.2500
    7609.5    2319.3756     116.0773    -999.2500    -999.2500
    7610.0    2319.5280     119.4216    -999.2500    -999.2500
    7610.5    2319.6804     118.2503    -999.2500    -999.2500
    7611.0    2319.8328     116.8974    -999.2500    -999.2500
    7611.5    2319.9852     117.5864    -999.2500    -999.2500
    7612.0    2320.1376     119.8613    -999.2500    -999.2500
    7612.5    2320.2900     118.9150    -999.2500    -999.2500
    7613.0    2320.4424     116.6811    -999.2500    -999.2500
    7613.5    2320.5948     112.9797    -999.2500    -999.2500
    7614.0    2320.7472     111.2083    -999.2500    -999.2500
    7614.5    2320.8996     112.3334    -999.2500    -999.2500
    7615.0    2321.0520     114.1974    -999.2500    -999.2500
    7615.5    2321.2044     114.2872    -999.2500    -999.2500
    7616.0    2321.3568     112.7823    -999.2500    -999.2500
    7616.5    2321.5092     112.0810    -999.2500    -999.2500
    7617.0    2321.6616     109.7312    -999.2500    -999.2500
    7617.5    2321.8140     110.7015    -999.2500    -999.2500
    7618.0    2321.9664     112.1906    -999.2500    -999.2500
    7618.5    2322.1188     111.8975    -999.2500    -999.2500
    7619.0    2322.2712     112.0138    -999.2500    -999.2500
    7619.5    2322.4236     114.6723    -999.2500    -999.2500
    7620.0    2322.5760     114.3384    -999.2500    -999.2500
    7620.5    2322.7284     116.2735    -999.2500    -999.2500
    7621.0    2322.8809     116.2277    -999.2500    -999.2500
    7621.5    2323.0332     115.0707    -999.2500    -999.2500
    7622.0    2323.1855     115.1609    -999.2500    -999.2500
    7622.5    2323.3380     116.6092    -999.2500    -999.2500
    7623.0    2323.4904     119.4314    -999.2500    -999.2500
    7623.5    2323.6428     117.0406    -999.2500    -999.2500
    7624.0    2323.7952     115.9662    -999.2500    -999.2500
    7624.5    2323.9476     115.4436    -999.2500    -999.2500
    7625.0    2324.1000     115.3557    -999.2500    -999.2500
    7625.5    2324.2524     114.8985    -999.2500    -999.2500
    7626.0    2324.4048     115.4626    -999.2500    -999.2500
    7626.5    2324.5572     114.8708    -999.2500    -999.2500
    7627.0    2324.7096     118.4002    -999.2500    -999.2500
    7627.5    2324.8620     120.7665    -999.2500    -999.2500
    7628.0    2325.0144     121.7807    -999.2500    -999.2500
    7628.5    2325.1668     121.8103    -999.2500    -999.2500
    7629.0    2325.3192     125.4554    -999.2500    -999.2500
    7629.5    2325.4716     127.6237    -999.2500    -999.2500
    7630.0    2325.6240     128.9111    -999.2500    -999.2500
    7630.5    2325.7764     127.4895    -999.2500    -999.2500
    7631.0    2325.9288     125.5701    -999.2500    -999.2500
    7631.5    2326.0812     123.1637    -999.2500    -999.2500
    7632.0    2326.2336     122.6921    -999.2500    -999.2500
    7632.5    2326.3860     125.1016    -999.2500    -999.2500
    7633.0    2326.5384     128.2567    -999.2500    -999.2500
    7633.5    2326.6908     128.2792    -999.2500    -999.2500
    7634.0    2326.8432     127.7379    -999.2500    -999.2500
    7634.5    2326.9956     125.5038    -999.2500    -999.2500
    7635.0    2327.1479     123.6535    -999.2500    -999.2500
    7635.5    2327.3004     121.9162    -999.2500    -999.2500
    7636.0    2327.4528     122.1414    -999.2500    -999.2500
    7636.5    2327.6052     121.8119    -999.2500    -999.2500
    7637.0    2327.7576     122.8913    -999.2500    -999.2500
    7637.5    2327.9100     122.5082    -999.2500    -999.2500
    7638.0    2328.0624     122.3922    -999.2500    -999.2500
    7638.5    2328.2148     120.4617    -999.2500    -999.2500
    7639.0    2328.3672     118.4013    -999.2500    -999.2500
    7639.5    2328.5196     119.3888    -999.2500    -999.2500
    7640.0    2328.6720     119.3306    -999.2500    -999.2500
    7640.5    2328.8244     117.1115    -999.2500    -999.2500
    7641.0    2328.9768     118.4339    -999.2500    -999.2500
    7641.5    2329.1292     120.9924    -999.2500    -999.2500
    7642.0    2329.2816     121.7800    -999.2500    -999.2500
    7642.5    2329.4340     121.8709    -999.2500    -999.2500
    7643.0    2329.5864     121.2166    -999.2500    -999.2500
    7643.5    2329.7388     121.6002    -999.2500    -999.2500
    7644.0    2329.8912     122.3229    -999.2500    -999.2500
    7644.5    2330.0436     123.5639    -999.2500    -999.2500
    7645.0    2330.1960     124.2645    -999.2500    -999.2500
    7645.5    2330.3484     125.5708    -999.2500    -999.2500
    7646.0    2330.5008     125.1412    -999.2500    -999.2500
    7646.5    2330.6532     124.3536    -999.2500    -999.2500
    7647.0    2330.8056     126.2025    -999.2500    -999.2500
    7647.5    2330.9580     124.2402    -999.2500    -999.2500
    7648.0    2331.1104     120.9909    -999.2500    -999.2500
    7648.5    2331.2628     122.5265    -999.2500    -999.2500
    7649.0    2331.4152     124.2661    -999.2500    -999.2500
    7649.5    2331.5676     127.3789    -999.2500    -999.2500
    7650.0    2331.7200     128.9743    -999.2500    -999.2500
    7650.5    2331.8724     126.4935    -999.2500    -999.2500
    7651.0    2332.0248     125.0135    -999.2500    -999.2500
    7651.5    2332.1772     125.5267    -999.2500    -999.2500
    7652.0    2332.3296     124.4234    -999.2500    -999.2500
    7652.5    2332.4820     124.1602    -999.2500    -999.2500
    7653.0    2332.6344     125.1741    -999.2500    -999.2500
    7653.5    2332.7868     126.0503    -999.2500    -999.2500
    7654.0    2332.9392     125.7067    -999.2500    -999.2500
    7654.5    2333.0916     126.3568    -999.2500    -999.2500
    7655.0    2333.2440     127.4434    -999.2500    -999.2500
    7655.5    2333.3964     125.8711    -999.2500    -999.2500
    7656.0    2333.5488     125.0513    -999.2500    -999.2500
    7656.5    2333.7012     124.4617    -999.2500    -999.2500
    7657.0    2333.8536     123.9085    -999.2500    -999.2500
    7657.5    2334.0060     123.3380    -999.2500    -999.2500
    7658.0    2334.1584     123.7408    -999.2500    -999.2500
    7658.5    2334.3108     124.6796    -999.2500    -999.2500
    7659.0    2334.4632     125.0527    -999.2500    -999.2500
    7659.5    2334.6156     125.1202    -999.2500    -999.2500
    7660.0    2334.7680     125.4175    -999.2500    -999.2500
    7660.5    2334.9204     124.5273    -999.2500    -999.2500
    7661.0    2335.0728     124.4822    -999.2500    -999.2500
    7661.5    2335.2252     124.0315    -999.2500    -999.2500
    7662.0    2335.3776     124.9085    -999.2500    -999.2500
