~VERSION INFORMATION
VERS.           2.0   :CWLS Log ASCII Standard - VERSION 2.0
WRAP.           NO    :One Line per depth step
PROD.  Schlumberger   :LAS Producer
PROG.  DLIS to ASCII 2.3                               :LAS Program name and version
CREA.        2019/03/12 22:31                          :LAS Creation date {YYYY/MM/DD hh:mm}
DLIS_CREA.  2019-Mar-12 22:09                          :DLIS Creation date and time {YYYY-MMM-DD hh:mm}
SOURCE.     LIStoDLIS.dlis                             :DLIS File Name
#--------------------------------------------------
~WELL INFORMATION
#MNEM.UNIT      DATA             DESCRIPTION
#---- ------ --------------   -----------------------------
STRT .F         3281.0       :START DEPTH     
STOP .F        12467.0       :STOP DEPTH     
STEP .F            0.5       :STEP     
NULL .          -999.25      :NULL VALUE
COMP .        StatoilHydro                             :COMPANY
WELL .        15/9-F-14                                :WELL
FLD  .        Volve                                    :FIELD
LOC  .        Norwegian North Sea                      :LOCATION
CNTY .        Maersk Inspirer                          :COUNTY
STAT .        Norway                                   :STATE
CTRY .                                                 :COUNTRY
API  .                                                 :API NUMBER
UWI  .                                                 :UNIQUE WELL ID
DATE .                                                 :LOG DATE
SRVC .        Schlumberger                             :SERVICE COMPANY
LATI .DEG     058 26' 29.769" N    DMS                 :LATITUDE
LONG .DEG     001 53' 15.079" E    DMS                 :LONGITUDE
GDAT .                                                 :GeoDetic Datum
#-----------------------------------------------------------------------------
~PARAMETER INFORMATION
#MNEM.UNIT    VALUE                      DESCRIPTION
#---- -----   --------------------       ------------------------
RUN  .                                   :RUN NUMBER
PDAT .                                   :Permanent Datum
EPD  .                                   :Elevation of Permanent Datum above Mean Sea Level
LMF  .          DF                       :Logging Measured From (Name of Logging Elevation Reference)
APD  .M          54.900002               :Elevation of Depth Reference (LMF) above Permanent Datum
#-----------------------------------------------------------------------------
~CURVE INFORMATION
#MNEM.UNIT   API CODE                                  DESCRIPTION
#---- -----  --------                                  -----------------------
DEPT .F                                                :DEPTH (BOREHOLE) {F10.1}
DEPT .M                                                : {F13.4}
DTCO .US/F                                             : {F13.4}
DTSM .US/F                                             : {F13.4}
RHOB .G/CC                                             : {F13.4}
#-----------------------------------------------------------------------------
# 
#     DEPT        DEPT         DTCO         DTSM         RHOB
#
~A  
# ...
    8170.5    2490.3684     115.4752    -999.2500    -999.2500
    8171.0    2490.5208     117.8323    -999.2500    -999.2500
    8171.5    2490.6732     114.5814    -999.2500    -999.2500
    8172.0    2490.8256     111.8200    -999.2500    -999.2500
    8172.5    2490.9780     111.0132    -999.2500    -999.2500
    8173.0    2491.1304     113.9643    -999.2500    -999.2500
    8173.5    2491.2828     118.9189    -999.2500    -999.2500
    8174.0    2491.4352     124.9175    -999.2500    -999.2500
    8174.5    2491.5876     126.4880    -999.2500    -999.2500
    8175.0    2491.7400     125.9022    -999.2500    -999.2500
    8175.5    2491.8924     123.3942    -999.2500    -999.2500
    8176.0    2492.0448     121.1386    -999.2500    -999.2500
    8176.5    2492.1972     121.1928    -999.2500    -999.2500
    8177.0    2492.3496     122.1691    -999.2500    -999.2500
    8177.5    2492.5020     125.0074    -999.2500    -999.2500
    8178.0    2492.6544     125.8212    -999.2500    -999.2500
    8178.5    2492.8068     128.0727    -999.2500    -999.2500
    8179.0    2492.9592     124.7795    -999.2500    -999.2500
    8179.5    2493.1116     123.1514    -999.2500    -999.2500
    8180.0    2493.2640     119.9419    -999.2500    -999.2500
    8180.5    2493.4164     114.8117    -999.2500    -999.2500
    8181.0    2493.5688     109.4379    -999.2500    -999.2500
    8181.5    2493.7212     107.0009    -999.2500    -999.2500
    8182.0    2493.8736     105.6042    -999.2500    -999.2500
    8182.5    2494.0260     111.0659    -999.2500    -999.2500
    8183.0    2494.1784     115.3072    -999.2500    -999.2500
    8183.5    2494.3308     117.5143    -999.2500    -999.2500
    8184.0    2494.4832     116.4323    -999.2500    -999.2500
    8184.5    2494.6356     116.1173    -999.2500    -999.2500
    8185.0    2494.7880     113.5912    -999.2500    -999.2500
    8185.5    2494.9404     107.6327    -999.2500    -999.2500
    8186.0    2495.0928     102.6234    -999.2500    -999.2500
    8186.5    2495.2452      97.8385    -999.2500    -999.2500
    8187.0    2495.3976      95.6736    -999.2500    -999.2500
    8187.5    2495.5500      95.7640    -999.2500    -999.2500
    8188.0    2495.7024      95.9436    -999.2500    -999.2500
    8188.5    2495.8548      95.4913    -999.2500    -999.2500
    8189.0    2496.0072      94.6363    -999.2500    -999.2500
    8189.5    2496.1596      93.5981    -999.2500    -999.2500
    8190.0    2496.3120      93.4171    -999.2500    -999.2500
    8190.5    2496.4644      93.9135    -999.2500    -999.2500
    8191.0    2496.6168      94.8840    -999.2500    -999.2500
    8191.5    2496.7692      95.2439    -999.2500    -999.2500
    8192.0    2496.9216      94.3675    -999.2500    -999.2500
    8192.5    2497.0740      96.3281    -999.2500    -999.2500
    8193.0    2497.2264      96.4202    -999.2500    -999.2500
    8193.5    2497.3788      97.3878    -999.2500    -999.2500
    8194.0    2497.5313      97.4110    -999.2500    -999.2500
    8194.5    2497.6836      97.0725    -999.2500    -999.2500
    8195.0    2497.8360      98.3815    -999.2500    -999.2500
    8195.5    2497.9884      98.9911    -999.2500    -999.2500
    8196.0    2498.1408      99.7337    -999.2500    -999.2500
    8196.5    2498.2932      98.5151    -999.2500    -999.2500
    8197.0    2498.4456      97.5029    -999.2500    -999.2500
    8197.5    2498.5980      98.4030    -999.2500    -999.2500
    8198.0    2498.7504      99.4638    -999.2500    -999.2500
    8198.5    2498.9028      99.8254    -999.2500    -999.2500
    8199.0    2499.0552      99.0356    -999.2500    -999.2500
    8199.5    2499.2076      98.1328    -999.2500    -999.2500
    8200.0    2499.3600      97.5690    -999.2500    -999.2500
    8200.5    2499.5124      97.5943    -999.2500    -999.2500
    8201.0    2499.6648      98.2502    -999.2500    -999.2500
    8201.5    2499.8172      97.3420    -999.2500    -999.2500
    8202.0    2499.9696      96.6895    -999.2500    -999.2500
    8202.5    2500.1220      97.2753    -999.2500    -999.2500
    8203.0    2500.2744      99.0808    -999.2500    -999.2500
    8203.5    2500.4268      99.6449    -999.2500    -999.2500
    8204.0    2500.5792      98.6966    -999.2500    -999.2500
    8204.5    2500.7316      97.7552    -999.2500    -999.2500
    8205.0    2500.8840      98.5374    -999.2500    -999.2500
    8205.5    2501.0364      99.3451    -999.2500    -999.2500
    8206.0    2501.1888     102.3947    -999.2500    -999.2500
    8206.5    2501.3412     104.0252    -999.2500    -999.2500
    8207.0    2501.4937     107.1093    -999.2500    -999.2500
    8207.5    2501.6460     108.4147    -999.2500    -999.2500
    8208.0    2501.7984     109.0832    -999.2500    -999.2500
    8208.5    2501.9508     106.1053    -999.2500    -999.2500
    8209.0    2502.1032     101.4508    -999.2500    -999.2500
    8209.5    2502.2556      96.1496    -999.2500    -999.2500
    8210.0    2502.4080      90.4449    -999.2500    -999.2500
    8210.5    2502.5604      89.0590    -999.2500    -999.2500
    8211.0    2502.7128      90.1746    -999.2500    -999.2500
    8211.5    2502.8652      93.2143    -999.2500    -999.2500
    8212.0    2503.0176      92.0810    -999.2500    -999.2500
    8212.5    2503.1700      91.6975    -999.2500    -999.2500
    8213.0    2503.3224      92.6274    -999.2500    -999.2500
    8213.5    2503.4748      92.9378    -999.2500    -999.2500
    8214.0    2503.6272      92.6299    -999.2500    -999.2500
    8214.5    2503.7796      91.2499    -999.2500    -999.2500
    8215.0    2503.9320      85.2526    -999.2500    -999.2500
    8215.5    2504.0844      83.9328    -999.2500    -999.2500
    8216.0    2504.2368      83.5233    -999.2500    -999.2500
    8216.5    2504.3892      83.8590    -999.2500    -999.2500
    8217.0    2504.5416      84.6113    -999.2500    -999.2500
    8217.5    2504.6940      84.3963    -999.2500    -999.2500
    8218.0    2504.8464      86.4812    -999.2500    -999.2500
    8218.5    2504.9988      87.5890    -999.2500    -999.2500
    8219.0    2505.1512      87.1479    -999.2500    -999.2500
    8219.5    2505.3036      86.9939    -999.2500    -999.2500
    8220.0    2505.4561      83.4604    -999.2500    -999.2500
    8220.5    2505.6084      81.1478    -999.2500    -999.2500
    8221.0    2505.7607      82.3021    -999.2500    -999.2500
    8221.5    2505.9132      83.6574    -999.2500    -999.2500
    8222.0    2506.0656      87.7154    -999.2500    -999.2500
    8222.5    2506.2180      91.2971    -999.2500    -999.2500
    8223.0    2506.3704      91.7745    -999.2500    -999.2500
    8223.5    2506.5228      90.1384    -999.2500    -999.2500
    8224.0    2506.6752      88.7514    -999.2500    -999.2500
    8224.5    2506.8276      87.5513    -999.2500    -999.2500
    8225.0    2506.9800      88.4347    -999.2500    -999.2500
    8225.5    2507.1324      91.5449    -999.2500    -999.2500
    8226.0    2507.2848      93.2583    -999.2500    -999.2500
    8226.5    2507.4372      93.9278    -999.2500    -999.2500
    8227.0    2507.5896      92.9220    -999.2500    -999.2500
    8227.5    2507.7420      92.9231    -999.2500    -999.2500
    8228.0    2507.8944      93.4735    -999.2500    -999.2500
    8228.5    2508.0468      97.3324    -999.2500    -999.2500
    8229.0    2508.1992     106.3000    -999.2500    -999.2500
    8229.5    2508.3516     114.9071    -999.2500    -999.2500
    8230.0    2508.5040     120.2818    -999.2500    -999.2500
    8230.5    2508.6564     121.4984    -999.2500    -999.2500
    8231.0    2508.8088     119.3385    -999.2500    -999.2500
    8231.5    2508.9612     120.7139    -999.2500    -999.2500
    8232.0    2509.1136     117.0999    -999.2500    -999.2500
    8232.5    2509.2660     112.3748    -999.2500    -999.2500
    8233.0    2509.4185     108.1743    -999.2500    -999.2500
    8233.5    2509.5708     102.8942    -999.2500    -999.2500
