~VERSION INFORMATION
VERS.           2.0   :CWLS Log ASCII Standard - VERSION 2.0
WRAP.           NO    :One Line per depth step
PROD.  Schlumberger   :LAS Producer
PROG.  DLIS to ASCII 2.3                               :LAS Program name and version
CREA.        2019/03/12 22:31                          :LAS Creation date {YYYY/MM/DD hh:mm}
DLIS_CREA.  2019-Mar-12 22:09                          :DLIS Creation date and time {YYYY-MMM-DD hh:mm}
SOURCE.     LIStoDLIS.dlis                             :DLIS File Name
#--------------------------------------------------
~WELL INFORMATION
#MNEM.UNIT      DATA             DESCRIPTION
#---- ------ --------------   -----------------------------
STRT .F         3281.0       :START DEPTH     
STOP .F        12467.0       :STOP DEPTH     
STEP .F            0.5       :STEP     
NULL .          -999.25      :NULL VALUE
COMP .        StatoilHydro                             :COMPANY
WELL .        15/9-F-14                                :WELL
FLD  .        Volve                                    :FIELD
LOC  .        Norwegian North Sea                      :LOCATION
CNTY .        Maersk Inspirer                          :COUNTY
STAT .        Norway                                   :STATE
CTRY .                                                 :COUNTRY
API  .                                                 :API NUMBER
UWI  .                                                 :UNIQUE WELL ID
DATE .                                                 :LOG DATE
SRVC .        Schlumberger                             :SERVICE COMPANY
LATI .DEG     058 26' 29.769" N    DMS                 :LATITUDE
LONG .DEG     001 53' 15.079" E    DMS                 :LONGITUDE
GDAT .                                                 :GeoDetic Datum
#-----------------------------------------------------------------------------
~PARAMETER INFORMATION
#MNEM.UNIT    VALUE                      DESCRIPTION
#---- -----   --------------------       ------------------------
RUN  .                                   :RUN NUMBER
PDAT .                                   :Permanent Datum
EPD  .                                   :Elevation of Permanent Datum above Mean Sea Level
LMF  .          DF                       :Logging Measured From (Name of Logging Elevation Reference)
APD  .M          54.900002               :Elevation of Depth Reference (LMF) above Permanent Datum
#-----------------------------------------------------------------------------
~CURVE INFORMATION
#MNEM.UNIT   API CODE                                  DESCRIPTION
#---- -----  --------                                  -----------------------
DEPT .F                                                :DEPTH (BOREHOLE) {F10.1}
DEPT .M                                                : {F13.4}
DTCO .US/F                                             : {F13.4}
DTSM .US/F                                             : {F13.4}
RHOB .G/CC                                             : {F13.4}
#-----------------------------------------------------------------------------
# 
#     DEPT        DEPT         DTCO         DTSM         RHOB
#
~A  
# ...
    4170.0    1271.0160     145.7411    -999.2500    -999.2500
    4170.5    1271.1685     145.7345    -999.2500    -999.2500
    4171.0    1271.3208     145.2675    -999.2500    -999.2500
    4171.5    1271.4731     145.2510    -999.2500    -999.2500
    4172.0    1271.6256     145.0643    -999.2500    -999.2500
    4172.5    1271.7780     145.2443    -999.2500    -999.2500
    4173.0    1271.9304     145.4378    -999.2500    -999.2500
    4173.5    1272.0828     145.5378    -999.2500    -999.2500
    4174.0    1272.2352     145.0742    -999.2500    -999.2500
    4174.5    1272.3876     145.2442    -999.2500    -999.2500
    4175.0    1272.5400     145.0642    -999.2500    -999.2500
    4175.5    1272.6924     145.2444    -999.2500    -999.2500
    4176.0    1272.8448     145.5310    -999.2500    -999.2500
    4176.5    1272.9972     145.0738    -999.2500    -999.2500
    4177.0    1273.1497     144.6840    -999.2500    -999.2500
    4177.5    1273.3020     144.8575    -999.2500    -999.2500
    4178.0    1273.4543     144.8642    -999.2500    -999.2500
    4178.5    1273.6068     144.2096    -999.2500    -999.2500
    4179.0    1273.7592     143.1589    -999.2500    -999.2500
    4179.5    1273.9116     142.2829    -999.2500    -999.2500
    4180.0    1274.0640     141.6927    -999.2500    -999.2500
    4180.5    1274.2164     142.0474    -999.2500    -999.2500
    4181.0    1274.3688     143.5535    -999.2500    -999.2500
    4181.5    1274.5212     142.9532    -999.2500    -999.2500
    4182.0    1274.6736     142.2763    -999.2500    -999.2500
    4182.5    1274.8260     141.6919    -999.2500    -999.2500
    4183.0    1274.9784     139.8041    -999.2500    -999.2500
    4183.5    1275.1309     138.8982    -999.2500    -999.2500
    4184.0    1275.2832     138.9619    -999.2500    -999.2500
    4184.5    1275.4355     139.5255    -999.2500    -999.2500
    4185.0    1275.5880     140.8535    -999.2500    -999.2500
    4185.5    1275.7404     141.6472    -999.2500    -999.2500
    4186.0    1275.8928     142.3267    -999.2500    -999.2500
    4186.5    1276.0452     143.5640    -999.2500    -999.2500
    4187.0    1276.1976     143.4200    -999.2500    -999.2500
    4187.5    1276.3500     143.0405    -999.2500    -999.2500
    4188.0    1276.5024     143.5872    -999.2500    -999.2500
    4188.5    1276.6548     143.3268    -999.2500    -999.2500
    4189.0    1276.8072     142.7569    -999.2500    -999.2500
    4189.5    1276.9596     143.5773    -999.2500    -999.2500
    4190.0    1277.1120     143.6070    -999.2500    -999.2500
    4190.5    1277.2644     144.2608    -999.2500    -999.2500
    4191.0    1277.4167     144.2839    -999.2500    -999.2500
    4191.5    1277.5692     144.6573    -999.2500    -999.2500
    4192.0    1277.7216     144.3905    -999.2500    -999.2500
    4192.5    1277.8740     144.2872    -999.2500    -999.2500
    4193.0    1278.0264     144.6575    -999.2500    -999.2500
    4193.5    1278.1788     144.8574    -999.2500    -999.2500
    4194.0    1278.3312     144.6785    -999.2500    -999.2500
    4194.5    1278.4836     145.8849    -999.2500    -999.2500
    4195.0    1278.6360     146.0213    -999.2500    -999.2500
    4195.5    1278.7884     146.2114    -999.2500    -999.2500
    4196.0    1278.9408     146.2182    -999.2500    -999.2500
    4196.5    1279.0932     146.4048    -999.2500    -999.2500
    4197.0    1279.2456     146.5049    -999.2500    -999.2500
    4197.5    1279.3979     146.3214    -999.2500    -999.2500
    4198.0    1279.5504     145.9409    -999.2500    -999.2500
    4198.5    1279.7028     145.5549    -999.2500    -999.2500
    4199.0    1279.8552     146.1015    -999.2500    -999.2500
    4199.5    1280.0076     146.1213    -999.2500    -999.2500
    4200.0    1280.1600     146.4017    -999.2500    -999.2500
    4200.5    1280.3124     146.5979    -999.2500    -999.2500
    4201.0    1280.4648     146.2313    -999.2500    -999.2500
    4201.5    1280.6172     146.7784    -999.2500    -999.2500
    4202.0    1280.7696     146.2379    -999.2500    -999.2500
    4202.5    1280.9220     146.2180    -999.2500    -999.2500
    4203.0    1281.0744     146.1247    -999.2500    -999.2500
    4203.5    1281.2268     146.6817    -999.2500    -999.2500
    4204.0    1281.3792     147.0752    -999.2500    -999.2500
    4204.5    1281.5316     146.3408    -999.2500    -999.2500
    4205.0    1281.6840     145.7534    -999.2500    -999.2500
    4205.5    1281.8364     144.8939    -999.2500    -999.2500
    4206.0    1281.9888     144.8642    -999.2500    -999.2500
    4206.5    1282.1412     145.8920    -999.2500    -999.2500
    4207.0    1282.2936     146.6750    -999.2500    -999.2500
    4207.5    1282.4460     146.5148    -999.2500    -999.2500
    4208.0    1282.5984     146.9751    -999.2500    -999.2500
    4208.5    1282.7508     146.4309    -999.2500    -999.2500
    4209.0    1282.9032     145.4771    -999.2500    -999.2500
    4209.5    1283.0556     145.0710    -999.2500    -999.2500
    4210.0    1283.2080     145.2444    -999.2500    -999.2500
    4210.5    1283.3604     146.2784    -999.2500    -999.2500
    4211.0    1283.5128     147.0620    -999.2500    -999.2500
    4211.5    1283.6652     147.1814    -999.2500    -999.2500
    4212.0    1283.8176     146.8115    -999.2500    -999.2500
    4212.5    1283.9700     145.7709    -999.2500    -999.2500
    4213.0    1284.1224     145.5480    -999.2500    -999.2500
    4213.5    1284.2748     146.1020    -999.2500    -999.2500
    4214.0    1284.4272     146.5883    -999.2500    -999.2500
    4214.5    1284.5796     145.1105    -999.2500    -999.2500
    4215.0    1284.7320     143.4692    -999.2500    -999.2500
    4215.5    1284.8844     142.1988    -999.2500    -999.2500
    4216.0    1285.0368     141.5029    -999.2500    -999.2500
    4216.5    1285.1892     143.4409    -999.2500    -999.2500
    4217.0    1285.3416     145.5651    -999.2500    -999.2500
    4217.5    1285.4940     148.4391    -999.2500    -999.2500
    4218.0    1285.6464     147.4170    -999.2500    -999.2500
    4218.5    1285.7988     146.3511    -999.2500    -999.2500
    4219.0    1285.9512     145.1006    -999.2500    -999.2500
    4219.5    1286.1036     143.2832    -999.2500    -999.2500
    4220.0    1286.2560     143.5940    -999.2500    -999.2500
    4220.5    1286.4084     143.7938    -999.2500    -999.2500
    4221.0    1286.5608     143.8004    -999.2500    -999.2500
    4221.5    1286.7132     143.8938    -999.2500    -999.2500
    4222.0    1286.8656     143.8036    -999.2500    -999.2500
    4222.5    1287.0180     143.6137    -999.2500    -999.2500
    4223.0    1287.1704     143.8872    -999.2500    -999.2500
    4223.5    1287.3228     142.7763    -999.2500    -999.2500
    4224.0    1287.4752     143.3914    -999.2500    -999.2500
    4224.5    1287.6276     144.8151    -999.2500    -999.2500
    4225.0    1287.7800     145.3311    -999.2500    -999.2500
    4225.5    1287.9324     145.5345    -999.2500    -999.2500
    4226.0    1288.0848     144.0465    -999.2500    -999.2500
    4226.5    1288.2372     143.6194    -999.2500    -999.2500
    4227.0    1288.3896     142.7664    -999.2500    -999.2500
    4227.5    1288.5420     143.0168    -999.2500    -999.2500
    4228.0    1288.6944     143.5868    -999.2500    -999.2500
    4228.5    1288.8468     142.6724    -999.2500    -999.2500
    4229.0    1288.9992     141.8931    -999.2500    -999.2500
    4229.5    1289.1516     141.9597    -999.2500    -999.2500
    4230.0    1289.3040     141.9630    -999.2500    -999.2500
    4230.5    1289.4564     142.0566    -999.2500    -999.2500
    4231.0    1289.6088     142.3409    -999.2500    -999.2500
    4231.5    1289.7612     143.2838    -999.2500    -999.2500
    4232.0    1289.9136     143.9707    -999.2500    -999.2500
    4232.5    1290.0660     145.8622    -999.2500    -999.2500
    4233.0    1290.2184     146.5830    -999.2500    -999.2500
