~VERSION INFORMATION
VERS.           2.0   :CWLS Log ASCII Standard - VERSION 2.0
WRAP.           NO    :One Line per depth step
PROD.  Schlumberger   :LAS Producer
PROG.  DLIS to ASCII 2.3                               :LAS Program name and version
CREA.        2019/03/12 22:31                          :LAS Creation date {YYYY/MM/DD hh:mm}
DLIS_CREA.  2019-Mar-12 22:09                          :DLIS Creation date and time {YYYY-MMM-DD hh:mm}
SOURCE.     LIStoDLIS.dlis                             :DLIS File Name
#--------------------------------------------------
~WELL INFORMATION
#MNEM.UNIT      DATA             DESCRIPTION
#---- ------ --------------   -----------------------------
STRT .F         3281.0       :START DEPTH     
STOP .F        12467.0       :STOP DEPTH     
STEP .F            0.5       :STEP     
NULL .          -999.25      :NULL VALUE
COMP .        StatoilHydro                             :COMPANY
WELL .        15/9-F-14                                :WELL
FLD  .        Volve                                    :FIELD
LOC  .        Norwegian North Sea                      :LOCATION
CNTY .        Maersk Inspirer                          :COUNTY
STAT .        Norway                                   :STATE
CTRY .                                                 :COUNTRY
API  .                                                 :API NUMBER
UWI  .                                                 :UNIQUE WELL ID
DATE .                                                 :LOG DATE
SRVC .        Schlumberger                             :SERVICE COMPANY
LATI .DEG     058 26' 29.769" N    DMS                 :LATITUDE
LONG .DEG     001 53' 15.079" E    DMS                 :LONGITUDE
GDAT .                                                 :GeoDetic Datum
#-----------------------------------------------------------------------------
~PARAMETER INFORMATION
#MNEM.UNIT    VALUE                      DESCRIPTION
#---- -----   --------------------       ------------------------
RUN  .                                   :RUN NUMBER
PDAT .                                   :Permanent Datum
EPD  .                                   :Elevation of Permanent Datum above Mean Sea Level
LMF  .          DF                       :Logging Measured From (Name of Logging Elevation Reference)
APD  .M          54.900002               :Elevation of Depth Reference (LMF) above Permanent Datum
#-----------------------------------------------------------------------------
~CURVE INFORMATION
#MNEM.UNIT   API CODE                                  DESCRIPTION
#---- -----  --------                                  -----------------------
DEPT .F                                                :DEPTH (BOREHOLE) {F10.1}
DEPT .M                                                : {F13.4}
DTCO .US/F                                             : {F13.4}
DTSM .US/F                                             : {F13.4}
RHOB .G/CC                                             : {F13.4}
#-----------------------------------------------------------------------------
# 
#     DEPT        DEPT         DTCO         DTSM         RHOB
#
~A  
# ...
    9948.5    3032.3028      83.0040     141.8052       2.2390
    9949.0    3032.4552      82.4299     141.9440       2.2509
    9949.5    3032.6076      82.8631     140.8138       2.2627
    9950.0    3032.7600      85.7202     139.5012       2.2823
    9950.5    3032.9124      85.5296     140.1006       2.2966
    9951.0    3033.0648      84.5135     140.5499       2.3038
    9951.5    3033.2172      83.6394     141.5632       2.2968
    9952.0    3033.3696      86.8381     143.2979       2.2814
    9952.5    3033.5220      87.5066     145.2873       2.2681
    9953.0    3033.6744      84.0603     146.4644       2.2551
    9953.5    3033.8268      82.2755     146.5781       2.2571
    9954.0    3033.9792      83.4459     146.2424       2.2696
    9954.5    3034.1316      86.3422     145.2482       2.2863
    9955.0    3034.2840      84.9508     143.9994       2.2930
    9955.5    3034.4364      79.9226     143.0085       2.2852
    9956.0    3034.5888      79.5105     143.4317       2.2802
    9956.5    3034.7412      80.4439     142.6266       2.2733
    9957.0    3034.8936      79.3192     142.5591       2.2633
    9957.5    3035.0460      76.9855     142.4920       2.2489
    9958.0    3035.1984      74.3543     142.8677       2.2462
    9958.5    3035.3508      74.7279     143.5568       2.2694
    9959.0    3035.5032      74.0717     143.1305       2.3106
    9959.5    3035.6556      74.9323     146.0816       2.3636
    9960.0    3035.8080      76.6530     148.9241       2.3794
    9960.5    3035.9604      77.5560     147.9375       2.3873
    9961.0    3036.1128      77.2105     143.4378       2.3574
    9961.5    3036.2652      76.2753     141.1894       2.3513
    9962.0    3036.4176      76.6810     141.3484       2.3449
    9962.5    3036.5700      76.1128     141.7698       2.3580
    9963.0    3036.7224      75.4143     141.9820       2.3565
    9963.5    3036.8748      75.8990     142.5444       2.3471
    9964.0    3037.0272      76.0743     143.0980       2.3326
    9964.5    3037.1796      75.5569     145.5246       2.3131
    9965.0    3037.3320      75.1837     147.6235       2.2980
    9965.5    3037.4844      74.0725     147.0048       2.3015
    9966.0    3037.6368      73.0237     148.3395       2.3300
    9966.5    3037.7892      72.7356     148.3160       2.3818
    9967.0    3037.9416      74.3853     149.0857       2.4113
    9967.5    3038.0940      75.5482     150.0252       2.4221
    9968.0    3038.2464      75.1666     150.1999       2.4121
    9968.5    3038.3988      74.1584     150.4614       2.4167
    9969.0    3038.5512      70.4387     150.7946       2.4337
    9969.5    3038.7036      71.1785     150.6848       2.4486
    9970.0    3038.8560      76.1913     150.7151       2.4789
    9970.5    3039.0084      75.9044     150.7186       2.4979
    9971.0    3039.1608      75.7690     150.1408       2.5310
    9971.5    3039.3132      75.2014     151.0503       2.5199
    9972.0    3039.4656      75.9824     150.4239       2.4967
    9972.5    3039.6180      76.7200     147.9494       2.4640
    9973.0    3039.7704      77.1824     145.0455       2.4456
    9973.5    3039.9229      79.2126     142.4295       2.4398
    9974.0    3040.0752      82.3156     140.4106       2.4601
    9974.5    3040.2276      82.5601     140.4790       2.4853
    9975.0    3040.3800      81.5169     141.0040       2.5086
    9975.5    3040.5324      79.0186     142.9136       2.5123
    9976.0    3040.6848      78.0923     148.5242       2.5117
    9976.5    3040.8372      77.5532     154.3047       2.5133
    9977.0    3040.9896      77.6380     152.5118       2.5063
    9977.5    3041.1420      80.9127     150.3957       2.5029
    9978.0    3041.2944      82.2076     146.8387       2.4999
    9978.5    3041.4468      81.2595     143.3008       2.5038
    9979.0    3041.5992      81.1331     143.8227       2.5119
    9979.5    3041.7516      81.3092     144.3581       2.5128
    9980.0    3041.9040      82.7624     145.7356       2.4695
    9980.5    3042.0564      81.2577     146.0487       2.4178
    9981.0    3042.2088      81.7239     148.1577       2.3656
    9981.5    3042.3612      85.0097     150.9459       2.3430
    9982.0    3042.5136      91.4707     152.0213       2.3087
    9982.5    3042.6660      91.7734     154.4138       2.2888
    9983.0    3042.8184      88.6158     158.2487       2.2684
    9983.5    3042.9708      87.5923     162.4643       2.2566
    9984.0    3043.1232      88.1823     162.1470       2.2398
    9984.5    3043.2756      88.3314     161.9889       2.2223
    9985.0    3043.4280      89.2444     160.0482       2.2091
    9985.5    3043.5804      90.6429     151.2835       2.1995
    9986.0    3043.7328      90.2160     154.7528       2.1931
    9986.5    3043.8853      87.8429     156.5284       2.1827
    9987.0    3044.0376      84.5048     159.3013       2.1706
    9987.5    3044.1899      81.7950     160.5375       2.1640
    9988.0    3044.3424      78.7736     161.9518       2.1725
    9988.5    3044.4948      80.8933     162.4833       2.1800
    9989.0    3044.6472      84.2211     162.2913       2.1908
    9989.5    3044.7996      88.7893     163.8678       2.1846
    9990.0    3044.9520      91.8318     165.8125       2.1736
    9990.5    3045.1044      91.9616     164.0172       2.1543
    9991.0    3045.2568      88.8386     163.6227       2.1456
    9991.5    3045.4092      89.7102     163.7823       2.1419
    9992.0    3045.5616      91.7528     162.5352       2.1474
    9992.5    3045.7140      91.2164     159.2143       2.1489
    9993.0    3045.8664      89.8228     155.1392       2.1543
    9993.5    3046.0188      87.3122     148.0681       2.1599
    9994.0    3046.1712      84.4812     142.2121       2.1913
    9994.5    3046.3236      81.3410     137.7831       2.2337
    9995.0    3046.4760      79.2152     134.8732       2.2929
    9995.5    3046.6284      79.5582     133.4913       2.3181
    9996.0    3046.7808      79.7726     136.0551       2.3306
    9996.5    3046.9332      79.9742     138.7684       2.3277
    9997.0    3047.0856      78.7176     139.8928       2.3371
    9997.5    3047.2380      81.4116     140.9870       2.3413
    9998.0    3047.3904      84.6743     141.7852       2.3436
    9998.5    3047.5428      86.0293     141.7499       2.3466
    9999.0    3047.6952      85.0154     140.1004       2.3487
    9999.5    3047.8477      84.6536     139.8967       2.3446
   10000.0    3048.0000      84.6628     138.4425       2.3293
   10000.5    3048.1523      85.3347     135.5650       2.3103
   10001.0    3048.3048      85.1544     135.5585       2.2960
   10001.5    3048.4572      85.3450     135.5247       2.2837
   10002.0    3048.6096      86.3204     136.9220       2.2712
   10002.5    3048.7620      86.6975     138.3881       2.2595
   10003.0    3048.9144      86.9267     139.9455       2.2411
   10003.5    3049.0668      87.4111     142.9646       2.2350
   10004.0    3049.2192      87.9276     145.0045       2.2240
   10004.5    3049.3716      88.0270     145.5235       2.2207
   10005.0    3049.5240      88.5914     146.1600       2.2073
   10005.5    3049.6764      87.8287     146.0451       2.2069
   10006.0    3049.8288      87.6418     145.7823       2.2036
   10006.5    3049.9812      88.0904     146.4034       2.2031
   10007.0    3050.1336      87.5936     147.8362       2.1965
   10007.5    3050.2860      88.4528     148.3735       2.1886
   10008.0    3050.4384      89.1746     147.3521       2.1809
   10008.5    3050.5908      88.8294     145.9137       2.1758
   10009.0    3050.7432      87.8620     145.1135       2.1727
   10009.5    3050.8956      87.5827     146.2635       2.1658
   10010.0    3051.0480      87.4618     148.2932       2.1569
   10010.5    3051.2004      88.5035     149.2730       2.1530
   10011.0    3051.3528      88.9100     149.4498       2.1591
   10011.5    3051.5052      88.1773     149.4976       2.1643
