~VERSION INFORMATION
VERS.           2.0   :CWLS Log ASCII Standard - VERSION 2.0
WRAP.           NO    :One Line per depth step
PROD.  Schlumberger   :LAS Producer
PROG.  DLIS to ASCII 2.3                               :LAS Program name and version
CREA.        2019/03/12 22:31                          :LAS Creation date {YYYY/MM/DD hh:mm}
DLIS_CREA.  2019-Mar-12 22:09                          :DLIS Creation date and time {YYYY-MMM-DD hh:mm}
SOURCE.     LIStoDLIS.dlis                             :DLIS File Name
#--------------------------------------------------
~WELL INFORMATION
#MNEM.UNIT      DATA             DESCRIPTION
#---- ------ --------------   -----------------------------
STRT .F         3281.0       :START DEPTH     
STOP .F        12467.0       :STOP DEPTH     
STEP .F            0.5       :STEP     
NULL .          -999.25      :NULL VALUE
COMP .        StatoilHydro                             :COMPANY
WELL .        15/9-F-14                                :WELL
FLD  .        Volve                                    :FIELD
LOC  .        Norwegian North Sea                      :LOCATION
CNTY .        Maersk Inspirer                          :COUNTY
STAT .        Norway                                   :STATE
CTRY .                                                 :COUNTRY
API  .                                                 :API NUMBER
UWI  .                                                 :UNIQUE WELL ID
DATE .                                                 :LOG DATE
SRVC .        Schlumberger                             :SERVICE COMPANY
LATI .DEG     058 26' 29.769" N    DMS                 :LATITUDE
LONG .DEG     001 53' 15.079" E    DMS                 :LONGITUDE
GDAT .                                                 :GeoDetic Datum
#-----------------------------------------------------------------------------
~PARAMETER INFORMATION
#MNEM.UNIT    VALUE                      DESCRIPTION
#---- -----   --------------------       ------------------------
RUN  .                                   :RUN NUMBER
PDAT .                                   :Permanent Datum
EPD  .                                   :Elevation of Permanent Datum above Mean Sea Level
LMF  .          DF                       :Logging Measured From (Name of Logging Elevation Reference)
APD  .M          54.900002               :Elevation of Depth Reference (LMF) above Permanent Datum
#-----------------------------------------------------------------------------
~CURVE INFORMATION
#MNEM.UNIT   API CODE                                  DESCRIPTION
#---- -----  --------                                  -----------------------
DEPT .F                                                :DEPTH (BOREHOLE) {F10.1}
DEPT .M                                                : {F13.4}
DTCO .US/F                                             : {F13.4}
DTSM .US/F                                             : {F13.4}
RHOB .G/CC                                             : {F13.4}
#-----------------------------------------------------------------------------
# 
#     DEPT        DEPT         DTCO         DTSM         RHOB
#
~A  
# ...
    9377.0    2858.1096      64.7578     114.5598       2.5693
    9377.5    2858.2620      65.5698     114.4485       2.5718
    9378.0    2858.4144      66.0353     115.4482       2.5714
    9378.5    2858.5668      65.4367     116.1680       2.5765
    9379.0    2858.7192      64.3942     114.9634       2.5813
    9379.5    2858.8716      63.5417     113.2318       2.5780
    9380.0    2859.0240      63.0969     111.9926       2.5716
    9380.5    2859.1764      61.9914     111.7138       2.5657
    9381.0    2859.3288      62.3866     113.2309       2.5668
    9381.5    2859.4812      63.5064     116.7945       2.5716
    9382.0    2859.6336      66.1680     121.3618       2.5759
    9382.5    2859.7860      69.2175     126.3544       2.5747
    9383.0    2859.9384      69.9503     127.2294       2.5718
    9383.5    2860.0908      70.2278     127.9219       2.5677
    9384.0    2860.2432      68.1342     125.2912       2.5717
    9384.5    2860.3956      65.0895     121.1595       2.5721
    9385.0    2860.5480      62.9322     118.9894       2.5755
    9385.5    2860.7004      61.9778     118.1300       2.5745
    9386.0    2860.8528      63.6364     118.3232       2.5752
    9386.5    2861.0052      65.4232     118.3571       2.5765
    9387.0    2861.1576      66.2157     117.9450       2.5761
    9387.5    2861.3101      66.1105     118.1751       2.5743
    9388.0    2861.4624      67.0709     120.5141       2.5711
    9388.5    2861.6147      68.6469     123.3624       2.5642
    9389.0    2861.7672      70.4676     125.3822       2.5549
    9389.5    2861.9196      70.5039     124.8330       2.5483
    9390.0    2862.0720      68.2216     122.4239       2.5449
    9390.5    2862.2244      65.7507     120.2429       2.5488
    9391.0    2862.3768      63.3544     118.1922       2.5513
    9391.5    2862.5292      62.4676     117.1014       2.5564
    9392.0    2862.6816      62.8774     116.8197       2.5583
    9392.5    2862.8340      63.1722     117.0048       2.5571
    9393.0    2862.9864      63.1818     117.6027       2.5565
    9393.5    2863.1388      64.2004     118.1773       2.5558
    9394.0    2863.2912      66.0024     121.7604       2.5580
    9394.5    2863.4436      69.9264     130.1822       2.5564
    9395.0    2863.5960      73.7697     133.8915       2.5511
    9395.5    2863.7484      75.1753     136.4123       2.5457
    9396.0    2863.9008      73.8043     133.9431       2.5512
    9396.5    2864.0532      69.1250     128.5074       2.5629
    9397.0    2864.2056      63.4979     121.9760       2.5773
    9397.5    2864.3580      60.4725     117.5051       2.5842
    9398.0    2864.5104      60.9393     117.7031       2.5904
    9398.5    2864.6628      64.9257     120.2974       2.5933
    9399.0    2864.8152      67.4248     122.6227       2.5878
    9399.5    2864.9676      68.1930     122.5701       2.5782
    9400.0    2865.1200      67.6101     119.7653       2.5705
    9400.5    2865.2724      65.0672     117.0465       2.5734
    9401.0    2865.4248      63.2131     113.9351       2.5787
    9401.5    2865.5771      62.6962     113.3481       2.5810
    9402.0    2865.7296      62.8631     115.4622       2.5763
    9402.5    2865.8820      64.4954     118.9331       2.5782
    9403.0    2866.0344      65.5455     120.5571       2.5795
    9403.5    2866.1868      66.4157     120.0545       2.5816
    9404.0    2866.3392      67.1097     119.6918       2.5811
    9404.5    2866.4916      64.9421     119.6487       2.5879
    9405.0    2866.6440      59.9539     119.1459       2.6014
    9405.5    2866.7964      58.2750     119.6529       2.6092
    9406.0    2866.9488      59.8843     120.1480       2.6124
    9406.5    2867.1012      61.8381     119.6669       2.6079
    9407.0    2867.2536      63.5907     122.0329       2.6046
    9407.5    2867.4060      63.3497     114.6569       2.6022
    9408.0    2867.5584      61.9224     113.9279       2.6050
    9408.5    2867.7108      61.0653     114.2668       2.6108
    9409.0    2867.8632      62.4099     117.4301       2.6239
    9409.5    2868.0156      64.8821     121.9436       2.6280
    9410.0    2868.1680      68.5566     130.7928       2.6248
    9410.5    2868.3204      70.3530     135.4438       2.6117
    9411.0    2868.4728      70.9428     138.1929       2.6053
    9411.5    2868.6252      70.8684     138.8587       2.6036
    9412.0    2868.7776      70.5725     138.3649       2.6043
    9412.5    2868.9300      70.0626     137.2185       2.6079
    9413.0    2869.0824      69.2857     135.0442       2.6092
    9413.5    2869.2348      69.2533     134.0442       2.6084
    9414.0    2869.3872      70.0649     136.1879       2.6082
    9414.5    2869.5396      70.1552     136.9253       2.6099
    9415.0    2869.6920      70.0230     136.5649       2.6084
    9415.5    2869.8444      69.6224     136.5134       2.6069
    9416.0    2869.9968      69.9010     137.0942       2.6047
    9416.5    2870.1492      70.1907     137.8867       2.6061
    9417.0    2870.3016      71.1296     138.9476       2.6042
    9417.5    2870.4540      70.4257     138.8413       2.6010
    9418.0    2870.6064      69.4980     137.5670       2.5978
    9418.5    2870.7588      68.2584     135.9766       2.5946
    9419.0    2870.9112      67.4250     135.7569       2.5906
    9419.5    2871.0636      69.3370     139.6729       2.5860
    9420.0    2871.2160      70.8542     143.6108       2.5845
    9420.5    2871.3684      71.5998     144.2118       2.5856
    9421.0    2871.5208      71.9385     143.4848       2.5880
    9421.5    2871.6732      73.0269     143.9949       2.5843
    9422.0    2871.8256      74.1344     145.8045       2.5846
    9422.5    2871.9780      74.4629     146.9312       2.5767
    9423.0    2872.1304      74.7837     148.2934       2.5745
    9423.5    2872.2828      75.9081     149.0847       2.5720
    9424.0    2872.4352      76.5301     149.5064       2.5718
    9424.5    2872.5876      76.2441     149.8787       2.5703
    9425.0    2872.7400      76.8472     151.7896       2.5643
    9425.5    2872.8924      78.6879     154.2956       2.5613
    9426.0    2873.0448      78.2689     153.4074       2.5619
    9426.5    2873.1972      76.2597     149.5575       2.5630
    9427.0    2873.3496      74.5842     145.3356       2.5699
    9427.5    2873.5020      71.7608     141.1169       2.5722
    9428.0    2873.6544      68.4206     137.7817       2.5786
    9428.5    2873.8068      66.4461     133.9490       2.5827
    9429.0    2873.9592      66.3736     131.4760       2.5885
    9429.5    2874.1116      66.9247     132.1214       2.5910
    9430.0    2874.2640      67.9852     134.0660       2.5919
    9430.5    2874.4164      69.5230     136.3367       2.5893
    9431.0    2874.5688      70.6319     140.8150       2.5855
    9431.5    2874.7212      73.1626     149.5392       2.5755
    9432.0    2874.8736      78.7627     154.1153       2.5681
    9432.5    2875.0260      81.8680     155.8212       2.5602
    9433.0    2875.1784      81.9577     155.3331       2.5572
    9433.5    2875.3308      81.4356     152.9472       2.5541
    9434.0    2875.4832      79.8800     151.1520       2.5539
    9434.5    2875.6356      76.7812     146.4315       2.5590
    9435.0    2875.7880      74.5516     139.7704       2.5672
    9435.5    2875.9404      71.0232     135.3795       2.5808
    9436.0    2876.0928      69.1454     133.2768       2.5869
    9436.5    2876.2452      69.3295     133.6644       2.5878
    9437.0    2876.3976      72.0480     138.3098       2.5823
    9437.5    2876.5500      75.3526     142.2421       2.5797
    9438.0    2876.7024      76.8406     145.4355       2.5769
    9438.5    2876.8548      75.9503     148.3377       2.5754
    9439.0    2877.0072      73.6334     145.5643       2.5783
    9439.5    2877.1596      70.5000     143.5059       2.5870
    9440.0    2877.3120      69.3182     140.1504       2.5936
