~VERSION INFORMATION
VERS.           2.0   :CWLS Log ASCII Standard - VERSION 2.0
WRAP.           NO    :One Line per depth step
PROD.  Schlumberger   :LAS Producer
PROG.  DLIS to ASCII 2.3                               :LAS Program name and version
CREA.        2019/03/12 22:31                          :LAS Creation date {YYYY/MM/DD hh:mm}
DLIS_CREA.  2019-Mar-12 22:09                          :DLIS Creation date and time {YYYY-MMM-DD hh:mm}
SOURCE.     LIStoDLIS.dlis                             :DLIS File Name
#--------------------------------------------------
~WELL INFORMATION
#MNEM.UNIT      DATA             DESCRIPTION
#---- ------ --------------   -----------------------------
STRT .F         3281.0       :START DEPTH     
STOP .F        12467.0       :STOP DEPTH     
STEP .F            0.5       :STEP     
NULL .          -999.25      :NULL VALUE
COMP .        StatoilHydro                             :COMPANY
WELL .        15/9-F-14                                :WELL
FLD  .        Volve                                    :FIELD
LOC  .        Norwegian North Sea                      :LOCATION
CNTY .        Maersk Inspirer                          :COUNTY
STAT .        Norway                                   :STATE
CTRY .                                                 :COUNTRY
API  .                                                 :API NUMBER
UWI  .                                                 :UNIQUE WELL ID
DATE .                                                 :LOG DATE
SRVC .        Schlumberger                             :SERVICE COMPANY
LATI .DEG     058 26' 29.769" N    DMS                 :LATITUDE
LONG .DEG     001 53' 15.079" E    DMS                 :LONGITUDE
GDAT .                                                 :GeoDetic Datum
#-----------------------------------------------------------------------------
~PARAMETER INFORMATION
#MNEM.UNIT    VALUE                      DESCRIPTION
#---- -----   --------------------       ------------------------
RUN  .                                   :RUN NUMBER
PDAT .                                   :Permanent Datum
EPD  .                                   :Elevation of Permanent Datum above Mean Sea Level
LMF  .          DF                       :Logging Measured From (Name of Logging Elevation Reference)
APD  .M          54.900002               :Elevation of Depth Reference (LMF) above Permanent Datum
#-----------------------------------------------------------------------------
~CURVE INFORMATION
#MNEM.UNIT   API CODE                                  DESCRIPTION
#---- -----  --------                                  -----------------------
DEPT .F                                                :DEPTH (BOREHOLE) {F10.1}
DEPT .M                                                : {F13.4}
DTCO .US/F                                             : {F13.4}
DTSM .US/F                                             : {F13.4}
RHOB .G/CC                                             : {F13.4}
#-----------------------------------------------------------------------------
# 
#     DEPT        DEPT         DTCO         DTSM         RHOB
#
~A  
# ...
    5821.0    1774.2408     139.3434    -999.2500    -999.2500
    5821.5    1774.3932     135.5215    -999.2500    -999.2500
    5822.0    1774.5457     134.2663    -999.2500    -999.2500
    5822.5    1774.6980     135.0672    -999.2500    -999.2500
    5823.0    1774.8503     137.5254    -999.2500    -999.2500
    5823.5    1775.0028     143.1202    -999.2500    -999.2500
    5824.0    1775.1552     140.8896    -999.2500    -999.2500
    5824.5    1775.3076     138.6544    -999.2500    -999.2500
    5825.0    1775.4600     137.2708    -999.2500    -999.2500
    5825.5    1775.6124     136.8510    -999.2500    -999.2500
    5826.0    1775.7648     137.0257    -999.2500    -999.2500
    5826.5    1775.9172     138.2452    -999.2500    -999.2500
    5827.0    1776.0696     136.2334    -999.2500    -999.2500
    5827.5    1776.2220     137.3749    -999.2500    -999.2500
    5828.0    1776.3744     137.4150    -999.2500    -999.2500
    5828.5    1776.5269     134.1489    -999.2500    -999.2500
    5829.0    1776.6792     136.2748    -999.2500    -999.2500
    5829.5    1776.8315     136.3541    -999.2500    -999.2500
    5830.0    1776.9840     137.6638    -999.2500    -999.2500
    5830.5    1777.1364     140.5086    -999.2500    -999.2500
    5831.0    1777.2888     137.7137    -999.2500    -999.2500
    5831.5    1777.4412     140.3199    -999.2500    -999.2500
    5832.0    1777.5936     134.8129    -999.2500    -999.2500
    5832.5    1777.7460     136.7621    -999.2500    -999.2500
    5833.0    1777.8984     137.2112    -999.2500    -999.2500
    5833.5    1778.0508     141.8011    -999.2500    -999.2500
    5834.0    1778.2032     143.8295    -999.2500    -999.2500
    5834.5    1778.3556     140.8139    -999.2500    -999.2500
    5835.0    1778.5081     139.5850    -999.2500    -999.2500
    5835.5    1778.6604     135.6226    -999.2500    -999.2500
    5836.0    1778.8127     131.1874    -999.2500    -999.2500
    5836.5    1778.9652     135.7984    -999.2500    -999.2500
    5837.0    1779.1176     135.4071    -999.2500    -999.2500
    5837.5    1779.2700     134.4531    -999.2500    -999.2500
    5838.0    1779.4224     137.5022    -999.2500    -999.2500
    5838.5    1779.5748     135.5551    -999.2500    -999.2500
    5839.0    1779.7272     133.2402    -999.2500    -999.2500
    5839.5    1779.8796     131.2014    -999.2500    -999.2500
    5840.0    1780.0320     131.0387    -999.2500    -999.2500
    5840.5    1780.1844     128.6087    -999.2500    -999.2500
    5841.0    1780.3368     132.1646    -999.2500    -999.2500
    5841.5    1780.4893     133.3199    -999.2500    -999.2500
    5842.0    1780.6416     131.5817    -999.2500    -999.2500
    5842.5    1780.7939     134.7879    -999.2500    -999.2500
    5843.0    1780.9464     130.5162    -999.2500    -999.2500
    5843.5    1781.0988     133.9059    -999.2500    -999.2500
    5844.0    1781.2512     134.8738    -999.2500    -999.2500
    5844.5    1781.4036     136.1177    -999.2500    -999.2500
    5845.0    1781.5560     136.1590    -999.2500    -999.2500
    5845.5    1781.7084     133.2687    -999.2500    -999.2500
    5846.0    1781.8608     136.7120    -999.2500    -999.2500
    5846.5    1782.0132     136.3706    -999.2500    -999.2500
    5847.0    1782.1656     136.4461    -999.2500    -999.2500
    5847.5    1782.3180     133.4570    -999.2500    -999.2500
    5848.0    1782.4705     127.4721    -999.2500    -999.2500
    5848.5    1782.6228     134.1754    -999.2500    -999.2500
    5849.0    1782.7751     139.3702    -999.2500    -999.2500
    5849.5    1782.9276     134.8750    -999.2500    -999.2500
    5850.0    1783.0800     134.3368    -999.2500    -999.2500
    5850.5    1783.2324     130.7741    -999.2500    -999.2500
    5851.0    1783.3848     133.4505    -999.2500    -999.2500
    5851.5    1783.5372     134.6710    -999.2500    -999.2500
    5852.0    1783.6896     135.5483    -999.2500    -999.2500
    5852.5    1783.8420     133.0587    -999.2500    -999.2500
    5853.0    1783.9944     134.4638    -999.2500    -999.2500
    5853.5    1784.1468     135.4509    -999.2500    -999.2500
    5854.0    1784.2992     135.9511    -999.2500    -999.2500
    5854.5    1784.4516     136.3408    -999.2500    -999.2500
    5855.0    1784.6040     134.8597    -999.2500    -999.2500
    5855.5    1784.7563     135.0870    -999.2500    -999.2500
    5856.0    1784.9088     139.2064    -999.2500    -999.2500
    5856.5    1785.0612     138.9785    -999.2500    -999.2500
    5857.0    1785.2136     138.6850    -999.2500    -999.2500
    5857.5    1785.3660     135.9665    -999.2500    -999.2500
    5858.0    1785.5184     135.6860    -999.2500    -999.2500
    5858.5    1785.6708     139.4141    -999.2500    -999.2500
    5859.0    1785.8232     140.3860    -999.2500    -999.2500
    5859.5    1785.9756     140.4157    -999.2500    -999.2500
    5860.0    1786.1280     136.7739    -999.2500    -999.2500
    5860.5    1786.2804     138.4229    -999.2500    -999.2500
    5861.0    1786.4328     143.2895    -999.2500    -999.2500
    5861.5    1786.5852     148.2718    -999.2500    -999.2500
    5862.0    1786.7375     150.7303    -999.2500    -999.2500
    5862.5    1786.8900     145.4383    -999.2500    -999.2500
    5863.0    1787.0424     141.7971    -999.2500    -999.2500
    5863.5    1787.1948     142.9805    -999.2500    -999.2500
    5864.0    1787.3472     141.5324    -999.2500    -999.2500
    5864.5    1787.4996     139.8916    -999.2500    -999.2500
    5865.0    1787.6520     139.6465    -999.2500    -999.2500
    5865.5    1787.8044     137.3071    -999.2500    -999.2500
    5866.0    1787.9568     135.9169    -999.2500    -999.2500
    5866.5    1788.1092     137.3654    -999.2500    -999.2500
    5867.0    1788.2616     138.2591    -999.2500    -999.2500
    5867.5    1788.4140     139.0351    -999.2500    -999.2500
    5868.0    1788.5664     142.7979    -999.2500    -999.2500
    5868.5    1788.7188     141.5291    -999.2500    -999.2500
    5869.0    1788.8712     138.2103    -999.2500    -999.2500
    5869.5    1789.0236     137.9082    -999.2500    -999.2500
    5870.0    1789.1760     138.0882    -999.2500    -999.2500
    5870.5    1789.3284     138.9354    -999.2500    -999.2500
    5871.0    1789.4808     136.7242    -999.2500    -999.2500
    5871.5    1789.6332     137.7677    -999.2500    -999.2500
    5872.0    1789.7856     140.6067    -999.2500    -999.2500
    5872.5    1789.9380     139.6785    -999.2500    -999.2500
    5873.0    1790.0904     135.9810    -999.2500    -999.2500
    5873.5    1790.2428     138.0376    -999.2500    -999.2500
    5874.0    1790.3952     139.8693    -999.2500    -999.2500
    5874.5    1790.5476     143.2012    -999.2500    -999.2500
    5875.0    1790.7000     145.1849    -999.2500    -999.2500
    5875.5    1790.8524     146.5509    -999.2500    -999.2500
    5876.0    1791.0048     135.4963    -999.2500    -999.2500
    5876.5    1791.1572     136.1243    -999.2500    -999.2500
    5877.0    1791.3096     129.7161    -999.2500    -999.2500
    5877.5    1791.4620     129.7717    -999.2500    -999.2500
    5878.0    1791.6144     135.9443    -999.2500    -999.2500
    5878.5    1791.7668     137.8419    -999.2500    -999.2500
    5879.0    1791.9192     138.5552    -999.2500    -999.2500
    5879.5    1792.0716     137.2726    -999.2500    -999.2500
    5880.0    1792.2240     141.5134    -999.2500    -999.2500
    5880.5    1792.3764     132.3368    -999.2500    -999.2500
    5881.0    1792.5288     131.6288    -999.2500    -999.2500
    5881.5    1792.6812     133.3902    -999.2500    -999.2500
    5882.0    1792.8336     131.3998    -999.2500    -999.2500
    5882.5    1792.9860     133.7562    -999.2500    -999.2500
    5883.0    1793.1384     136.0189    -999.2500    -999.2500
    5883.5    1793.2908     132.7961    -999.2500    -999.2500
    5884.0    1793.4432     140.8499    -999.2500    -999.2500
