~VERSION INFORMATION
VERS.           2.0   :CWLS Log ASCII Standard - VERSION 2.0
WRAP.           NO    :One Line per depth step
PROD.  Schlumberger   :LAS Producer
PROG.  DLIS to ASCII 2.3                               :LAS Program name and version
CREA.        2019/03/12 22:31                          :LAS Creation date {YYYY/MM/DD hh:mm}
DLIS_CREA.  2019-Mar-12 22:09                          :DLIS Creation date and time {YYYY-MMM-DD hh:mm}
SOURCE.     LIStoDLIS.dlis                             :DLIS File Name
#--------------------------------------------------
~WELL INFORMATION
#MNEM.UNIT      DATA             DESCRIPTION
#---- ------ --------------   -----------------------------
STRT .F         3281.0       :START DEPTH     
STOP .F        12467.0       :STOP DEPTH     
STEP .F            0.5       :STEP     
NULL .          -999.25      :NULL VALUE
COMP .        StatoilHydro                             :COMPANY
WELL .        15/9-F-14                                :WELL
FLD  .        Volve                                    :FIELD
LOC  .        Norwegian North Sea                      :LOCATION
CNTY .        Maersk Inspirer                          :COUNTY
STAT .        Norway                                   :STATE
CTRY .                                                 :COUNTRY
API  .                                                 :API NUMBER
UWI  .                                                 :UNIQUE WELL ID
DATE .                                                 :LOG DATE
SRVC .        Schlumberger                             :SERVICE COMPANY
LATI .DEG     058 26' 29.769" N    DMS                 :LATITUDE
LONG .DEG     001 53' 15.079" E    DMS                 :LONGITUDE
GDAT .                                                 :GeoDetic Datum
#-----------------------------------------------------------------------------
~PARAMETER INFORMATION
#MNEM.UNIT    VALUE                      DESCRIPTION
#---- -----   --------------------       ------------------------
RUN  .                                   :RUN NUMBER
PDAT .                                   :Permanent Datum
EPD  .                                   :Elevation of Permanent Datum above Mean Sea Level
LMF  .          DF                       :Logging Measured From (Name of Logging Elevation Reference)
APD  .M          54.900002               :Elevation of Depth Reference (LMF) above Permanent Datum
#-----------------------------------------------------------------------------
~CURVE INFORMATION
#MNEM.UNIT   API CODE                                  DESCRIPTION
#---- -----  --------                                  -----------------------
DEPT .F                                                :DEPTH (BOREHOLE) {F10.1}
DEPT .M                                                : {F13.4}
DTCO .US/F                                             : {F13.4}
DTSM .US/F                                             : {F13.4}
RHOB .G/CC                                             : {F13.4}
#-----------------------------------------------------------------------------
# 
#     DEPT        DEPT         DTCO         DTSM         RHOB
#
~A  
# ...
    8742.0    2664.5616      64.5798    -999.2500    -999.2500
    8742.5    2664.7140      64.9190    -999.2500    -999.2500
    8743.0    2664.8664      65.9797    -999.2500    -999.2500
    8743.5    2665.0188      66.8110    -999.2500    -999.2500
    8744.0    2665.1712      65.2354    -999.2500    -999.2500
    8744.5    2665.3236      65.9555    -999.2500    -999.2500
    8745.0    2665.4760      68.3242    -999.2500    -999.2500
    8745.5    2665.6284      67.6258    -999.2500    -999.2500
    8746.0    2665.7808      65.5273    -999.2500    -999.2500
    8746.5    2665.9332      65.5273    -999.2500    -999.2500
    8747.0    2666.0856      65.4369    -999.2500    -999.2500
    8747.5    2666.2380      65.2559    -999.2500    -999.2500
    8748.0    2666.3904      64.8021    -999.2500    -999.2500
    8748.5    2666.5428      62.9574    -999.2500    -999.2500
    8749.0    2666.6952      64.1275    -999.2500    -999.2500
    8749.5    2666.8477      64.8955    -999.2500    -999.2500
    8750.0    2667.0000      63.7673    -999.2500    -999.2500
    8750.5    2667.1523      60.0667    -999.2500    -999.2500
    8751.0    2667.3048      61.6460    -999.2500    -999.2500
    8751.5    2667.4572      61.3283    -999.2500    -999.2500
    8752.0    2667.6096      59.4786    -999.2500    -999.2500
    8752.5    2667.7620      58.4842    -999.2500    -999.2500
    8753.0    2667.9144      56.8642    -999.2500    -999.2500
    8753.5    2668.0668      58.9147    -999.2500    -999.2500
    8754.0    2668.2192      60.6309    -999.2500    -999.2500
    8754.5    2668.3716      61.4206    -999.2500    -999.2500
    8755.0    2668.5240      59.9757    -999.2500    -999.2500
    8755.5    2668.6764      58.7802    -999.2500    -999.2500
    8756.0    2668.8288      54.5111    -999.2500    -999.2500
    8756.5    2668.9812      53.5193    -999.2500    -999.2500
    8757.0    2669.1336      54.6687    -999.2500    -999.2500
    8757.5    2669.2860      59.1151    -999.2500    -999.2500
    8758.0    2669.4384      60.0211    -999.2500    -999.2500
    8758.5    2669.5908      63.7039    -999.2500    -999.2500
    8759.0    2669.7432      64.1906    -999.2500    -999.2500
    8759.5    2669.8956      63.5215    -999.2500    -999.2500
    8760.0    2670.0480      61.7102    -999.2500    -999.2500
    8760.5    2670.2004      63.5011    -999.2500    -999.2500
    8761.0    2670.3528      66.9233    -999.2500    -999.2500
    8761.5    2670.5052      65.1587    -999.2500    -999.2500
    8762.0    2670.6576      61.5136    -999.2500    -999.2500
    8762.5    2670.8101      60.7888    -999.2500    -999.2500
    8763.0    2670.9624      62.6842    -999.2500    -999.2500
    8763.5    2671.1147      64.4894    -999.2500    -999.2500
    8764.0    2671.2672      65.4809    -999.2500    -999.2500
    8764.5    2671.4196      63.6787    -999.2500    -999.2500
    8765.0    2671.5720      65.1450    -999.2500    -999.2500
    8765.5    2671.7244      65.0813    -999.2500    -999.2500
    8766.0    2671.8768      65.1025    -999.2500    -999.2500
    8766.5    2672.0292      65.5722    -999.2500    -999.2500
    8767.0    2672.1816      66.0689    -999.2500    -999.2500
    8767.5    2672.3340      63.3160    -999.2500    -999.2500
    8768.0    2672.4864      62.6618    -999.2500    -999.2500
    8768.5    2672.6388      66.6062    -999.2500    -999.2500
    8769.0    2672.7912      68.7495    -999.2500    -999.2500
    8769.5    2672.9436      69.2773    -999.2500    -999.2500
    8770.0    2673.0960      68.8585    -999.2500    -999.2500
    8770.5    2673.2484      69.3403    -999.2500    -999.2500
    8771.0    2673.4008      68.6416    -999.2500    -999.2500
    8771.5    2673.5532      68.0320    -999.2500    -999.2500
    8772.0    2673.7056      67.6258    -999.2500    -999.2500
    8772.5    2673.8580      66.1914    -999.2500    -999.2500
    8773.0    2674.0104      67.4812    -999.2500    -999.2500
    8773.5    2674.1628      67.5383    -999.2500    -999.2500
    8774.0    2674.3152      66.3610    -999.2500    -999.2500
    8774.5    2674.4676      65.6377    -999.2500    -999.2500
    8775.0    2674.6200      66.4710    -999.2500    -999.2500
    8775.5    2674.7724      65.8710    -999.2500    -999.2500
    8776.0    2674.9248      64.5345    -999.2500    -999.2500
    8776.5    2675.0771      64.6022    -999.2500    -999.2500
    8777.0    2675.2296      63.4749    -999.2500    -999.2500
    8777.5    2675.3820      64.7612    -999.2500    -999.2500
    8778.0    2675.5344      65.7747    -999.2500    -999.2500
    8778.5    2675.6868      65.1649    -999.2500    -999.2500
    8779.0    2675.8392      64.3953    -999.2500    -999.2500
    8779.5    2675.9916      62.6628    -999.2500    -999.2500
    8780.0    2676.1440      64.4894    -999.2500    -999.2500
    8780.5    2676.2964      64.5345    -999.2500    -999.2500
    8781.0    2676.4488      63.0898    -999.2500    -999.2500
    8781.5    2676.6012      61.8060    -999.2500    -999.2500
    8782.0    2676.7536      61.0800    -999.2500    -999.2500
    8782.5    2676.9060      60.8244    -999.2500    -999.2500
    8783.0    2677.0584      61.1928    -999.2500    -999.2500
    8783.5    2677.2108      60.6587    -999.2500    -999.2500
    8784.0    2677.3632      59.8718    -999.2500    -999.2500
    8784.5    2677.5156      63.3543    -999.2500    -999.2500
    8785.0    2677.6680      63.9437    -999.2500    -999.2500
    8785.5    2677.8204      62.2223    -999.2500    -999.2500
    8786.0    2677.9728      62.2560    -999.2500    -999.2500
    8786.5    2678.1252      60.4931    -999.2500    -999.2500
    8787.0    2678.2776      61.7673    -999.2500    -999.2500
    8787.5    2678.4300      63.2418    -999.2500    -999.2500
    8788.0    2678.5824      62.6650    -999.2500    -999.2500
    8788.5    2678.7348      64.3130    -999.2500    -999.2500
    8789.0    2678.8872      64.9408    -999.2500    -999.2500
    8789.5    2679.0396      64.3540    -999.2500    -999.2500
    8790.0    2679.1920      65.7294    -999.2500    -999.2500
    8790.5    2679.3444      64.3088    -999.2500    -999.2500
    8791.0    2679.4968      64.2622    -999.2500    -999.2500
    8791.5    2679.6492      63.2263    -999.2500    -999.2500
    8792.0    2679.8016      63.5151    -999.2500    -999.2500
    8792.5    2679.9540      61.6594    -999.2500    -999.2500
    8793.0    2680.1064      62.2581    -999.2500    -999.2500
    8793.5    2680.2588      62.8328    -999.2500    -999.2500
    8794.0    2680.4112      62.0401    -999.2500    -999.2500
    8794.5    2680.5636      62.1662    -999.2500    -999.2500
    8795.0    2680.7160      60.9262    -999.2500    -999.2500
    8795.5    2680.8684      59.1609    -999.2500    -999.2500
    8796.0    2681.0208      58.3101    -999.2500    -999.2500
    8796.5    2681.1732      58.0734    -999.2500    -999.2500
    8797.0    2681.3256      58.8274    -999.2500    -999.2500
    8797.5    2681.4780      58.8897    -999.2500    -999.2500
    8798.0    2681.6304      59.4992    -999.2500    -999.2500
    8798.5    2681.7828      58.7583    -999.2500    -999.2500
    8799.0    2681.9352      57.3290    -999.2500    -999.2500
    8799.5    2682.0876      58.3002    -999.2500    -999.2500
    8800.0    2682.2400      59.1190    -999.2500    -999.2500
    8800.5    2682.3924      59.8408    -999.2500    -999.2500
    8801.0    2682.5448      59.7058    -999.2500    -999.2500
    8801.5    2682.6972      60.2696    -999.2500    -999.2500
    8802.0    2682.8496      60.2472    -999.2500    -999.2500
    8802.5    2683.0020      59.5810    -999.2500    -999.2500
    8803.0    2683.1544      62.0494    -999.2500    -999.2500
    8803.5    2683.3068      61.0213    -999.2500    -999.2500
    8804.0    2683.4592      58.4204    -999.2500    -999.2500
    8804.5    2683.6116      60.2418    -999.2500    -999.2500
    8805.0    2683.7640      60.9835    -999.2500    -999.2500
