~VERSION INFORMATION
VERS.           2.0   :CWLS Log ASCII Standard - VERSION 2.0
WRAP.           NO    :One Line per depth step
PROD.  Schlumberger   :LAS Producer
PROG.  DLIS to ASCII 2.3                               :LAS Program name and version
CREA.        2019/03/12 22:31                          :LAS Creation date {YYYY/MM/DD hh:mm}
DLIS_CREA.  2019-Mar-12 22:09                          :DLIS Creation date and time {YYYY-MMM-DD hh:mm}
SOURCE.     LIStoDLIS.dlis                             :DLIS File Name
#--------------------------------------------------
~WELL INFORMATION
#MNEM.UNIT      DATA             DESCRIPTION
#---- ------ --------------   -----------------------------
STRT .F         3281.0       :START DEPTH     
STOP .F        12467.0       :STOP DEPTH     
STEP .F            0.5       :STEP     
NULL .          -999.25      :NULL VALUE
COMP .        StatoilHydro                             :COMPANY
WELL .        15/9-F-14                                :WELL
FLD  .        Volve                                    :FIELD
LOC  .        Norwegian North Sea                      :LOCATION
CNTY .        Maersk Inspirer                          :COUNTY
STAT .        Norway                                   :STATE
CTRY .                                                 :COUNTRY
API  .                                                 :API NUMBER
UWI  .                                                 :UNIQUE WELL ID
DATE .                                                 :LOG DATE
SRVC .        Schlumberger                             :SERVICE COMPANY
LATI .DEG     058 26' 29.769" N    DMS                 :LATITUDE
LONG .DEG     001 53' 15.079" E    DMS                 :LONGITUDE
GDAT .                                                 :GeoDetic Datum
#-----------------------------------------------------------------------------
~PARAMETER INFORMATION
#MNEM.UNIT    VALUE                      DESCRIPTION
#---- -----   --------------------       ------------------------
RUN  .                                   :RUN NUMBER
PDAT .                                   :Permanent Datum
EPD  .                                   :Elevation of Permanent Datum above Mean Sea Level
LMF  .          DF                       :Logging Measured From (Name of Logging Elevation Reference)
APD  .M          54.900002               :Elevation of Depth Reference (LMF) above Permanent Datum
#-----------------------------------------------------------------------------
~CURVE INFORMATION
#MNEM.UNIT   API CODE                                  DESCRIPTION
#---- -----  --------                                  -----------------------
DEPT .F                                                :DEPTH (BOREHOLE) {F10.1}
DEPT .M                                                : {F13.4}
DTCO .US/F                                             : {F13.4}
DTSM .US/F                                             : {F13.4}
RHOB .G/CC                                             : {F13.4}
#-----------------------------------------------------------------------------
# 
#     DEPT        DEPT         DTCO         DTSM         RHOB
#
~A  
# ...
    5249.5    1600.0476     141.5423    -999.2500    -999.2500
    5250.0    1600.2000     139.4247    -999.2500    -999.2500
    5250.5    1600.3524     139.5381    -999.2500    -999.2500
    5251.0    1600.5048     138.6102    -999.2500    -999.2500
    5251.5    1600.6572     137.4575    -999.2500    -999.2500
    5252.0    1600.8096     136.3905    -999.2500    -999.2500
    5252.5    1600.9620     136.8213    -999.2500    -999.2500
    5253.0    1601.1144     137.2122    -999.2500    -999.2500
    5253.5    1601.2668     138.2519    -999.2500    -999.2500
    5254.0    1601.4192     140.4364    -999.2500    -999.2500
    5254.5    1601.5716     141.7252    -999.2500    -999.2500
    5255.0    1601.7240     138.4048    -999.2500    -999.2500
    5255.5    1601.8764     135.3941    -999.2500    -999.2500
    5256.0    1602.0288     133.7026    -999.2500    -999.2500
    5256.5    1602.1812     134.1133    -999.2500    -999.2500
    5257.0    1602.3336     134.5980    -999.2500    -999.2500
    5257.5    1602.4860     136.2958    -999.2500    -999.2500
    5258.0    1602.6384     137.3815    -999.2500    -999.2500
    5258.5    1602.7908     136.0169    -999.2500    -999.2500
    5259.0    1602.9432     138.2102    -999.2500    -999.2500
    5259.5    1603.0956     140.5313    -999.2500    -999.2500
    5260.0    1603.2480     142.1035    -999.2500    -999.2500
    5260.5    1603.4004     140.9964    -999.2500    -999.2500
    5261.0    1603.5528     141.9814    -999.2500    -999.2500
    5261.5    1603.7052     138.7879    -999.2500    -999.2500
    5262.0    1603.8576     136.9946    -999.2500    -999.2500
    5262.5    1604.0100     134.3192    -999.2500    -999.2500
    5263.0    1604.1624     135.3474    -999.2500    -999.2500
    5263.5    1604.3148     135.1086    -999.2500    -999.2500
    5264.0    1604.4672     137.6208    -999.2500    -999.2500
    5264.5    1604.6196     139.6316    -999.2500    -999.2500
    5265.0    1604.7720     140.5029    -999.2500    -999.2500
    5265.5    1604.9244     145.0721    -999.2500    -999.2500
    5266.0    1605.0768     147.9418    -999.2500    -999.2500
    5266.5    1605.2292     150.5757    -999.2500    -999.2500
    5267.0    1605.3816     145.6229    -999.2500    -999.2500
    5267.5    1605.5340     143.9505    -999.2500    -999.2500
    5268.0    1605.6864     145.0160    -999.2500    -999.2500
    5268.5    1605.8388     142.6302    -999.2500    -999.2500
    5269.0    1605.9912     140.4885    -999.2500    -999.2500
    5269.5    1606.1436     141.1629    -999.2500    -999.2500
    5270.0    1606.2960     144.9233    -999.2500    -999.2500
    5270.5    1606.4484     141.8801    -999.2500    -999.2500
    5271.0    1606.6008     140.0884    -999.2500    -999.2500
    5271.5    1606.7532     132.1833    -999.2500    -999.2500
    5272.0    1606.9056     127.0497    -999.2500    -999.2500
    5272.5    1607.0580     128.5615    -999.2500    -999.2500
    5273.0    1607.2104     132.1669    -999.2500    -999.2500
    5273.5    1607.3628     136.0285    -999.2500    -999.2500
    5274.0    1607.5152     136.1609    -999.2500    -999.2500
    5274.5    1607.6676     136.5354    -999.2500    -999.2500
    5275.0    1607.8200     137.8545    -999.2500    -999.2500
    5275.5    1607.9724     136.5938    -999.2500    -999.2500
    5276.0    1608.1248     136.1739    -999.2500    -999.2500
    5276.5    1608.2772     134.4795    -999.2500    -999.2500
    5277.0    1608.4296     134.4200    -999.2500    -999.2500
    5277.5    1608.5820     134.4200    -999.2500    -999.2500
    5278.0    1608.7344     134.4200    -999.2500    -999.2500
    5278.5    1608.8868     135.7282    -999.2500    -999.2500
    5279.0    1609.0392     136.8940    -999.2500    -999.2500
    5279.5    1609.1917     136.1872    -999.2500    -999.2500
    5280.0    1609.3440     135.7871    -999.2500    -999.2500
    5280.5    1609.4964     133.5319    -999.2500    -999.2500
    5281.0    1609.6488     132.6129    -999.2500    -999.2500
    5281.5    1609.8012     133.3295    -999.2500    -999.2500
    5282.0    1609.9536     134.4771    -999.2500    -999.2500
    5282.5    1610.1060     136.3847    -999.2500    -999.2500
    5283.0    1610.2584     135.7024    -999.2500    -999.2500
    5283.5    1610.4108     133.9040    -999.2500    -999.2500
    5284.0    1610.5632     135.2408    -999.2500    -999.2500
    5284.5    1610.7156     135.1035    -999.2500    -999.2500
    5285.0    1610.8680     136.7783    -999.2500    -999.2500
    5285.5    1611.0204     137.0250    -999.2500    -999.2500
    5286.0    1611.1729     137.6849    -999.2500    -999.2500
    5286.5    1611.3252     137.4278    -999.2500    -999.2500
    5287.0    1611.4776     138.0711    -999.2500    -999.2500
    5287.5    1611.6300     136.6947    -999.2500    -999.2500
    5288.0    1611.7824     137.8579    -999.2500    -999.2500
    5288.5    1611.9348     139.1156    -999.2500    -999.2500
    5289.0    1612.0872     136.5434    -999.2500    -999.2500
    5289.5    1612.2396     135.9823    -999.2500    -999.2500
    5290.0    1612.3920     133.5410    -999.2500    -999.2500
    5290.5    1612.5444     135.6012    -999.2500    -999.2500
    5291.0    1612.6968     139.2264    -999.2500    -999.2500
    5291.5    1612.8492     138.1377    -999.2500    -999.2500
    5292.0    1613.0016     137.9085    -999.2500    -999.2500
    5292.5    1613.1541     138.4618    -999.2500    -999.2500
    5293.0    1613.3064     138.6684    -999.2500    -999.2500
    5293.5    1613.4587     138.3014    -999.2500    -999.2500
    5294.0    1613.6112     139.9685    -999.2500    -999.2500
    5294.5    1613.7636     138.8153    -999.2500    -999.2500
    5295.0    1613.9160     139.9860    -999.2500    -999.2500
    5295.5    1614.0684     141.4299    -999.2500    -999.2500
    5296.0    1614.2208     141.0095    -999.2500    -999.2500
    5296.5    1614.3732     136.3281    -999.2500    -999.2500
    5297.0    1614.5256     138.4023    -999.2500    -999.2500
    5297.5    1614.6780     138.4816    -999.2500    -999.2500
    5298.0    1614.8304     137.7351    -999.2500    -999.2500
    5298.5    1614.9828     139.0180    -999.2500    -999.2500
    5299.0    1615.1353     141.7704    -999.2500    -999.2500
    5299.5    1615.2876     140.7687    -999.2500    -999.2500
    5300.0    1615.4399     137.2974    -999.2500    -999.2500
    5300.5    1615.5924     134.3941    -999.2500    -999.2500
    5301.0    1615.7448     130.1214    -999.2500    -999.2500
    5301.5    1615.8972     129.7848    -999.2500    -999.2500
    5302.0    1616.0496     133.8878    -999.2500    -999.2500
    5302.5    1616.2020     138.9864    -999.2500    -999.2500
    5303.0    1616.3544     143.7383    -999.2500    -999.2500
    5303.5    1616.5068     146.8859    -999.2500    -999.2500
    5304.0    1616.6592     145.4039    -999.2500    -999.2500
    5304.5    1616.8116     141.2379    -999.2500    -999.2500
    5305.0    1616.9640     140.9026    -999.2500    -999.2500
    5305.5    1617.1165     137.1633    -999.2500    -999.2500
    5306.0    1617.2688     134.6027    -999.2500    -999.2500
    5306.5    1617.4211     134.2365    -999.2500    -999.2500
    5307.0    1617.5736     135.9101    -999.2500    -999.2500
    5307.5    1617.7260     139.0480    -999.2500    -999.2500
    5308.0    1617.8784     142.0540    -999.2500    -999.2500
    5308.5    1618.0308     141.6894    -999.2500    -999.2500
    5309.0    1618.1832     139.8040    -999.2500    -999.2500
    5309.5    1618.3356     138.3375    -999.2500    -999.2500
    5310.0    1618.4880     138.0080    -999.2500    -999.2500
    5310.5    1618.6404     137.9047    -999.2500    -999.2500
    5311.0    1618.7928     133.1347    -999.2500    -999.2500
    5311.5    1618.9452     126.4217    -999.2500    -999.2500
    5312.0    1619.0977     114.8989    -999.2500    -999.2500
    5312.5    1619.2500     110.9496    -999.2500    -999.2500
