~Version ---------------------------------------------------
VERS     .                             2.0 : CWLS log ASCII Standard -VERSION 2.0
WRAP     .                              NO : One Line per depth step
PROD     .         CROCKER DATA PROCESSING : LAS Producer
PROG     .                   LAS Viewer v0 : LAS Program name and version
CREA     .                2019/04/03 21-01 : LAS Creation date {YYYY/MM/DD hh-mm}
DLIS_CREA.               2009-Aug-25 10-08 : DLIS Creation date and time {YYYY-MMM-DD hh-mm}
SOURCE   . WLC_PETRO_COMPUTED_INPUT_1.DLIS : DLIS File Name
FILE-ID  .               CPI_INPUT.logdata : File Identification Number
~Well ------------------------------------------------------
STRT .m               2560.0152 : START DEPTH
STOP .m               3222.1932 : STOP DEPTH
STEP .m       0.152400000000398 : STEP
NULL .                  -999.25 : NULL VALUE
COMP .             STATOILHYDRO : COMPANY
WELL .              15/9-F-15 C : WELL
FIELD.                    VOLVE : FIELD
LOC  .                          : LOCATION
CNTY .                          : COUNTY
STAT .                          : STATE
NATI .                          : COUNTRY
API  .                          : API NUMBER
UWI  .                          : UNIQUE WELL ID
SRVC .                          : SERVICE COMPANY
LATI . 058 26' 29.706" N    DMS : LATITUDE
LONG . 001 53' 15.149" E    DMS : LONGITUDE
GDAT .                      MSL : GeoDetic Datum
~Curve Information -----------------------------------------
DEPTH.m      : Measured Depth
CALI .IN     : 
DRHO .G/CC   : 
DRHU .G/CC   : 
DT   .US/FT  : 
GR   .GAPI   : 
NPHI .V/V    : 
RD   .OHMM   : 
RHOB .G/CC   : 
ROBU .G/CC   : 
RS   .OHMM   : 
RT   .OHMM   : 
TVD  .M      : True Vertical Depth from PyLasMech
~Params ----------------------------------------------------
RUN . MWD RUN 12-13 : Run number
PDAT.           MSL : Perm. Datum
~Other -----------------------------------------------------
~ASCII -----------------------------------------------------
# ...
 3072.38400 8.79670 0.02490 0.09950 79.86880 51.57780 0.17390 1.81320 2.48020 2.48750 1.67350 1.71610 2894.08952
 3072.53640 8.81060 0.02810 0.09370 79.36900 54.16420 0.17610 1.82520 2.48290 2.47850 1.67850 1.68940 2894.23467
 3072.68880 8.81220 0.02450 0.08980 78.75150 54.07740 0.17290 1.86430 2.48230 2.47200 1.74320 1.74050 2894.37981
 3072.84120 8.81720 0.02070 0.09390 78.04140 51.16510 0.17780 1.87950 2.48720 2.48250 1.83340 1.86890 2894.52495
 3072.99360 8.80360 0.01630 0.09540 78.01420 48.72330 0.16750 1.91690 2.48990 2.49720 1.91130 1.91100 2894.67010
 3073.14600 8.80250 0.01720 0.10140 78.59770 46.81270 0.16690 1.92690 2.49670 2.51390 1.96550 2.02580 2894.81524
 3073.29840 8.80150 0.01280 0.09490 79.34630 47.76790 0.17310 1.98910 2.48890 2.50530 1.97530 2.02940 2894.96038
 3073.45080 8.77830 0.01450 0.09920 79.90790 47.98050 0.17410 1.97890 2.48980 2.50640 1.93280 1.99600 2895.10552
 3073.60320 8.79800 0.01710 0.09530 80.31870 48.31880 0.15780 1.99340 2.49160 2.50230 1.88280 1.93870 2895.25067
 3073.75560 8.80630 0.01570 0.09210 80.08630 49.90800 0.17300 1.95620 2.48650 2.49820 1.84530 1.84600 2895.39581
 3073.90800 8.80980 0.02150 0.09460 79.59880 50.53890 0.16810 1.95280 2.48840 2.49760 1.81900 1.83690 2895.54095
 3074.06040 8.81250 0.02070 0.09570 79.28250 50.88600 0.16410 1.94630 2.48490 2.49600 1.82230 1.85640 2895.68610
 3074.21280 8.81450 0.02410 0.09790 79.98310 50.98570 0.16860 1.98280 2.49030 2.50000 1.86780 1.89130 2895.83124
 3074.36520 8.80650 0.01720 0.09230 80.86440 50.84710 0.16770 1.96460 2.48440 2.49810 1.89820 1.90180 2895.97638
 3074.51760 8.80880 0.01600 0.08730 80.93480 52.75310 0.16400 1.98520 2.48420 2.49240 1.94760 1.96180 2896.12152
 3074.67000 8.79020 0.01910 0.08680 80.69210 54.62050 0.16510 1.96320 2.48940 2.49710 1.94740 1.96720 2896.26667
 3074.82240 8.80060 0.02130 0.08600 80.77360 55.80860 0.16670 1.99320 2.49420 2.49820 1.91160 1.94330 2896.41181
 3074.97480 8.80190 0.02690 0.08930 81.46550 54.21000 0.16190 1.95700 2.49940 2.50650 1.90320 1.95810 2896.55695
 3075.12720 8.80210 0.02740 0.08600 81.57730 51.59960 0.16510 1.97160 2.49850 2.50160 1.88630 1.94600 2896.70210
 3075.27960 8.82600 0.02990 0.09450 81.17830 52.73790 0.17110 1.94570 2.49800 2.51240 1.80730 1.84410 2896.84724
 3075.43200 8.81970 0.02180 0.09150 80.24030 53.03810 0.17490 1.96230 2.48530 2.51120 1.77540 1.83220 2896.99238
 3075.58440 8.82780 0.02140 0.10040 78.68150 52.34120 0.16990 1.93770 2.48740 2.52120 1.76990 1.78930 2897.13752
 3075.73680 8.83390 0.02090 0.09240 77.81000 49.90210 0.16810 1.90840 2.48220 2.50410 1.75440 1.81280 2897.28267
 3075.88920 8.83430 0.02160 0.09360 78.14500 50.09170 0.16700 1.96460 2.49200 2.50100 1.79420 1.80490 2897.42781
 3076.04160 8.81700 0.02070 0.08700 79.50830 49.29580 0.16240 1.99590 2.49320 2.49110 1.88400 1.87850 2897.57295
 3076.19400 8.81770 0.02010 0.08880 80.63880 48.67200 0.16540 2.00670 2.50790 2.50250 1.96750 1.95140 2897.71810
 3076.34640 8.79180 0.01910 0.09280 81.02580 48.02990 0.15720 2.07460 2.50570 2.51300 2.02970 2.05490 2897.86324
 3076.49880 8.78880 0.01830 0.10160 81.26370 49.59490 0.16750 2.08930 2.50560 2.53050 2.05100 2.10960 2898.00838
 3076.65120 8.83230 0.01520 0.10950 80.85050 52.80110 0.16470 2.10560 2.49160 2.53280 2.02590 2.10350 2898.15352
 3076.80360 8.82960 0.01490 0.10610 80.50990 54.14760 0.14790 2.13520 2.48720 2.51700 1.94060 1.97240 2898.29867
 3076.95600 8.81710 0.01920 0.10440 80.25560 54.16030 0.16120 2.10360 2.48240 2.50430 1.92270 1.93920 2898.44381
 3077.10840 8.83760 0.03260 0.10060 79.62440 53.81800 0.16360 2.13660 2.49950 2.49640 1.97950 1.96340 2898.58895
 3077.26080 8.83300 0.04340 0.10980 78.76550 56.22840 0.14720 2.13290 2.51890 2.50830 2.01070 2.02370 2898.73410
 3077.41320 8.83230 0.03550 0.11110 78.68450 58.55070 0.15040 2.25040 2.52360 2.52200 2.11890 2.12850 2898.87924
 3077.56560 8.81540 0.02280 0.10300 79.42310 56.95440 0.15180 2.19700 2.51660 2.52650 2.17320 2.20730 2899.02438
 3077.71800 8.77170 0.01510 0.09250 80.20860 53.62570 0.15470 2.26550 2.50760 2.52640 2.20410 2.24640 2899.16952
 3077.87040 8.77780 0.02270 0.09260 80.33930 53.13860 0.14950 2.28050 2.51200 2.52770 2.20240 2.24710 2899.31467
 3078.02280 8.79540 0.02200 0.09650 80.03890 55.40370 0.16720 2.31770 2.50840 2.52410 2.22050 2.26270 2899.45981
 3078.17520 8.78260 0.02210 0.10210 80.17430 57.12710 0.15450 2.33210 2.51070 2.53330 2.18810 2.21420 2899.60495
 3078.32760 8.76750 0.01950 0.10160 79.37080 56.06210 0.15850 2.35460 2.51200 2.52860 2.23710 2.28090 2899.75010
 3078.48000 8.77260 0.01790 0.10460 78.67660 54.98170 0.15050 2.31170 2.51140 2.53570 2.23120 2.24520 2899.89524
 3078.63240 8.75430 0.02390 0.10110 78.87030 55.20940 0.14450 2.33710 2.52110 2.52600 2.21880 2.29280 2900.04038
 3078.78480 8.76440 0.02180 0.10090 78.68800 54.37110 0.15530 2.30370 2.51380 2.52110 2.14530 2.18920 2900.18552
 3078.93720 8.73770 0.02420 0.09950 78.20760 54.26750 0.15850 2.30890 2.51070 2.51750 2.14950 2.21880 2900.33067
 3079.08960 8.75750 0.02240 0.10440 77.17080 55.02240 0.15670 2.28270 2.49940 2.52160 2.12220 2.14870 2900.47581
 3079.24200 8.78020 0.02540 0.10320 75.95220 55.34920 0.14790 2.27610 2.50390 2.52090 2.13920 2.18950 2900.62095
 3079.39440 8.79180 0.02270 0.10070 77.04140 54.31640 0.16080 2.23770 2.50600 2.51750 2.14520 2.13510 2900.76610
 3079.54680 8.76390 0.02400 0.10050 79.15250 51.32510 0.16290 2.24410 2.51560 2.51870 2.17830 2.20080 2900.91124
 3079.69920 8.76080 0.02440 0.10120 80.79600 49.97300 0.15590 2.20840 2.51480 2.51900 2.13790 2.14040 2901.05638
 3079.85160 8.76360 0.02540 0.10310 82.41350 49.14280 0.15890 2.21250 2.51890 2.51990 2.12450 2.15930 2901.20152
 3080.00400 8.79070 0.02320 0.10300 83.78510 50.31310 0.17020 2.16260 2.50870 2.52030 2.06360 2.09950 2901.34667
 3080.15640 8.75320 0.02090 0.10100 83.37330 53.87330 0.15740 2.16560 2.50740 2.52260 1.95230 1.95160 2901.49181
 3080.30880 8.77630 0.02920 0.10150 81.44650 56.86430 0.16060 2.15480 2.51290 2.52620 1.88760 1.86870 2901.63695
 3080.46120 8.76440 0.02850 0.10110 80.60930 59.55700 0.15960 2.10440 2.51350 2.52020 1.91740 1.94990 2901.78210
 3080.61360 8.78280 0.02990 0.10570 81.39060 59.81230 0.16100 2.08630 2.51660 2.52330 1.97450 2.00210 2901.92724
 3080.76600 8.79370 0.02770 0.10020 81.99250 61.58350 0.16340 2.15680 2.51090 2.51210 1.92010 1.97000 2902.07238
 3080.91840 8.79430 0.02990 0.09840 81.33620 61.67830 0.16530 2.16650 2.51630 2.51600 1.94980 1.94670 2902.21752
 3081.07080 8.78560 0.03210 0.09390 80.95630 60.82370 0.15290 2.20110 2.51940 2.51580 1.99410 2.00300 2902.36267
 3081.22320 8.74590 0.02830 0.09520 81.54630 58.26820 0.16100 2.22850 2.52550 2.52730 2.08360 2.13950 2902.50781
 3081.37560 8.74970 0.02610 0.08930 81.66080 56.83180 0.15230 2.21970 2.52870 2.52590 2.11180 2.14050 2902.65295
 3081.52800 8.80260 0.02230 0.09440 81.60570 57.52010 0.15420 2.25840 2.52940 2.53390 2.11390 2.14380 2902.79810
 3081.68040 8.74870 0.02790 0.09620 82.24270 58.95800 0.15200 2.31640 2.53820 2.53420 2.14510 2.20620 2902.94324
 3081.83280 8.75450 0.02600 0.10670 81.90540 59.67510 0.15640 2.35190 2.53190 2.54620 2.18250 2.21080 2903.08838
 3081.98520 8.75360 0.02620 0.10890 80.70980 60.43730 0.15550 2.39940 2.53330 2.54550 2.18890 2.20210 2903.23352
 3082.13760 8.76530 0.02140 0.11120 79.85610 58.68700 0.15180 2.43180 2.52550 2.55020 2.23520 2.31100 2903.37867
 3082.29000 8.75340 0.02170 0.10700 79.06560 57.79380 0.15160 2.43280 2.52880 2.54690 2.29040 2.34610 2903.52381
 3082.44240 8.74260 0.02720 0.11140 77.94230 55.94310 0.15410 2.45440 2.53360 2.55830 2.28860 2.36620 2903.66895
 3082.59480 8.72090 0.03020 0.11750 78.20460 54.37400 0.14570 2.47780 2.54030 2.55850 2.33460 2.35840 2903.81410
 3082.74720 8.68620 0.03260 0.12840 78.87210 52.03040 0.14260 2.45380 2.54040 2.56290 2.38890 2.36230 2903.95924
 3082.89960 8.69180 0.03200 0.12770 80.67380 51.06770 0.14510 2.45950 2.54220 2.54990 2.38630 2.44000 2904.10438
 3083.05200 8.71970 0.02860 0.12730 83.69530 52.99320 0.14610 2.42950 2.53310 2.54350 2.38470 2.44530 2904.24952
