~Version ---------------------------------------------------
VERS. 2.0 : CWLS log ASCII Standard -VERSION 2.0
WRAP.  NO : One line per depth step
~Well ------------------------------------------------------
STRT     .M           239.8776 : START
STOP     .M          4186.7328 : STOP
STEP     .M 0.1524000000000001 : STEP
NULL     .             -999.25 : NULL VALUE
COMP     .        STATOILHYDRO : COMPANY
WELL     .           15/9-F-12 : WELL
FLD      .               VOLVE : FIELD
LOC      .             UNKNOWN : LOCATION
CNTY     .             UNKNOWN : COUNTY
STAT     .             UNKNOWN : STATE
CTRY     .              Norway : COUNTRY
SRVC     .             UNKNOWN : SERVICE COMPANY
DATE     .             UNKNOWN : LOG DATE
UWI      .        NO 15/9-F-12 : UNIQUE WELL ID
XCOORD   .           435050.17 : SURFACE X
YCOORD   .           6478574.7 : SURFACE Y
LAT      .           58.441713 : LATITUDE
LON      .             1.88748 : LONGITUDE
ELEV     .M               54.9 : SURFACE ELEV
ELEV_TYPE.                  KB : ELEV TYPE
~Curve Information -----------------------------------------
DEPTH    .M           UNKNOWN : Measured Depth
CARB_FLAG.UNKNOWN     UNKNOWN : CARB_FLAG:UNKNOWN:rC:NONE:v1
COAL_FLAG.UNKNOWN     UNKNOWN : COAL_FLAG:UNKNOWN:rC:NONE:v1
DT       .us/ft       UNKNOWN : DT:UNKNOWN:rC:NONE:v2
GR       .API         UNKNOWN : GR:UNKNOWN:rC:NONE:v1
NPHI     .v/v_decimal UNKNOWN : NPHI:UNKNOWN:rC:NONE:v1
RD       .UNKNOWN     UNKNOWN : RD:UNKNOWN:rC:NONE:v1
RHOB     .g/cm3       UNKNOWN : RHOB:UNKNOWN:rC:NONE:v1
ROP5_RM  .UNKNOWN     UNKNOWN : ROP5_RM:UNKNOWN:rC:NONE:v1
RS       .UNKNOWN     UNKNOWN : RS:UNKNOWN:rC:NONE:v1
RT       .ohm.m       UNKNOWN : RT:UNKNOWN:rC:NONE:v1
SAND_FLAG.UNKNOWN     UNKNOWN : SAND_FLAG:UNKNOWN:rC:NONE:v1
TVD      .M                   : True Vertical Depth from PyLasMech
~Params ----------------------------------------------------
~Other -----------------------------------------------------
~ASCII -----------------------------------------------------
# ...
 1766.01120 -999.25 -999.25 134.37579 121.20240 0.41110 0.80280 2.05510 49.42470 0.97840 0.67080 -999.25 1713.32127
 1766.16360 -999.25 -999.25 132.52220 123.59570 0.37920 0.79760 2.04380 49.64170 1.10540 0.76450 -999.25 1713.46102
 1766.31600 -999.25 -999.25 126.32320 126.97920 0.33770 0.83500 2.02180 49.87190 1.17790 0.77970 -999.25 1713.60077
 1766.46840 -999.25 -999.25 120.01250 126.42910 0.33060 0.82220 1.99540 49.87190 1.03270 0.79330 -999.25 1713.74052
 1766.62080 -999.25 -999.25 123.80700 126.04390 0.32030 0.84290 1.97540 49.50630 1.34430 0.83240 -999.25 1713.88027
 1766.77320 -999.25 -999.25 124.75930 123.29310 0.38350 0.85080 1.96400 49.43310 1.03890 0.85750 -999.25 1714.02002
 1766.92560 -999.25 -999.25 125.29840 121.91770 0.45590 0.84600 1.95210 49.41260 1.03120 0.76570 -999.25 1714.15978
 1767.07800 -999.25 -999.25 131.49429 123.56820 0.58780 0.86100 1.94950 49.43310 1.04990 0.79610 -999.25 1714.29953
 1767.23040 -999.25 -999.25 130.56660 128.43719 0.51660 0.86110 1.94910 49.43310 1.37760 0.84220 -999.25 1714.43928
 1767.38280 -999.25 -999.25 131.13209 133.00360 0.47780 0.87390 1.96280 49.42500 1.34980 0.80330 -999.25 1714.57903
 1767.53520 -999.25 -999.25 131.22540 135.01170 0.41300 0.83580 1.96880 49.42110 1.12620 0.77760 -999.25 1714.71878
 1767.68760 -999.25 -999.25 134.74300 129.67509 0.35790 0.84840 1.99230 49.43310 1.65120 0.73130 -999.25 1714.85853
 1767.84000 -999.25 -999.25 132.37109 125.19120 0.31110 0.82110 1.97760 49.41880 1.35510 0.76140 -999.25 1714.99828
 1767.99240 -999.25 -999.25 135.23480 120.15710 0.28470 0.83550 1.98100 49.42730 1.07400 0.84270 -999.25 1715.13803
 1768.14480 -999.25 -999.25 129.40120 120.43220 0.32880 0.83490 1.95290 49.81290 1.02750 0.74550 -999.25 1715.27778
 1768.29720 -999.25 -999.25 129.86659 122.74290 0.39310 0.81140 1.95550 49.87190 1.06660 0.75300 -999.25 1715.41753
 1768.44960 -999.25 -999.25 133.20560 125.49380 0.41650 0.83210 1.95480 49.85290 1.31880 0.79190 -999.25 1715.55728
 1768.60200 -999.25 -999.25 131.18610 124.86110 0.43570 0.81450 1.97470 49.43310 1.07840 0.79330 -999.25 1715.69703
 1768.75440 -999.25 -999.25 133.24969 119.99210 0.38730 0.82120 1.97640 49.42710 1.03570 0.82900 -999.25 1715.83678
 1768.90680 -999.25 -999.25 132.83839 115.50820 0.34110 0.83090 1.97280 49.41980 1.19300 0.71890 -999.25 1715.97654
 1769.05920 -999.25 -999.25 131.49921 114.68290 0.31890 0.80260 1.95580 49.43310 1.10490 0.76440 -999.25 1716.11629
 1769.21160 -999.25 -999.25 130.73050 115.86580 0.30170 0.82840 1.96040 49.41980 1.05100 0.78940 -999.25 1716.25604
 1769.36400 -999.25 -999.25 130.18961 115.78330 0.40420 0.82010 1.95910 49.42710 1.03380 0.74360 -999.25 1716.39579
 1769.51640 -999.25 -999.25 131.16150 115.31560 0.46190 0.82400 1.96320 49.43310 0.90820 0.74780 -999.25 1716.53554
 1769.66880 -999.25 -999.25 132.28270 114.32530 0.55280 0.84650 1.92730 49.43310 1.12810 0.77450 -999.25 1716.67529
 1769.82120 -999.25 -999.25 131.93030 114.21530 0.52330 0.85850 1.87430 49.43190 1.15340 0.76250 -999.25 1716.81504
 1769.97360 -999.25 -999.25 132.85800 114.02270 0.51370 0.84140 1.83410 49.48810 1.06790 0.76700 -999.25 1716.95479
 1770.12600 -999.25 -999.25 132.35640 113.08740 0.50610 0.84310 1.82370 49.87190 1.04200 0.82380 -999.25 1717.09454
 1770.27840 -999.25 -999.25 134.77740 112.17960 0.63540 0.87440 1.85890 49.87920 1.25170 0.78140 -999.25 1717.23429
 1770.43080 -999.25 -999.25 133.54820 109.89640 0.66070 0.80720 1.88340 49.88340 1.07830 0.82650 -999.25 1717.37404
 1770.58320 -999.25 -999.25 129.74380 109.70390 0.67880 0.81530 1.90270 49.87190 1.05210 0.80680 -999.25 1717.51379
 1770.73560 -999.25 -999.25 128.54710 110.06150 0.48910 0.82910 1.86060 49.55500 1.20490 0.72530 -999.25 1717.65355
 1770.88800 -999.25 -999.25 133.27920 115.01300 0.54610 0.79450 1.82630 49.43310 1.03550 0.76650 -999.25 1717.79330
 1771.04040 -999.25 -999.25 134.04300 120.70730 0.68500 0.83180 1.79410 49.81900 0.95710 0.74680 -999.25 1717.93305
 1771.19280 -999.25 -999.25 134.31200 118.97430 1.11380 0.80410 1.81930 49.86310 1.18280 0.71980 -999.25 1718.07280
 1771.34520 -999.25 -999.25 130.10120 113.11490 0.87730 0.79350 1.83710 49.41500 1.16960 0.75390 -999.25 1718.21255
 1771.49760 -999.25 -999.25 127.63100 107.99840 0.72250 0.82150 1.84250 49.43310 1.00100 0.76610 -999.25 1718.35230
 1771.65000 -999.25 -999.25 126.99490 110.94180 0.49340 0.82540 1.83600 49.43310 0.91530 0.75640 -999.25 1718.49205
 1771.80240 -999.25 -999.25 131.60240 117.46130 0.61690 0.82290 1.82150 49.42300 0.97850 0.75840 -999.25 1718.63180
 1771.95480 -999.25 -999.25 134.74300 123.95330 0.59580 0.80590 1.82850 49.42350 1.03590 0.78570 -999.25 1718.77155
 1772.10720 -999.25 -999.25 132.44479 126.59410 0.62090 0.81230 1.82180 49.43310 1.20450 0.79400 -999.25 1718.91130
 1772.25960 -999.25 -999.25 138.25380 126.59410 0.49770 0.80490 1.82440 49.78570 1.02630 0.80550 -999.25 1719.05105
 1772.41200 -999.25 -999.25 136.83611 123.40310 0.47670 0.81680 1.82330 49.87190 1.09410 0.82650 -999.25 1719.19080
 1772.56440 -999.25 -999.25 133.12019 122.85300 0.56560 0.78470 1.83290 49.45510 1.20180 0.71900 -999.25 1719.33055
 1772.71680 -999.25 -999.25 135.17399 122.27530 0.46960 0.78000 1.82770 49.43310 1.03940 0.76330 -999.25 1719.47031
 1772.86920 -999.25 -999.25 134.28250 122.52290 0.46760 0.79680 1.82160 49.43310 1.06050 0.77840 -999.25 1719.61006
 1773.02160 -999.25 -999.25 129.02420 124.44850 0.43130 0.80950 1.82460 49.56630 1.00330 0.72160 -999.25 1719.74981
 1773.17400 -999.25 -999.25 129.85190 123.65070 0.46530 0.78820 1.82410 49.69280 1.01360 0.70370 -999.25 1719.88956
 1773.32640 -999.25 -999.25 132.76770 121.56010 0.39480 0.79330 1.84020 49.42220 1.12010 0.79430 -999.25 1720.02931
 1773.47880 -999.25 -999.25 136.11650 116.25090 0.37170 0.79310 1.80200 49.43310 0.99210 0.80230 -999.25 1720.16906
 1773.63120 -999.25 -999.25 134.35620 119.35940 0.33240 0.78400 1.80330 49.41720 0.98960 0.81160 -999.25 1720.30881
 1773.78360 -999.25 -999.25 131.95970 123.65070 0.31280 0.79400 1.78750 49.42950 0.89220 0.74250 -999.25 1720.44856
 1773.93600 -999.25 -999.25 134.07739 128.87730 0.30990 0.80300 1.78350 49.43310 1.15910 0.76210 -999.25 1720.58831
 1774.08840 -999.25 -999.25 135.62170 127.14430 0.32830 0.77670 1.76990 49.84760 1.10000 0.78480 -999.25 1720.72806
 1774.24080 -999.25 -999.25 129.95990 126.89670 0.38000 0.79980 1.77860 49.50630 1.07260 0.72450 -999.25 1720.86781
 1774.39320 -999.25 -999.25 136.89509 126.78670 0.38440 0.78210 1.78780 49.75000 1.11360 0.74710 -999.25 1721.00756
 1774.54560 -999.25 -999.25 135.34289 124.75110 0.45350 0.79630 1.79970 49.43310 1.11950 0.76450 -999.25 1721.14732
 1774.69800 -999.25 -999.25 133.52850 118.50660 0.48750 0.81250 1.79870 49.43310 0.99660 0.75520 -999.25 1721.28707
 1774.85040 -999.25 -999.25 129.02420 112.01460 0.58070 0.80510 1.83550 49.43310 1.20050 0.80210 -999.25 1721.42682
 1775.00280 -999.25 -999.25 129.90590 108.71360 0.46630 0.79230 1.86700 49.75000 0.89250 0.73860 -999.25 1721.56657
 1775.15520 -999.25 -999.25 134.73320 110.36410 0.43310 0.83350 1.86920 49.49220 1.11660 0.75010 -999.25 1721.70632
 1775.30760 -999.25 -999.25 131.92529 115.23310 0.38790 0.82070 1.83350 49.43310 1.37110 0.79720 -999.25 1721.84607
 1775.46000 -999.25 -999.25 132.71370 121.36750 0.49360 0.80460 1.79580 49.38960 1.10020 0.83290 -999.25 1721.98582
 1775.61240 -999.25 -999.25 134.10690 123.65070 0.45010 0.82440 1.78680 49.08830 1.07360 0.83710 -999.25 1722.12557
 1775.76480 -999.25 -999.25 136.88029 125.93390 0.43380 0.84450 1.78700 49.26810 1.34860 0.76920 -999.25 1722.26532
 1775.91720 -999.25 -999.25 134.78720 125.85140 0.43590 0.81930 1.78630 49.16730 0.98040 0.83340 -999.25 1722.40507
 1776.06960 -999.25 -999.25 134.06760 127.96960 0.40030 0.82570 1.79250 49.17110 1.01310 0.74710 -999.25 1722.54482
 1776.22200 -999.25 -999.25 135.27910 125.49380 0.45380 0.82230 1.80390 49.27960 0.92410 0.74560 -999.25 1722.68457
 1776.37440 -999.25 -999.25 131.16150 123.56820 0.35520 0.81250 1.84480 49.41600 1.18770 0.75560 -999.25 1722.82432
