~Version ---------------------------------------------------
VERS     .                             2.0 : CWLS log ASCII Standard -VERSION 2.0
WRAP     .                              NO : One Line per depth step
PROD     .                    Schlumberger : LAS Producer
PROG     .               DLIS to ASCII 2.3 : LAS Program name and version
CREA     .                   2019/04/03 19 : 56                          :LAS Creation date {YYYY/MM/DD hh:mm}
DLIS_CREA.                  2009-Feb-18 14 : 31                          :DLIS Creation date and time {YYYY-MMM-DD hh:mm}
SOURCE   . WLC_PETRO_COMPUTED_INPUT_1.DLIS : DLIS File Name
FILE-ID  .                   INPUT.logdata : File Identification Number
~Well ------------------------------------------------------
STRT.F                  566.0 : START DEPTH
STOP.F                12302.0 : STOP DEPTH
STEP.F                    0.5 : STEP
NULL.                 -999.25 : NULL VALUE
COMP.            STATOILHYDRO : COMPANY
WELL.               15/9-F-14 : WELL
FLD .                   VOLVE : FIELD
LOC .                         : LOCATION
CNTY.         MAERSK INSPIRER : COUNTY
STAT.                         : STATE
CTRY.                         : COUNTRY
API .                         : API NUMBER
UWI .                         : UNIQUE WELL ID
DATE.                         : LOG DATE
SRVC. CROCKER DATA PROCESSING : SERVICE COMPANY
LATI.DEG                      : LATITUDE
LONG.DEG                      : LONGITUDE
GDAT.                         : GeoDetic Datum
~Curve Information -----------------------------------------
DEPTH.F            : DEPTH (BOREHOLE) {F10.1}
DEPTH..1IN         : Measured Depth {I11}
DRHO .G/C3         : DRHO:UNKNOWN:rC:NONE:v1 {F13.4}
DT   .US/F         : DT:UNKNOWN:rC:NONE:v2 {F13.4}
DTS  .US/F         : DTS:UNKNOWN:rC:NONE:v1 {F13.4}
GR   .API          : GR:UNKNOWN:rC:NONE:v1 {F13.4}
NPHI .V/V_DECIMAL  : NPHI:UNKNOWN:rC:NONE:v1 {F13.4}
PEF  .B/ELEC       : PEF:UNKNOWN:rC:NONE:v1 {F13.4}
RD   .UNKNOWN      : RD:UNKNOWN:rC:NONE:v1 {F13.4}
RHOB .G/C3         : RHOB:UNKNOWN:rC:NONE:v1 {F13.4}
RS   .UNKNOWN      : RS:UNKNOWN:rC:NONE:v1 {F13.4}
RT   .OHMM         : RT:UNKNOWN:rC:NONE:v1 {F13.4}
TVD  .M            : True Vertical Depth from PyLasMech
~Params ----------------------------------------------------
CN  .    STATOILHYDRO : Company
WN  .       15/9-F-14 : Well Name
FN  .           VOLVE : Field
CTRY.          NORWAY : Country
COUN. MAERSK INSPIRER : County or Rig name
PDAT.             MSL : Perm. Datum
ELZ .M            0.0 : Elev. Log Zero (wrt EPD)
SRVC.         UNKNOWN : Service company
R2  .           INPUT : R2
RUN .                 : RUN NUMBER
EPD .                 : Elevation of Permanent Datum above Mean Sea Level
LMF .                 : Logging Measured From (Name of Logging Elevation Reference)
APD .                 : Elevation of Depth Reference (LMF) above Permanent Datum
~Other -----------------------------------------------------
~ASCII -----------------------------------------------------
# ...
 9126.50000 1095180.00000 -1.21900 72.10770 -999.25 12.16740 0.32730 68.99210 200.00000 1.87870 5000.00000 5.01100 -999.25
 9127.00000 1095240.00000 -1.32790 72.19090 -999.25 11.19270 0.32830 71.13390 0.16650 1.88460 5000.00000 5.01100 -999.25
 9127.50000 1095300.00000 -1.59540 72.91160 -999.25 10.56050 0.30680 79.21670 0.10000 1.81940 18.01760 5.01100 -999.25
 9128.00000 1095360.00000 -1.87750 71.59720 -5033.01990 10.18840 0.31270 86.10330 0.20650 1.81480 5000.00000 5.01100 -999.25
 9128.50000 1095420.00000 -2.26440 68.31410 132.39650 10.94700 0.46220 138.71730 0.12460 1.09880 2.72990 5.01100 -999.25
 9129.00000 1095480.00000 -0.56080 66.35100 133.70420 12.63980 0.36110 43.52110 1.48420 2.34650 5000.00000 5.01100 -999.25
 9129.50000 1095540.00000 -0.14110 69.84420 134.95430 15.20480 0.37940 36.12400 0.10000 2.12950 24.35430 5.01100 -999.25
 9130.00000 1095600.00000 0.22620 71.30530 135.88270 16.62040 0.32890 29.22660 7.96630 2.20230 2.68510 5.01100 -999.25
 9130.50000 1095660.00000 0.33230 73.14290 136.36210 17.32010 0.28400 26.91020 0.80880 2.16150 0.63100 5.01100 -999.25
 9131.00000 1095720.00000 0.37700 73.99470 136.84150 16.08540 0.23700 18.65590 3.50160 2.24070 1.51630 5.01100 -999.25
 9131.50000 1095780.00000 0.28550 73.22330 135.99900 16.59040 0.23740 12.54900 200.00000 2.25600 4.46400 5.01100 -999.25
 9132.00000 1095840.00000 0.25200 72.61680 132.35820 16.15760 0.25670 8.96380 0.38980 2.30680 8.07330 5.01100 -999.25
 9132.50000 1095900.00000 0.24920 72.94540 131.21400 16.47930 0.26130 9.57000 2.81710 2.32690 2.98210 5.01100 -999.25
 9133.00000 1095960.00000 0.29490 74.11170 131.66340 16.08390 0.24890 13.65890 2.84690 2.30690 3.13920 5.01100 -999.25
 9133.50000 1096020.00000 0.48860 74.60800 132.11860 16.78780 0.23970 20.31140 2.86080 2.35370 3.37920 5.01100 -999.25
 9134.00000 1096080.00000 0.32950 71.64150 132.85390 17.84190 0.24280 26.96240 2.79560 2.19780 3.28980 5.01100 -999.25
 9134.50000 1096140.00000 0.29770 72.32680 134.29250 19.05700 0.25400 27.89280 2.77130 2.15470 3.20700 5.01100 -999.25
 9135.00000 1096200.00000 0.29830 72.60490 135.24350 19.70140 0.25250 27.71650 2.77400 2.15410 3.14880 2.97320 -999.25
 9135.50000 1096260.00000 0.33310 72.56610 134.77440 18.81350 0.25530 26.85520 2.77840 2.18900 3.07320 2.79390 -999.25
 9136.00000 1096320.00000 0.37060 71.49360 134.14890 16.90590 0.25480 25.99540 2.68980 2.22360 2.89600 2.71940 -999.25
 9136.50000 1096380.00000 0.40570 72.62530 134.02980 16.49270 0.25680 25.46590 2.71590 2.26050 2.80020 2.64730 -999.25
 9137.00000 1096440.00000 0.39170 72.94470 134.02980 16.79150 0.24820 25.57950 2.65930 2.25310 2.79820 2.52440 -999.25
 9137.50000 1096500.00000 0.39770 72.52590 134.13650 17.52050 0.24430 25.28910 2.62470 2.26260 2.75190 2.53930 -999.25
 9138.00000 1096560.00000 0.41630 71.63950 134.89600 17.03560 0.23330 24.60890 2.58740 2.28220 2.80760 2.70330 -999.25
 9138.50000 1096620.00000 0.46250 70.11220 137.32420 17.24590 0.24470 22.78880 2.58270 2.33340 2.91130 2.69920 -999.25
 9139.00000 1096680.00000 0.43730 69.32950 139.89220 16.98950 0.21760 19.88460 2.59860 2.34900 3.09620 2.61740 -999.25
 9139.50000 1096740.00000 0.37850 72.20570 138.15730 16.76830 0.20990 17.57750 2.60000 2.38210 3.18210 2.77460 -999.25
 9140.00000 1096800.00000 0.33950 71.23760 136.95300 16.72600 0.21770 16.08810 2.64050 2.42650 3.31660 2.85930 -999.25
 9140.50000 1096860.00000 0.33690 70.77920 135.83640 17.48210 0.20570 15.80940 2.60860 2.45530 3.36060 2.88200 -999.25
 9141.00000 1096920.00000 0.33500 71.27920 134.63210 17.27970 0.20220 15.64200 2.48140 2.44500 3.16930 2.84890 -999.25
 9141.50000 1096980.00000 0.33680 71.09020 133.91940 15.93030 0.21950 15.50770 2.33400 2.43290 2.83550 2.64910 -999.25
 9142.00000 1097040.00000 0.33700 70.95970 134.07560 14.06570 0.22820 15.04970 2.24860 2.42540 2.49490 2.39910 -999.25
 9142.50000 1097100.00000 0.32600 71.48440 134.03550 14.21570 0.25270 14.35040 2.23040 2.42750 2.35510 2.16880 -999.25
 9143.00000 1097160.00000 0.32390 71.53370 134.42770 14.98770 0.24870 14.09260 2.22740 2.45250 2.36460 2.06140 -999.25
 9143.50000 1097220.00000 0.30890 71.73890 135.74220 15.65390 0.24080 13.44200 2.16540 2.46120 2.30240 2.15350 -999.25
 9144.00000 1097280.00000 0.31310 71.86160 135.96070 15.45990 0.24140 13.66260 2.11730 2.46680 2.35260 2.27040 -999.25
 9144.50000 1097340.00000 0.30790 72.13380 136.13690 16.18560 0.25030 13.65690 2.00620 2.44600 2.33120 2.21770 -999.25
 9145.00000 1097400.00000 0.31810 73.00960 136.34690 16.04170 0.24460 13.86010 2.10740 2.44820 2.20010 2.07030 -999.25
 9145.50000 1097460.00000 0.30650 71.75440 136.95770 15.81670 0.23080 13.38180 2.07590 2.45070 2.13080 1.99410 -999.25
 9146.00000 1097520.00000 0.29450 71.47730 137.64290 15.67450 0.25360 12.74400 2.10610 2.46360 2.14990 1.96910 -999.25
 9146.50000 1097580.00000 0.28980 72.46730 138.37410 16.93280 0.25190 12.64830 2.10510 2.47430 2.15630 2.01910 -999.25
 9147.00000 1097640.00000 0.26500 71.73930 138.67770 17.02960 0.24260 12.01850 2.12090 2.46380 2.25820 2.08930 -999.25
 9147.50000 1097700.00000 0.29170 71.00100 138.40540 17.75490 0.24820 12.93810 2.15940 2.47330 2.32840 2.13340 -999.25
 9148.00000 1097760.00000 0.33060 70.73800 138.38960 17.73190 0.26800 14.58710 2.25730 2.44380 2.31930 2.16330 -999.25
 9148.50000 1097820.00000 0.39330 71.39130 138.43650 18.75700 0.23090 17.26080 2.30640 2.47150 2.36750 2.21610 -999.25
 9149.00000 1097880.00000 0.38310 72.08300 137.83950 18.60930 0.20500 17.00050 2.39010 2.45600 2.56400 2.33020 -999.25
 9149.50000 1097940.00000 0.29860 71.77980 136.02650 17.68490 0.16810 12.75050 2.39070 2.47010 2.71740 2.51140 -999.25
 9150.00000 1098000.00000 0.16080 71.57390 134.70640 16.73480 0.13370 8.82480 2.31250 2.43510 2.79580 2.62380 -999.25
 9150.50000 1098060.00000 0.08100 70.92660 133.97670 14.97060 0.15110 6.26340 2.53800 2.49200 2.64640 2.51010 -999.25
 9151.00000 1098120.00000 0.02120 70.99990 133.25640 14.62300 0.14520 5.37330 2.52850 2.50190 2.62400 2.56960 -999.25
 9151.50000 1098180.00000 0.02840 70.79550 132.93800 14.96920 0.14530 5.32060 2.50860 2.52270 2.54370 2.53860 -999.25
 9152.00000 1098240.00000 0.02650 71.22210 133.71030 15.30590 0.14140 5.10720 2.49980 2.50880 2.39160 2.40500 -999.25
 9152.50000 1098300.00000 0.02900 71.11420 133.95170 15.99940 0.13720 5.06790 2.56050 2.51220 2.29020 2.26470 -999.25
 9153.00000 1098360.00000 0.02620 70.13050 134.34280 16.01030 0.13430 4.98960 2.58330 2.52040 2.32160 2.23300 -999.25
 9153.50000 1098420.00000 0.02070 70.15520 134.71220 16.43650 0.13590 5.05850 2.56750 2.53370 2.40750 2.33770 -999.25
 9154.00000 1098480.00000 0.02170 70.12200 136.66060 16.48360 0.13340 5.05650 2.55190 2.54020 2.54020 2.54350 -999.25
 9154.50000 1098540.00000 0.02540 70.40270 136.59550 16.31760 0.13450 5.15140 2.59070 2.53970 2.49130 2.49520 -999.25
 9155.00000 1098600.00000 0.03080 72.33900 135.52240 16.91700 0.13590 5.30950 2.56180 2.53760 2.52490 2.48300 -999.25
 9155.50000 1098660.00000 0.04690 73.42850 136.06260 17.32370 0.13790 5.59350 2.55240 2.55030 2.50920 2.49050 -999.25
 9156.00000 1098720.00000 0.06560 73.45530 136.59990 16.76730 0.13230 5.92810 2.54580 2.55620 2.51540 2.47850 -999.25
 9156.50000 1098780.00000 0.08540 74.84790 136.91000 16.14530 0.13050 6.27430 2.50880 2.56390 2.51130 2.47430 -999.25
 9157.00000 1098840.00000 0.07730 73.40240 136.59730 14.64080 0.13300 5.92620 2.50200 2.54490 2.55470 2.52480 -999.25
 9157.50000 1098900.00000 0.05420 71.40260 136.76790 14.70810 0.13370 5.50870 2.48210 2.52790 2.47050 2.45040 -999.25
 9158.00000 1098960.00000 0.02840 71.61550 137.78200 13.98430 0.13050 4.99170 2.49140 2.51160 2.35190 2.36090 -999.25
 9158.50000 1099020.00000 0.01040 71.33630 137.70460 14.67940 0.13610 4.94760 2.43740 2.49920 2.27940 2.31000 -999.25
 9159.00000 1099080.00000 0.01590 71.26370 138.00510 14.19890 0.13940 4.96320 2.41960 2.50280 2.18730 2.22420 -999.25
 9159.50000 1099140.00000 0.01780 72.21490 138.63030 14.13180 0.14100 5.00180 2.37410 2.49670 2.09220 2.11790 -999.25
 9160.00000 1099200.00000 0.02880 72.42790 138.77530 13.47490 0.14430 5.07620 2.32830 2.50000 2.07190 2.06250 -999.25
