~Version ---------------------------------------------------
VERS. 2.0 : CWLS log ASCII Standard -VERSION 2.0
WRAP.  NO : One line per depth step
~Well ------------------------------------------------------
STRT     .M           239.8776 : START
STOP     .M          4186.7328 : STOP
STEP     .M 0.1524000000000001 : STEP
NULL     .             -999.25 : NULL VALUE
COMP     .        STATOILHYDRO : COMPANY
WELL     .           15/9-F-12 : WELL
FLD      .               VOLVE : FIELD
LOC      .             UNKNOWN : LOCATION
CNTY     .             UNKNOWN : COUNTY
STAT     .             UNKNOWN : STATE
CTRY     .              Norway : COUNTRY
SRVC     .             UNKNOWN : SERVICE COMPANY
DATE     .             UNKNOWN : LOG DATE
UWI      .        NO 15/9-F-12 : UNIQUE WELL ID
XCOORD   .           435050.17 : SURFACE X
YCOORD   .           6478574.7 : SURFACE Y
LAT      .           58.441713 : LATITUDE
LON      .             1.88748 : LONGITUDE
ELEV     .M               54.9 : SURFACE ELEV
ELEV_TYPE.                  KB : ELEV TYPE
~Curve Information -----------------------------------------
DEPTH    .M           UNKNOWN : Measured Depth
CARB_FLAG.UNKNOWN     UNKNOWN : CARB_FLAG:UNKNOWN:rC:NONE:v1
COAL_FLAG.UNKNOWN     UNKNOWN : COAL_FLAG:UNKNOWN:rC:NONE:v1
DT       .us/ft       UNKNOWN : DT:UNKNOWN:rC:NONE:v2
GR       .API         UNKNOWN : GR:UNKNOWN:rC:NONE:v1
NPHI     .v/v_decimal UNKNOWN : NPHI:UNKNOWN:rC:NONE:v1
RD       .UNKNOWN     UNKNOWN : RD:UNKNOWN:rC:NONE:v1
RHOB     .g/cm3       UNKNOWN : RHOB:UNKNOWN:rC:NONE:v1
ROP5_RM  .UNKNOWN     UNKNOWN : ROP5_RM:UNKNOWN:rC:NONE:v1
RS       .UNKNOWN     UNKNOWN : RS:UNKNOWN:rC:NONE:v1
RT       .ohm.m       UNKNOWN : RT:UNKNOWN:rC:NONE:v1
SAND_FLAG.UNKNOWN     UNKNOWN : SAND_FLAG:UNKNOWN:rC:NONE:v1
TVD      .M                   : True Vertical Depth from PyLasMech
~Params ----------------------------------------------------
~Other -----------------------------------------------------
~ASCII -----------------------------------------------------
# ...
 3498.03720 0.00000 0.00000 -999.25 92.48220 0.23780 0.61000 2.34000 27.99000 0.60850 0.55930 0.00000 -999.25
 3498.18960 0.00000 0.00000 -999.25 92.12250 0.23980 0.61000 2.34000 27.99000 0.60240 0.55620 0.00000 -999.25
 3498.34200 0.00000 0.00000 -999.25 91.76290 0.24190 0.61000 2.34000 27.99000 0.59630 0.55320 0.00000 -999.25
 3498.49440 0.00000 0.00000 -999.25 91.40320 0.24390 0.61000 2.34000 27.99000 0.59020 0.55010 0.00000 -999.25
 3498.64680 0.00000 0.00000 -999.25 91.26080 0.23960 0.62760 2.33710 27.97240 0.59290 0.57350 0.00000 -999.25
 3498.79920 0.00000 0.00000 -999.25 91.12670 0.23500 0.64590 2.33400 27.95410 0.59600 0.59790 0.00000 -999.25
 3498.95160 0.00000 0.00000 -999.25 90.99260 0.23040 0.66420 2.33100 27.93580 0.59900 0.62230 0.00000 -999.25
 3499.10400 0.00000 0.00000 -999.25 90.19700 0.23380 0.67420 2.32790 27.93000 0.60420 0.63000 0.00000 -999.25
 3499.25640 0.00000 0.00000 -999.25 89.09370 0.24100 0.68030 2.32490 27.93000 0.61030 0.63000 0.00000 -999.25
 3499.40880 0.00000 0.00000 -999.25 87.99030 0.24810 0.68640 2.32180 27.93000 0.61640 0.63000 0.00000 -999.25
 3499.56120 0.00000 0.00000 -999.25 86.43650 0.24980 0.70470 2.32000 27.92020 0.61510 0.63610 0.00000 -999.25
 3499.71360 0.00000 0.00000 -999.25 84.21140 0.24330 0.74130 2.32000 27.89580 0.60290 0.65140 0.00000 -999.25
 3499.86600 0.00000 0.00000 -999.25 81.98640 0.23670 0.77780 2.32000 27.87140 0.59070 0.66660 1.00000 -999.25
 3500.01840 0.00000 0.00000 -999.25 79.74330 0.23140 0.81330 2.31960 27.85520 0.57780 0.67710 1.00000 -999.25
 3500.17080 0.00000 0.00000 -999.25 77.36890 0.23430 0.84070 2.31660 27.89780 0.55950 0.65270 1.00000 -999.25
 3500.32320 0.00000 0.00000 -999.25 74.99450 0.23730 0.86820 2.31350 27.94050 0.54120 0.62830 1.00000 -999.25
 3500.47560 0.00000 0.00000 -999.25 72.62010 0.24030 0.89560 2.31050 27.98320 0.52290 0.60390 1.00000 -999.25
 3500.62800 0.00000 0.00000 -999.25 72.16580 0.24130 0.89230 2.31510 27.99000 0.54820 0.67680 1.00000 -999.25
 3500.78040 0.00000 0.00000 -999.25 72.07740 0.24190 0.88320 2.32120 27.99000 0.58170 0.76820 1.00000 -999.25
 3500.93280 0.00000 0.00000 -999.25 71.98900 0.24250 0.87400 2.32730 27.99000 0.61520 0.85970 1.00000 -999.25
 3501.08520 0.00000 0.00000 -999.25 72.38280 0.24180 0.85980 2.33000 27.97810 0.63510 0.92040 1.00000 -999.25
 3501.23760 0.00000 0.00000 -999.25 73.15700 0.23990 0.84150 2.33000 27.95670 0.64430 0.95700 1.00000 -999.25
 3501.39000 0.00000 0.00000 -999.25 73.93120 0.23810 0.82320 2.33000 27.93540 0.65340 0.99360 1.00000 -999.25
 3501.54240 0.00000 0.00000 -999.25 74.54260 0.23690 0.81420 2.33000 27.92090 0.66590 1.02850 1.00000 -999.25
 3501.69480 0.00000 0.00000 -999.25 74.73160 0.23730 0.82950 2.33000 27.92390 0.68730 1.05900 1.00000 -999.25
 3501.84720 0.00000 0.00000 -999.25 74.92050 0.23770 0.84470 2.33000 27.92690 0.70860 1.08940 1.00000 -999.25
 3501.99960 0.00000 0.00000 -999.25 75.11000 0.23810 0.86000 2.33000 27.93000 0.73000 1.12000 1.00000 -999.25
 3502.15200 0.00000 0.00000 -999.25 76.34120 0.23690 0.84780 2.34220 27.90570 0.77860 1.11090 1.00000 -999.25
 3502.30440 0.00000 0.00000 -999.25 77.57570 0.23580 0.83560 2.35440 27.88130 0.82740 1.10170 1.00000 -999.25
 3502.45680 0.00000 0.00000 -999.25 78.81010 0.23460 0.82350 2.36650 27.85690 0.87620 1.09260 1.00000 -999.25
 3502.60920 0.00000 0.00000 -999.25 78.90010 0.23180 0.82000 2.37440 27.86530 0.89000 1.07470 1.00000 -999.25
 3502.76160 0.00000 0.00000 -999.25 78.53740 0.22820 0.82000 2.38050 27.88660 0.89000 1.05340 1.00000 -999.25
 3502.91400 0.00000 0.00000 -999.25 78.17470 0.22470 0.82000 2.38660 27.90800 0.89000 1.03200 1.00000 -999.25
 3503.06640 0.00000 0.00000 -999.25 77.89830 0.22190 0.83730 2.38730 27.93730 0.87270 0.99740 1.00000 -999.25
 3503.21880 0.00000 0.00000 -999.25 77.73370 0.21990 0.87690 2.38120 27.97690 0.83310 0.94560 1.00000 -999.25
 3503.37120 0.00000 0.00000 -999.25 77.56910 0.21790 0.91650 2.37520 28.01650 0.79350 0.89380 1.00000 -999.25
 3503.52360 0.00000 0.00000 -999.25 77.40500 0.21670 0.95420 2.36860 28.07120 0.75950 0.86840 1.00000 -999.25
 3503.67600 0.00000 0.00000 -999.25 77.24340 0.21960 0.98170 2.35940 28.20840 0.75650 0.98730 1.00000 -999.25
 3503.82840 0.00000 0.00000 -999.25 77.08190 0.22250 1.00910 2.35030 28.34560 0.75340 1.10620 1.00000 -999.25
 3503.98080 0.00000 0.00000 -999.25 76.92040 0.22540 1.03650 2.34120 28.48270 0.75040 1.22500 1.00000 -999.25
 3504.13320 0.00000 0.00000 -999.25 77.81110 0.22680 1.06130 2.32930 28.52130 0.75270 1.13080 1.00000 -999.25
 3504.28560 0.00000 0.00000 -999.25 78.85350 0.22790 1.08570 2.31720 28.54570 0.75570 1.00580 1.00000 -999.25
 3504.43800 0.00000 0.00000 -999.25 79.89590 0.22900 1.11010 2.30500 28.57010 0.75880 0.88080 1.00000 -999.25
 3504.59040 0.00000 0.00000 -999.25 80.88050 0.22830 1.21940 2.31630 28.53840 0.80880 0.89510 1.00000 -999.25
 3504.74280 0.00000 0.00000 -999.25 81.82540 0.22640 1.38710 2.34370 28.46830 0.89110 1.00480 1.00000 -999.25
 3504.89520 0.00000 0.00000 -999.25 82.77020 0.22450 1.55470 2.37110 28.39820 0.97340 1.11450 0.00000 -999.25
 3505.04760 0.00000 0.00000 -999.25 83.02870 0.22060 1.68140 2.39570 28.29570 1.09760 1.22900 0.00000 -999.25
 3505.20000 0.00000 0.00000 -999.25 81.77600 0.21230 1.71800 2.41400 28.12200 1.31400 1.35400 1.00000 -999.25
 3505.35240 0.00000 0.00000 -999.25 80.52330 0.20400 1.75460 2.43230 27.94830 1.53040 1.47900 1.00000 -999.25
 3505.50480 0.00000 -999.25 -999.25 79.31570 -999.25 1.80040 2.45120 27.77800 1.77240 1.62040 1.00000 -999.25
 3505.65720 0.00000 -999.25 -999.25 79.49550 -999.25 2.12960 2.48770 27.71400 2.80270 2.26970 1.00000 -999.25
 3505.80960 0.00000 -999.25 -999.25 79.67530 -999.25 2.45870 2.52430 27.65000 3.83290 2.91890 1.00000 -999.25
 3505.96200 0.00000 -999.25 -999.25 79.85520 -999.25 2.78790 2.56090 27.58600 4.86310 3.56810 1.00000 -999.25
 3506.11440 0.00000 -999.25 -999.25 79.73070 -999.25 -999.25 2.57000 27.38470 -999.25 -999.25 -999.25 -999.25
 3506.26680 0.00000 -999.25 -999.25 79.50510 -999.25 -999.25 2.57000 27.13780 -999.25 -999.25 -999.25 -999.25
 3506.41920 0.00000 -999.25 -999.25 79.27960 -999.25 -999.25 2.57000 26.89090 -999.25 -999.25 -999.25 -999.25
 3506.57160 0.00000 -999.25 -999.25 79.09560 -999.25 -999.25 2.57570 26.45070 -999.25 -999.25 -999.25 -999.25
 3506.72400 0.00000 -999.25 -999.25 78.95840 -999.25 -999.25 2.58790 25.79230 -999.25 -999.25 -999.25 -999.25
 3506.87640 0.00000 -999.25 -999.25 78.82120 -999.25 -999.25 2.60010 25.13390 -999.25 -999.25 -999.25 -999.25
 3507.02880 0.00000 -999.25 -999.25 78.09940 -999.25 -999.25 2.60710 24.23080 -999.25 -999.25 -999.25 -999.25
 3507.18120 0.00000 -999.25 -999.25 74.86860 -999.25 -999.25 2.59190 22.27700 -999.25 -999.25 -999.25 -999.25
 3507.33360 0.00000 -999.25 -999.25 71.63770 -999.25 -999.25 2.57660 20.32320 -999.25 -999.25 -999.25 -999.25
 3507.48600 0.00000 -999.25 -999.25 68.40680 -999.25 -999.25 2.56140 18.36950 -999.25 -999.25 -999.25 -999.25
 3507.63840 0.00000 -999.25 -999.25 66.90040 -999.25 -999.25 -999.25 17.60870 -999.25 -999.25 -999.25 -999.25
 3507.79080 0.00000 -999.25 -999.25 65.56840 -999.25 -999.25 -999.25 16.96860 -999.25 -999.25 -999.25 -999.25
 3507.94320 0.00000 -999.25 -999.25 64.23640 -999.25 -999.25 -999.25 16.32860 -999.25 -999.25 -999.25 -999.25
 3508.09560 0.00000 -999.25 -999.25 63.55260 -999.25 -999.25 -999.25 15.88730 -999.25 -999.25 -999.25 -999.25
 3508.24800 0.00000 -999.25 -999.25 63.25390 -999.25 -999.25 -999.25 15.56420 -999.25 -999.25 -999.25 -999.25
 3508.40040 0.00000 -999.25 -999.25 62.95520 -999.25 -999.25 -999.25 15.24110 -999.25 -999.25 -999.25 -999.25
 3508.55280 0.00000 -999.25 -999.25 63.37350 -999.25 -999.25 -999.25 14.80300 -999.25 -999.25 -999.25 -999.25
 3508.70520 0.00000 -999.25 -999.25 65.14440 -999.25 -999.25 -999.25 14.14760 -999.25 -999.25 -999.25 -999.25
 3508.85760 0.00000 -999.25 -999.25 66.91530 -999.25 -999.25 -999.25 13.49230 -999.25 -999.25 -999.25 -999.25
 3509.01000 0.00000 -999.25 -999.25 100.66900 -999.25 -999.25 -999.25 12.87480 -999.25 -999.25 -999.25 -999.25
