~Version ---------------------------------------------------
VERS     .                             2.0 : CWLS log ASCII Standard -VERSION 2.0
WRAP     .                              NO : One Line per depth step
PROD     .                    Schlumberger : LAS Producer
PROG     .               DLIS to ASCII 2.3 : LAS Program name and version
CREA     .                   2019/04/03 19 : 56                          :LAS Creation date {YYYY/MM/DD hh:mm}
DLIS_CREA.                  2009-Feb-18 14 : 31                          :DLIS Creation date and time {YYYY-MMM-DD hh:mm}
SOURCE   . WLC_PETRO_COMPUTED_INPUT_1.DLIS : DLIS File Name
FILE-ID  .                   INPUT.logdata : File Identification Number
~Well ------------------------------------------------------
STRT.F                  566.0 : START DEPTH
STOP.F                12302.0 : STOP DEPTH
STEP.F                    0.5 : STEP
NULL.                 -999.25 : NULL VALUE
COMP.            STATOILHYDRO : COMPANY
WELL.               15/9-F-14 : WELL
FLD .                   VOLVE : FIELD
LOC .                         : LOCATION
CNTY.         MAERSK INSPIRER : COUNTY
STAT.                         : STATE
CTRY.                         : COUNTRY
API .                         : API NUMBER
UWI .                         : UNIQUE WELL ID
DATE.                         : LOG DATE
SRVC. CROCKER DATA PROCESSING : SERVICE COMPANY
LATI.DEG                      : LATITUDE
LONG.DEG                      : LONGITUDE
GDAT.                         : GeoDetic Datum
~Curve Information -----------------------------------------
DEPTH.F            : DEPTH (BOREHOLE) {F10.1}
DEPTH..1IN         : Measured Depth {I11}
DRHO .G/C3         : DRHO:UNKNOWN:rC:NONE:v1 {F13.4}
DT   .US/F         : DT:UNKNOWN:rC:NONE:v2 {F13.4}
DTS  .US/F         : DTS:UNKNOWN:rC:NONE:v1 {F13.4}
GR   .API          : GR:UNKNOWN:rC:NONE:v1 {F13.4}
NPHI .V/V_DECIMAL  : NPHI:UNKNOWN:rC:NONE:v1 {F13.4}
PEF  .B/ELEC       : PEF:UNKNOWN:rC:NONE:v1 {F13.4}
RD   .UNKNOWN      : RD:UNKNOWN:rC:NONE:v1 {F13.4}
RHOB .G/C3         : RHOB:UNKNOWN:rC:NONE:v1 {F13.4}
RS   .UNKNOWN      : RS:UNKNOWN:rC:NONE:v1 {F13.4}
RT   .OHMM         : RT:UNKNOWN:rC:NONE:v1 {F13.4}
TVD  .M            : True Vertical Depth from PyLasMech
~Params ----------------------------------------------------
CN  .    STATOILHYDRO : Company
WN  .       15/9-F-14 : Well Name
FN  .           VOLVE : Field
CTRY.          NORWAY : Country
COUN. MAERSK INSPIRER : County or Rig name
PDAT.             MSL : Perm. Datum
ELZ .M            0.0 : Elev. Log Zero (wrt EPD)
SRVC.         UNKNOWN : Service company
R2  .           INPUT : R2
RUN .                 : RUN NUMBER
EPD .                 : Elevation of Permanent Datum above Mean Sea Level
LMF .                 : Logging Measured From (Name of Logging Elevation Reference)
APD .                 : Elevation of Depth Reference (LMF) above Permanent Datum
~Other -----------------------------------------------------
~ASCII -----------------------------------------------------
# ...
 10196.00000 1223520.00000 0.01250 88.67430 139.39840 17.34650 0.17130 2.25780 137.28870 2.18030 979.41200 543.17360 2899.93853
 10196.50000 1223580.00000 0.01060 88.49380 137.46640 18.41230 0.16400 2.27290 189.99570 2.18250 1001.27500 613.47700 2899.99212
 10197.00000 1223640.00000 0.00950 88.53540 137.16860 18.90070 0.17400 2.32250 148.89170 2.17850 1325.57200 595.56620 2900.04571
 10197.50000 1223700.00000 0.01140 89.24120 143.40600 17.97730 0.17220 2.37350 154.49830 2.17130 910.57530 633.40000 2900.09930
 10198.00000 1223760.00000 0.01280 89.89700 144.77650 16.39430 0.16880 2.33730 150.29750 2.16270 1352.01700 617.68720 2900.15289
 10198.50000 1223820.00000 0.01500 89.87230 145.42780 15.26790 0.16670 2.28320 143.62010 2.16220 2699.27910 601.67240 2900.20648
 10199.00000 1223880.00000 0.01470 89.85610 146.33210 14.43890 0.17770 2.24450 153.29720 2.16380 1034.01100 661.90550 2900.26007
 10199.50000 1223940.00000 0.01590 89.81450 146.22710 15.05030 0.16720 2.28130 142.58290 2.16590 1430.09800 606.63710 2900.31366
 10200.00000 1224000.00000 0.01530 89.52820 146.58750 16.85500 0.17330 2.33480 149.79000 2.16630 1275.61600 645.65050 2900.36726
 10200.50000 1224060.00000 0.01880 89.81450 146.50740 16.37500 0.16660 2.40320 147.07450 2.16470 1202.53800 632.04240 2900.42085
 10201.00000 1224120.00000 0.02040 89.35550 145.33790 15.60750 0.16470 2.41210 148.48160 2.16870 1614.90800 711.02350 2900.47444
 10201.50000 1224180.00000 0.02110 89.23210 144.20460 13.56930 0.16400 2.38190 156.24430 2.16860 1435.40300 678.75020 2900.52803
 10202.00000 1224240.00000 0.02250 89.12630 144.28470 13.40300 0.18680 2.35950 200.00000 2.16870 1346.43990 723.23850 2900.58162
 10202.50000 1224300.00000 0.02060 90.11140 144.87250 12.86240 0.16750 2.32130 144.52050 2.16550 1542.46900 633.75760 2900.63521
 10203.00000 1224360.00000 0.02080 91.16060 144.64510 12.90930 0.15790 2.32440 163.25920 2.16990 1514.93900 667.19680 2900.68880
 10203.50000 1224420.00000 0.01650 91.53080 145.37410 12.18640 0.16730 2.26740 200.00000 2.17450 1416.74900 769.91210 2900.74194
 10204.00000 1224480.00000 0.01430 91.87280 145.39150 12.72180 0.16560 2.28810 137.56690 2.17110 1478.67800 665.08360 2900.78544
 10204.50000 1224540.00000 0.01120 89.89630 145.25100 13.09980 0.16390 2.28560 200.00000 2.16460 1398.51200 703.88960 2900.82893
 10205.00000 1224600.00000 0.01370 89.12560 145.43610 13.78920 0.17790 2.41930 145.73840 2.15900 1694.11900 725.27970 2900.87243
 10205.50000 1224660.00000 0.00920 89.09310 145.92790 13.82450 0.17900 2.43050 163.30230 2.15490 998.47610 687.59360 2900.91592
 10206.00000 1224720.00000 0.00810 89.35550 146.00720 13.94790 0.16910 2.46600 147.73840 2.15730 1013.29600 736.56730 2900.95942
 10206.50000 1224780.00000 0.00300 89.42950 145.90070 13.88420 0.18170 2.36450 149.35330 2.15860 1476.11000 737.02860 2901.00291
 10207.00000 1224840.00000 0.00630 89.70030 145.32200 14.05280 0.17380 2.44100 200.00000 2.15920 1168.63600 716.92960 2901.04641
 10207.50000 1224900.00000 0.00960 89.92170 146.13040 14.06080 0.17310 2.44790 200.00000 2.15840 1661.35710 725.05560 2901.08990
 10208.00000 1224960.00000 0.01320 89.96260 146.62300 15.81240 0.17090 2.59910 183.40170 2.15600 1206.54100 699.06590 2901.13340
 10208.50000 1225020.00000 0.01910 90.02040 147.29090 16.94980 0.18500 2.57770 160.19530 2.16310 1569.15200 679.31400 2901.17689
 10209.00000 1225080.00000 0.01990 90.59510 147.46610 16.93130 0.17730 2.60220 200.00000 2.15800 1577.08110 739.93150 2901.22039
 10209.50000 1225140.00000 0.01640 91.37430 147.29090 15.20400 0.17070 2.48640 200.00000 2.15830 1123.87400 753.61260 2901.26388
 10210.00000 1225200.00000 0.01270 91.97370 147.17530 15.47590 0.17160 2.43260 200.00000 2.16090 2355.73900 762.22990 2901.30738
 10210.50000 1225260.00000 0.01450 92.39890 146.54440 15.61300 0.18270 2.45680 200.00000 2.16940 1716.64400 744.02830 2901.35087
 10211.00000 1225320.00000 0.01530 91.63660 147.43060 16.62060 0.17400 2.39690 200.00000 2.17140 1145.50400 738.12240 2901.39437
 10211.50000 1225380.00000 0.01610 91.77620 146.71890 16.49030 0.17340 2.42750 200.00000 2.16900 1215.13310 704.29970 2901.43786
 10212.00000 1225440.00000 0.01740 92.07170 146.58750 16.45510 0.16790 2.39700 200.00000 2.17180 1660.42600 703.39510 2901.48136
 10212.50000 1225500.00000 0.02130 92.33400 146.90410 16.73470 0.17330 2.54280 200.00000 2.17060 1808.57400 767.08700 2901.52485
 10213.00000 1225560.00000 0.01900 92.18590 146.39180 16.50870 0.17060 2.55970 155.16380 2.16590 1476.22090 699.86910 2901.56834
 10213.50000 1225620.00000 0.01630 91.61970 144.17820 16.13100 0.16800 2.53910 200.00000 2.15990 1170.08400 706.59920 2901.61184
 10214.00000 1225680.00000 0.01180 90.83980 143.73850 15.44330 0.17030 2.52440 145.50560 2.15250 1207.39700 657.62920 2901.65533
 10214.50000 1225740.00000 0.02250 89.81450 143.10530 16.00370 0.18350 2.72850 149.48480 2.16000 1086.04700 730.25520 2901.69883
 10215.00000 1225800.00000 0.02760 88.71380 143.46870 17.52440 0.17910 3.04520 200.00000 2.15720 1380.25310 763.90300 2901.74232
 10215.50000 1225860.00000 0.03100 86.93470 145.58420 19.27870 0.17740 3.13520 200.00000 2.16240 1337.90800 719.51170 2901.78582
 10216.00000 1225920.00000 0.02900 86.91080 144.61790 19.54120 0.17450 3.07370 200.00000 2.16580 1539.34090 776.83860 2901.82931
 10216.50000 1225980.00000 0.02970 87.69060 144.53020 17.55950 0.17700 2.93390 149.96370 2.17220 1429.76400 785.81560 2901.87281
 10217.00000 1226040.00000 0.03750 88.91340 144.67080 16.86060 0.17380 2.98470 147.66040 2.18280 1559.36210 660.47020 2901.91630
 10217.50000 1226100.00000 0.03570 89.79830 144.67080 15.70420 0.16310 3.02220 200.00000 2.17560 1211.57700 877.11580 2901.95980
 10218.00000 1226160.00000 0.03780 89.28920 144.43280 16.57610 0.16270 3.09080 200.00000 2.17630 1340.38400 764.65980 2902.00329
 10218.50000 1226220.00000 0.03660 88.55940 143.74750 15.76020 0.17280 3.13200 200.00000 2.17470 3973.49000 782.60730 2902.04679
 10219.00000 1226280.00000 0.03760 88.46130 143.65990 15.57400 0.16490 3.12660 200.00000 2.17650 1800.98800 813.35590 2902.09028
 10219.50000 1226340.00000 0.03400 88.72370 144.09130 17.00820 0.16970 3.05410 200.00000 2.17670 1047.25000 918.17610 2902.13378
 10220.00000 1226400.00000 0.03060 88.57560 144.99640 18.31650 0.17380 2.91310 200.00000 2.17480 1545.50500 818.36510 2902.17727
 10220.50000 1226460.00000 0.02090 88.35490 145.40060 20.32810 -0.16680 2.67810 200.00000 2.17170 2512.72610 797.50430 2902.22077
 10221.00000 1226520.00000 0.01870 88.69050 145.48820 18.93890 -0.50750 2.46160 200.00000 2.17430 1412.34500 858.37140 2902.26426
 10221.50000 1226580.00000 0.01020 88.80690 145.40060 17.37210 -0.84820 2.33900 200.00000 2.17200 1347.53800 798.16300 2902.30776
 10222.00000 1226640.00000 0.01330 90.08600 145.38240 15.19430 -1.18880 2.35910 200.00000 2.17990 1485.09800 764.67610 2902.35125
 10222.50000 1226700.00000 0.01230 90.47170 145.33110 16.16510 -1.52950 2.42460 200.00000 2.18110 1775.28200 921.53140 2902.39475
 10223.00000 1226760.00000 0.02110 90.77490 146.55270 16.08740 0.16310 2.51920 200.00000 2.19010 1327.82300 855.97360 2902.43824
 10223.50000 1226820.00000 0.02120 90.33910 146.94710 15.97640 0.16610 2.50730 200.00000 2.19130 1503.77910 887.68250 2902.48174
 10224.00000 1226880.00000 0.01980 89.30610 146.81130 14.24090 0.16010 2.49570 200.00000 2.18990 1195.64900 761.39610 2902.52523
 10224.50000 1226940.00000 0.01650 89.15030 147.87210 15.55360 0.16200 2.43240 200.00000 2.18890 3117.31200 809.06030 2902.56873
 10225.00000 1227000.00000 0.01760 89.40550 147.07930 17.18290 0.17660 2.45590 200.00000 2.18160 1550.83200 809.18830 2902.61222
 10225.50000 1227060.00000 0.01680 90.55420 147.14200 18.60700 0.17730 2.47740 143.51260 2.16770 1811.93900 851.47600 2902.65572
 10226.00000 1227120.00000 0.02070 91.56330 147.94970 17.61210 0.17260 2.56950 145.81540 2.15670 1274.03300 827.18350 2902.69921
 10226.50000 1227180.00000 0.02410 92.10410 147.53640 17.21020 0.17610 2.64270 200.00000 2.15220 1326.24300 780.94380 2902.74271
