~Version ---------------------------------------------------
VERS     .                             2.0 : CWLS log ASCII Standard -VERSION 2.0
WRAP     .                              NO : One Line per depth step
PROD     .                    Schlumberger : LAS Producer
PROG     .               DLIS to ASCII 2.3 : LAS Program name and version
CREA     .                   2019/04/03 19 : 50                          :LAS Creation date {YYYY/MM/DD hh:mm}
DLIS_CREA.                  2009-Feb-18 14 : 26                          :DLIS Creation date and time {YYYY-MMM-DD hh:mm}
SOURCE   . WLC_PETRO_COMPUTED_INPUT_1.DLIS : DLIS File Name
FILE-ID  .                   INPUT.logdata : File Identification Number
~Well ------------------------------------------------------
STRT.F                  657.0 : START DEPTH
STOP.F                11567.5 : STOP DEPTH
STEP.F                    0.5 : STEP
NULL.                 -999.25 : NULL VALUE
COMP.            STATOILHYDRO : COMPANY
WELL.                15/9-F-4 : WELL
FLD .                   VOLVE : FIELD
LOC .                         : LOCATION
CNTY.         MAERSK INSPIRER : COUNTY
STAT.                         : STATE
CTRY.                         : COUNTRY
API .                         : API NUMBER
UWI .                         : UNIQUE WELL ID
DATE.                         : LOG DATE
SRVC. CROCKER DATA PROCESSING : SERVICE COMPANY
LATI.DEG                      : LATITUDE
LONG.DEG                      : LONGITUDE
GDAT.                         : GeoDetic Datum
~Curve Information -----------------------------------------
DEPTH.F            : DEPTH (BOREHOLE) {F10.1}
DEPTH..1IN         : {I11}
DT   .US/F         : {F13.4}
DTS  .US/F         : {F13.4}
GR   .API          : {F13.4}
NPHI .V/V_DECIMAL  : {F13.4}
RD   .UNKNOWN      : {F13.4}
RHOB .G/C3         : {F13.4}
RS   .UNKNOWN      : {F13.4}
RT   .OHMM         : {F13.4}
TVD  .M            : True Vertical Depth from PyLasMech
~Params ----------------------------------------------------
CN  .    STATOILHYDRO : Company
WN  .        15/9-F-4 : Well Name
FN  .           VOLVE : Field
CTRY.          NORWAY : Country
COUN. MAERSK INSPIRER : County or Rig name
PDAT.             MSL : Perm. Datum
ELZ .M            0.0 : Elev. Log Zero (wrt EPD)
RUN .                 : RUN NUMBER
EPD .                 : Elevation of Permanent Datum above Mean Sea Level
LMF .                 : Logging Measured From (Name of Logging Elevation Reference)
APD .                 : Elevation of Depth Reference (LMF) above Permanent Datum
~Other -----------------------------------------------------
~ASCII -----------------------------------------------------
# ...
 9165.50000 1099860.00000 60.92350 127.11960 10.91090 0.07380 4.68490 2.59400 4.37870 4.06150 -999.25
 9166.00000 1099920.00000 60.02940 122.67730 8.13610 0.08050 4.84160 2.58390 5.87470 5.26700 -999.25
 9166.50000 1099980.00000 59.76770 120.81590 6.62060 0.08360 4.96420 2.58230 6.18890 5.58800 -999.25
 9167.00000 1100040.00000 60.29240 121.09580 6.66300 0.06600 5.15300 2.57400 6.38780 5.85240 -999.25
 9167.50000 1100100.00000 60.39110 121.87270 6.55030 0.06510 5.32820 2.57960 6.99060 6.59620 -999.25
 9168.00000 1100160.00000 61.07300 123.76890 6.88180 0.07300 5.31180 2.57540 7.32670 6.86080 -999.25
 9168.50000 1100220.00000 62.73080 127.13740 9.06840 0.07020 5.28450 2.58440 6.97790 6.83350 -999.25
 9169.00000 1100280.00000 64.49430 131.03920 11.90620 0.07150 5.28100 2.58960 6.35240 6.48220 -999.25
 9169.50000 1100340.00000 65.61830 135.43240 14.72200 0.08350 5.07030 2.58880 5.28080 5.89550 -999.25
 9170.00000 1100400.00000 66.38900 137.23430 15.81010 0.08690 4.94830 2.57610 4.38470 5.06450 -999.25
 9170.50000 1100460.00000 66.56950 138.52620 15.76910 0.09360 4.90100 2.56640 4.20540 4.48930 -999.25
 9171.00000 1100520.00000 66.37990 138.81480 15.00070 0.10100 4.60480 2.55440 4.08840 4.42640 -999.25
 9171.50000 1100580.00000 65.92220 138.35090 13.98880 0.10560 4.46520 2.54180 3.65700 4.09760 -999.25
 9172.00000 1100640.00000 67.07020 139.94200 13.74220 0.10700 4.35080 2.52760 3.33620 3.93180 -999.25
 9172.50000 1100700.00000 67.60400 141.63060 14.25380 0.11780 4.14080 2.51890 3.03380 4.01010 -999.25
 9173.00000 1100760.00000 68.42410 143.63420 14.50500 0.12650 4.05020 2.51780 2.90850 3.51750 -999.25
 9173.50000 1100820.00000 68.68640 143.41960 14.88170 0.12920 3.98480 2.49580 2.77210 3.44170 -999.25
 9174.00000 1100880.00000 68.63700 140.34470 14.27900 0.14380 3.93650 2.48470 2.67320 3.03220 -999.25
 9174.50000 1100940.00000 68.18500 139.27190 14.31530 0.14490 3.63920 2.47690 2.54190 3.19120 -999.25
 9175.00000 1101000.00000 68.51710 137.70650 13.77370 0.14120 3.56170 2.48720 2.46880 2.95320 -999.25
 9175.50000 1101060.00000 72.15850 136.16070 13.27820 0.14210 3.43940 2.49660 2.52150 2.79790 -999.25
 9176.00000 1101120.00000 73.19860 135.94920 12.54500 0.12870 3.32900 2.49970 2.66670 2.81020 -999.25
 9176.50000 1101180.00000 72.20570 135.81020 11.93470 0.13220 3.22820 2.50280 2.81440 2.91440 -999.25
 9177.00000 1101240.00000 70.17630 136.72280 11.90580 0.12470 3.13220 2.51490 2.81640 2.93080 -999.25
 9177.50000 1101300.00000 66.77470 137.32420 12.45830 0.11380 2.98900 2.52650 2.81790 2.90180 -999.25
 9178.00000 1101360.00000 66.89740 140.41570 13.00450 0.11540 2.97430 2.53360 2.74210 2.76720 -999.25
 9178.50000 1101420.00000 66.87350 141.10330 13.49700 0.11920 2.99580 2.52780 2.73340 2.74960 -999.25
 9179.00000 1101480.00000 67.57930 142.82430 14.81000 0.11540 2.99570 2.52760 2.81500 2.89800 -999.25
 9179.50000 1101540.00000 68.43250 143.01920 14.98090 0.11480 2.86750 2.53000 2.88410 3.12290 -999.25
 9180.00000 1101600.00000 69.15460 144.49550 14.22020 0.11080 3.03390 2.52950 2.83730 3.10040 -999.25
 9180.50000 1101660.00000 69.53110 144.68740 13.53660 0.11770 3.10200 2.52720 2.82050 2.99990 -999.25
 9181.00000 1101720.00000 68.94020 143.59790 14.06110 0.11360 3.03020 2.52240 2.71100 2.93580 -999.25
 9181.50000 1101780.00000 68.76110 143.21110 14.66160 0.11640 2.98820 2.51310 2.59100 2.86940 -999.25
 9182.00000 1101840.00000 69.90130 144.46370 14.12010 0.13370 2.91470 2.50360 2.52880 2.79920 -999.25
 9182.50000 1101900.00000 70.96050 149.33220 12.92430 0.13120 2.91620 2.49780 2.50130 2.71160 -999.25
 9183.00000 1101960.00000 72.20640 150.72620 13.42880 0.13500 2.86970 2.49070 2.47230 2.69690 -999.25
 9183.50000 1102020.00000 72.10770 148.27380 13.79760 0.13460 2.87770 2.49290 2.41350 2.63320 -999.25
 9184.00000 1102080.00000 71.74670 146.00500 14.46590 0.13820 2.94670 2.49890 2.35050 2.51430 -999.25
 9184.50000 1102140.00000 71.08950 143.63270 13.68330 0.13240 2.94780 2.51060 2.38050 2.50320 -999.25
 9185.00000 1102200.00000 70.21300 142.24260 13.94120 0.12570 2.93700 2.51770 2.34660 2.49990 -999.25
 9185.50000 1102260.00000 70.30190 140.36290 12.92540 0.12010 2.87860 2.52080 2.43450 2.59220 -999.25
 9186.00000 1102320.00000 69.21950 140.32810 13.41780 0.12190 2.88630 2.52620 2.54270 2.60200 -999.25
 9186.50000 1102380.00000 68.83380 140.66200 12.51730 0.11710 2.91850 2.53070 2.64970 2.59500 -999.25
 9187.00000 1102440.00000 67.96290 140.43240 13.85070 0.10920 2.95760 2.54470 2.78580 2.67410 -999.25
 9187.50000 1102500.00000 66.52020 139.13140 13.64350 0.10130 2.92370 2.54390 2.83510 2.75520 -999.25
 9188.00000 1102560.00000 66.34740 137.54780 13.52050 0.10030 3.11430 2.55200 2.96640 2.94600 -999.25
 9188.50000 1102620.00000 66.28330 136.08290 12.40270 0.10040 3.14480 2.55010 3.09270 3.03010 -999.25
 9189.00000 1102680.00000 67.57930 137.41790 12.02040 0.10160 3.15560 2.55980 3.18930 3.09790 -999.25
 9189.50000 1102740.00000 68.06230 137.70870 11.63440 0.09840 3.25110 2.55640 3.21650 3.20750 -999.25
 9190.00000 1102800.00000 67.80070 138.56100 11.88460 0.09600 3.35250 2.55360 3.19510 3.14900 -999.25
 9190.50000 1102860.00000 68.42410 138.56020 12.42330 0.09980 3.43440 2.55230 3.15500 3.34710 -999.25
 9191.00000 1102920.00000 68.24210 136.80820 13.95640 0.10090 3.49130 2.55080 3.15450 3.23160 -999.25
 9191.50000 1102980.00000 66.74090 133.27620 14.64100 0.10560 3.77670 2.55540 3.12890 3.04690 -999.25
 9192.00000 1103040.00000 65.96240 132.39830 14.10470 0.10510 3.74540 2.55890 3.35820 3.39350 -999.25
 9192.50000 1103100.00000 65.98640 132.46780 12.91070 0.09390 3.88010 2.56600 3.65350 3.60330 -999.25
 9193.00000 1103160.00000 65.25590 132.01150 11.87920 0.08410 4.02280 2.58020 3.88430 3.80110 -999.25
 9193.50000 1103220.00000 64.46050 132.08100 11.74360 0.08060 4.20120 2.59060 4.13780 4.02780 -999.25
 9194.00000 1103280.00000 64.06630 131.04290 11.81340 0.08510 4.29000 2.58910 4.38550 4.40500 -999.25
 9194.50000 1103340.00000 63.46760 129.19640 11.64150 0.08150 4.56180 2.56660 4.34720 4.34580 -999.25
 9195.00000 1103400.00000 63.12280 127.17470 11.13270 0.07650 4.65150 2.54950 4.41830 4.48460 -999.25
 9195.50000 1103460.00000 62.90210 125.11670 9.55330 0.07940 4.69700 2.53640 4.84540 4.89110 -999.25
 9196.00000 1103520.00000 63.18840 122.63860 8.17320 0.09250 4.97020 2.52890 4.73800 4.79110 -999.25
 9196.50000 1103580.00000 62.23570 122.02520 7.22100 0.09430 5.17430 2.52610 4.54270 4.65370 -999.25
 9197.00000 1103640.00000 60.50460 122.42710 6.69350 0.09560 5.35680 2.52960 4.44510 4.58600 -999.25
 9197.50000 1103700.00000 59.48850 120.43180 6.84230 0.09420 5.51070 2.54850 4.71640 4.68010 -999.25
 9198.00000 1103760.00000 59.92360 118.65560 6.70320 0.08950 5.64260 2.55760 5.15760 5.12050 -999.25
 9198.50000 1103820.00000 60.80220 117.00400 7.27900 0.07730 5.80770 2.56910 5.62400 5.48740 -999.25
 9199.00000 1103880.00000 61.42340 116.61720 6.93570 0.07420 5.87570 2.57150 6.14240 5.93660 -999.25
 9199.50000 1103940.00000 59.84040 116.99720 7.79160 0.07410 6.01680 2.58950 6.49410 6.16950 -999.25
 9200.00000 1104000.00000 59.29180 117.80190 8.13290 0.07200 6.08700 2.59480 6.74620 6.36840 -999.25
 9200.50000 1104060.00000 59.82490 116.33010 8.06270 0.06510 6.21720 2.60380 7.09670 6.47400 -999.25
 9201.00000 1104120.00000 60.34240 118.92910 7.01890 0.06300 6.28430 2.59120 7.34790 6.57110 -999.25
 9201.50000 1104180.00000 61.46640 119.95360 6.76020 0.06900 6.27660 2.59850 7.54820 7.00400 -999.25
 9202.00000 1104240.00000 62.23720 123.85200 7.07280 0.06810 6.33980 2.59430 7.54200 7.17190 -999.25
 9202.50000 1104300.00000 62.09680 122.90310 7.84130 0.06600 6.47610 2.60080 7.10170 6.84060 -999.25
 9203.00000 1104360.00000 61.40020 122.72780 8.95330 0.06650 6.23820 2.59270 6.93150 6.66700 -999.25
 9203.50000 1104420.00000 61.26830 122.63860 9.74800 0.06910 6.30190 2.59350 6.54710 6.51530 -999.25
 9204.00000 1104480.00000 60.91640 122.13090 9.86800 0.06620 6.19620 2.58490 6.20630 6.03710 -999.25
 9204.50000 1104540.00000 61.27680 123.18410 8.49760 0.06190 5.92090 2.58590 6.37910 6.01350 -999.25
