~Version ---------------------------------------------------
VERS     .                             2.0 : CWLS log ASCII Standard -VERSION 2.0
WRAP     .                              NO : One Line per depth step
PROD     .         CROCKER DATA PROCESSING : LAS Producer
PROG     .                   LAS Viewer v0 : LAS Program name and version
CREA     .                2019/04/03 21-01 : LAS Creation date {YYYY/MM/DD hh-mm}
DLIS_CREA.               2009-Aug-25 10-08 : DLIS Creation date and time {YYYY-MMM-DD hh-mm}
SOURCE   . WLC_PETRO_COMPUTED_INPUT_1.DLIS : DLIS File Name
FILE-ID  .               CPI_INPUT.logdata : File Identification Number
~Well ------------------------------------------------------
STRT .m               2560.0152 : START DEPTH
STOP .m               3222.1932 : STOP DEPTH
STEP .m       0.152400000000398 : STEP
NULL .                  -999.25 : NULL VALUE
COMP .             STATOILHYDRO : COMPANY
WELL .              15/9-F-15 C : WELL
FIELD.                    VOLVE : FIELD
LOC  .                          : LOCATION
CNTY .                          : COUNTY
STAT .                          : STATE
NATI .                          : COUNTRY
API  .                          : API NUMBER
UWI  .                          : UNIQUE WELL ID
SRVC .                          : SERVICE COMPANY
LATI . 058 26' 29.706" N    DMS : LATITUDE
LONG . 001 53' 15.149" E    DMS : LONGITUDE
GDAT .                      MSL : GeoDetic Datum
~Curve Information -----------------------------------------
DEPTH.m      : Measured Depth
CALI .IN     : 
DRHO .G/CC   : 
DRHU .G/CC   : 
DT   .US/FT  : 
GR   .GAPI   : 
NPHI .V/V    : 
RD   .OHMM   : 
RHOB .G/CC   : 
ROBU .G/CC   : 
RS   .OHMM   : 
RT   .OHMM   : 
TVD  .M      : True Vertical Depth from PyLasMech
~Params ----------------------------------------------------
RUN . MWD RUN 12-13 : Run number
PDAT.           MSL : Perm. Datum
~Other -----------------------------------------------------
~ASCII -----------------------------------------------------
# ...
 3212.89680 8.73060 0.01100 0.10800 -999.25 67.06900 0.24570 0.51730 2.29430 2.31080 0.57810 0.70430 -999.25
 3213.04920 8.71410 0.01170 0.11090 -999.25 73.04400 0.23640 0.58200 2.33330 2.34940 0.65460 0.74580 -999.25
 3213.20160 8.87950 0.01380 0.11170 -999.25 76.80400 0.24170 0.60460 2.36190 2.36920 0.61690 0.64540 -999.25
 3213.35400 8.84680 0.02460 0.11390 -999.25 76.40770 0.24140 0.56440 2.36480 2.37280 0.63980 0.57650 -999.25
 3213.50640 8.82010 0.03770 0.12200 -999.25 71.68550 0.21980 0.58450 2.36990 2.37930 0.61020 0.53970 -999.25
 3213.65880 8.69460 0.02930 0.11750 -999.25 68.77450 0.20350 0.57150 2.39460 2.40470 0.73190 0.67940 -999.25
 3213.81120 8.70000 0.02010 0.11860 -999.25 70.65590 0.18730 0.64370 2.43540 2.43750 1.10610 0.97770 -999.25
 3213.96360 8.73150 0.01180 0.11270 -999.25 74.75470 0.19900 0.68050 2.44900 2.43590 1.02070 1.01430 -999.25
 3214.11600 8.73790 0.01950 0.10860 -999.25 76.35170 0.22200 0.67950 2.42770 2.40510 0.88990 0.91670 -999.25
 3214.26840 8.76900 0.02460 0.09810 -999.25 73.10260 0.22460 0.59520 2.38390 2.36090 0.64280 0.68790 -999.25
 3214.42080 8.71610 0.03140 0.08930 -999.25 64.63110 0.25600 0.48020 2.33840 2.31250 0.46760 0.45650 -999.25
 3214.57320 8.76710 0.02740 0.08460 -999.25 58.39450 0.23640 0.41530 2.30460 2.29240 0.36210 0.31290 -999.25
 3214.72560 8.77080 0.02580 0.08950 -999.25 53.62880 0.21930 0.41230 2.31260 2.30730 0.42440 0.36970 -999.25
 3214.87800 8.72540 0.01540 0.10410 -999.25 55.15450 0.21500 0.49740 2.35230 2.35980 0.50020 0.44060 -999.25
 3215.03040 8.77760 0.02230 0.12250 -999.25 59.26890 0.20250 0.60760 2.43520 2.43030 0.73660 0.68750 -999.25
 3215.18280 8.78070 0.01060 0.12160 -999.25 65.88580 0.18350 0.72490 2.46840 2.46900 1.07520 1.04530 -999.25
 3215.33520 8.75700 0.01210 0.12160 -999.25 67.77870 0.22780 0.59920 2.43220 2.43790 0.79120 0.80960 -999.25
 3215.48760 8.79700 0.00850 0.10460 -999.25 63.32200 0.26130 0.49620 2.33180 2.34420 0.46940 0.39660 -999.25
 3215.64000 8.75880 0.02300 0.11290 -999.25 58.42530 0.24470 0.38360 2.26780 2.28290 0.37160 0.29400 -999.25
 3215.79240 8.80260 0.02010 0.10030 -999.25 55.77650 0.26860 0.35040 2.22960 2.25080 0.37850 0.31450 -999.25
 3215.94480 8.76610 0.02370 0.10280 -999.25 55.57750 0.26620 0.38020 2.24210 2.25670 0.39100 0.36070 -999.25
 3216.09720 8.76840 0.02660 0.09440 -999.25 55.92980 0.23910 0.41100 2.26230 2.26080 0.38980 0.36140 -999.25
 3216.24960 8.75310 0.02780 0.10220 -999.25 57.56710 0.25810 0.40990 2.28020 2.26770 0.39360 0.34670 -999.25
 3216.40200 8.76070 0.02840 0.10510 -999.25 56.20020 0.26410 0.35430 2.26840 2.25850 0.34440 0.29600 -999.25
 3216.55440 8.70850 0.03080 0.11070 -999.25 53.68280 0.25480 0.33990 2.25140 2.24310 0.30680 0.26200 -999.25
 3216.70680 8.71380 0.03480 0.10560 -999.25 51.59090 0.28610 0.32550 2.23780 2.23150 0.30350 0.26650 -999.25
 3216.85920 8.72920 0.03790 0.10950 -999.25 51.70480 0.27750 0.32990 2.24320 2.24020 0.32210 0.28360 -999.25
 3217.01160 8.76610 0.03220 0.10840 -999.25 50.70890 0.25260 0.37370 2.26190 2.24890 0.35520 0.32170 -999.25
 3217.16400 8.73310 0.02880 0.11400 -999.25 49.68430 0.24750 0.33350 2.28120 2.25920 0.39330 0.36290 -999.25
 3217.31640 8.73810 0.02450 0.12100 -999.25 48.60220 0.27430 0.43010 2.28270 2.27170 0.38510 0.33380 -999.25
 3217.46880 8.82060 0.03190 0.12800 -999.25 51.96380 0.25350 0.40240 2.28890 2.28820 0.37810 0.30180 -999.25
 3217.62120 8.87810 0.03640 0.12730 -999.25 55.18040 0.24870 0.37700 2.28970 2.29350 0.43660 0.40890 -999.25
 3217.77360 8.83170 0.03450 0.12660 -999.25 56.34910 0.25550 0.38360 2.29780 2.29750 0.47690 0.44990 -999.25
 3217.92600 8.83610 0.01680 0.12560 -999.25 54.25260 0.22940 0.44890 2.28510 2.30730 0.37870 0.32440 -999.25
 3218.07840 8.82410 0.00990 0.12690 -999.25 50.10900 0.23320 0.43490 2.28170 2.32020 0.51240 0.48690 -999.25
 3218.23080 8.78730 0.00640 0.13150 -999.25 47.64320 0.22140 0.47840 2.28860 2.35070 0.44820 0.40250 -999.25
 3218.38320 8.79630 0.01620 0.13470 -999.25 45.13180 0.19480 0.47770 2.32330 2.37680 0.53680 0.58380 -999.25
 3218.53560 8.69230 0.01930 0.14410 -999.25 44.58940 0.20420 0.57580 2.36340 2.40190 0.63850 0.65730 -999.25
 3218.68800 8.75820 0.02350 0.13480 -999.25 45.01750 -999.25 0.60780 2.41630 2.40590 0.66460 0.60390 -999.25
 3218.84040 8.78580 0.02700 0.14650 -999.25 44.51120 -999.25 0.73730 2.46240 2.43430 0.91740 0.91480 -999.25
 3218.99280 8.83520 0.03120 0.14760 -999.25 43.48840 -999.25 0.83720 2.51070 2.47450 1.38230 1.29710 -999.25
 3219.14520 8.83820 0.03170 0.16750 -999.25 42.86370 -999.25 1.02980 2.54350 2.52650 1.92750 1.92850 -999.25
 3219.29760 8.86670 0.02430 0.17780 -999.25 47.32150 -999.25 1.14670 2.56710 2.57930 2.53350 2.11480 -999.25
 3219.45000 8.79970 0.02080 0.18410 -999.25 56.22160 -999.25 1.26850 2.60830 2.61690 2.93180 2.74060 -999.25
 3219.60240 8.73460 0.02380 0.17420 -999.25 61.11860 -999.25 -999.25 2.63170 2.59290 -999.25 -999.25 -999.25
 3219.75480 8.75010 0.03590 0.15970 -999.25 60.79030 -999.25 -999.25 2.59660 2.46960 -999.25 -999.25 -999.25
 3219.90720 8.86310 0.04300 0.14940 -999.25 55.43410 -999.25 -999.25 2.47870 2.35770 -999.25 -999.25 -999.25
 3220.05960 8.86550 0.04030 0.13510 -999.25 54.96570 -999.25 -999.25 2.35330 2.28130 -999.25 -999.25 -999.25
 3220.21200 8.71060 0.03060 0.11960 -999.25 56.24630 -999.25 -999.25 2.28040 2.25980 -999.25 -999.25 -999.25
 3220.36440 8.71830 0.01730 0.11670 -999.25 59.33520 -999.25 -999.25 2.27290 2.26970 -999.25 -999.25 -999.25
 3220.51680 8.82530 0.01310 0.12580 -999.25 64.55800 -999.25 -999.25 2.31750 2.31070 -999.25 -999.25 -999.25
 3220.66920 8.83220 0.02780 0.12320 -999.25 71.93730 -999.25 -999.25 2.38220 2.34880 -999.25 -999.25 -999.25
 3220.82160 8.84100 0.03560 0.13000 -999.25 73.91980 -999.25 -999.25 2.40170 2.37920 -999.25 -999.25 -999.25
 3220.97400 -999.25 0.04320 0.13610 -999.25 68.04010 -999.25 -999.25 2.39280 2.37220 -999.25 -999.25 -999.25
 3221.12640 -999.25 -999.25 -999.25 -999.25 60.86240 -999.25 -999.25 -999.25 -999.25 -999.25 -999.25 -999.25
 3221.27880 -999.25 -999.25 -999.25 -999.25 57.65780 -999.25 -999.25 -999.25 -999.25 -999.25 -999.25 -999.25
 3221.43120 -999.25 -999.25 -999.25 -999.25 59.06910 -999.25 -999.25 -999.25 -999.25 -999.25 -999.25 -999.25
 3221.58360 -999.25 -999.25 -999.25 -999.25 59.55320 -999.25 -999.25 -999.25 -999.25 -999.25 -999.25 -999.25
 3221.73600 -999.25 -999.25 -999.25 -999.25 63.49540 -999.25 -999.25 -999.25 -999.25 -999.25 -999.25 -999.25
 3221.88840 -999.25 -999.25 -999.25 -999.25 62.39800 -999.25 -999.25 -999.25 -999.25 -999.25 -999.25 -999.25
 3222.04080 -999.25 -999.25 -999.25 -999.25 59.27790 -999.25 -999.25 -999.25 -999.25 -999.25 -999.25 -999.25
 3222.19320 -999.25 -999.25 -999.25 -999.25 50.84870 -999.25 -999.25 -999.25 -999.25 -999.25 -999.25 -999.25
