~Version ---------------------------------------------------
VERS     .                             2.0 : CWLS log ASCII Standard -VERSION 2.0
WRAP     .                              NO : One Line per depth step
PROD     .                    Schlumberger : LAS Producer
PROG     .               DLIS to ASCII 2.3 : LAS Program name and version
CREA     .                   2019/04/03 19 : 51                          :LAS Creation date {YYYY/MM/DD hh:mm}
DLIS_CREA.                  2009-Feb-18 14 : 44                          :DLIS Creation date and time {YYYY-MMM-DD hh:mm}
SOURCE   . WLC_PETRO_COMPUTED_INPUT_1.DLIS : DLIS File Name
FILE-ID  .                   INPUT.logdata : File Identification Number
~Well ------------------------------------------------------
STRT.F                 1382.0 : START DEPTH
STOP.F                12441.0 : STOP DEPTH
STEP.F                    0.5 : STEP
NULL.                 -999.25 : NULL VALUE
COMP.                         : COMPANY
WELL.                15/9-F-5 : WELL
FLD .                   VOLVE : FIELD
LOC .                         : LOCATION
CNTY.         MAERSK INSPIRER : COUNTY
STAT.                         : STATE
CTRY.                         : COUNTRY
API .                         : API NUMBER
UWI .                         : UNIQUE WELL ID
DATE.                         : LOG DATE
SRVC. CROCKER DATA PROCESSING : SERVICE COMPANY
LATI.DEG                      : LATITUDE
LONG.DEG                      : LONGITUDE
GDAT.                         : GeoDetic Datum
~Curve Information -----------------------------------------
DEPTH.F            : DEPTH (BOREHOLE) {F10.1}
DEPTH..1IN         : Measured Depth {I11}
CALI .INCHES       : CALI:UNKNOWN:rC:NONE:v1 {F13.4}
DRHO .G/C3         : DRHO:UNKNOWN:rC:NONE:v1 {F13.4}
DT   .US/F         : DT:UNKNOWN:rC:NONE:v1 {F13.4}
GR   .API          : GR:UNKNOWN:rC:NONE:v1 {F13.4}
NPHI .V/V_DECIMAL  : NPHI:UNKNOWN:rC:NONE:v1 {F13.4}
RD   .UNKNOWN      : RD:UNKNOWN:rC:NONE:v1 {F13.4}
RHOB .G/C3         : RHOB:UNKNOWN:rC:NONE:v1 {F13.4}
RS   .UNKNOWN      : RS:UNKNOWN:rC:NONE:v1 {F13.4}
RT   .OHMM         : RT:UNKNOWN:rC:NONE:v1 {F13.4}
TVD  .M            : True Vertical Depth from PyLasMech
~Params ----------------------------------------------------
WN  .        15/9-F-5 : Well Name
FN  .           VOLVE : Field
CTRY.          NORWAY : Country
COUN. MAERSK INSPIRER : County or Rig name
PDAT.             MSL : Perm. Datum
ELZ .M            0.0 : Elev. Log Zero (wrt EPD)
RUN .                 : RUN NUMBER
EPD .                 : Elevation of Permanent Datum above Mean Sea Level
LMF .                 : Logging Measured From (Name of Logging Elevation Reference)
APD .                 : Elevation of Depth Reference (LMF) above Permanent Datum
~Other -----------------------------------------------------
~ASCII -----------------------------------------------------
# ...
 10096.50000 1211580.00000 -999.25 0.04600 55.59370 13.14100 0.05110 -999.25 2.62500 7.52400 7.52400 2735.62870
 10097.00000 1211640.00000 -999.25 0.04800 54.94020 13.14100 0.05280 -999.25 2.63000 7.87200 8.23500 2735.74978
 10097.50000 1211700.00000 -999.25 0.05000 56.25960 13.14100 0.05450 -999.25 2.63500 7.37350 7.71350 2735.87087
 10098.00000 1211760.00000 -999.25 0.05200 54.08130 13.14100 0.05780 -999.25 2.64000 6.87500 7.19200 2735.99195
 10098.50000 1211820.00000 -999.25 0.04400 56.68940 12.69550 0.06110 -999.25 2.61000 6.87500 7.11280 2736.11303
 10099.00000 1211880.00000 -999.25 0.05600 58.91120 12.25000 0.06440 -999.25 2.63500 6.87500 7.03350 2736.23412
 10099.50000 1211940.00000 -999.25 0.06800 57.34890 9.76600 0.06280 -999.25 2.66000 6.87500 6.95420 2736.35520
 10100.00000 1212000.00000 -999.25 0.06400 55.98430 9.76600 0.06130 -999.25 2.64000 6.87500 6.87500 2736.47628
 10100.50000 1212060.00000 -999.25 0.06000 57.84170 9.76600 0.06000 -999.25 2.62000 7.19950 7.19950 2736.59737
 10101.00000 1212120.00000 -999.25 0.07200 59.38380 10.57850 0.05870 -999.25 2.64000 7.52400 7.52400 2736.71845
 10101.50000 1212180.00000 -999.25 0.08400 58.11410 11.39100 0.06030 -999.25 2.66000 7.19950 7.19950 2736.83953
 10102.00000 1212240.00000 -999.25 0.07200 60.26070 11.39100 0.06190 -999.25 2.63500 6.87500 6.87500 2736.96062
 10102.50000 1212300.00000 -999.25 0.06000 61.05240 11.39100 0.06350 -999.25 2.61000 6.58470 6.67700 2737.08170
 10103.00000 1212360.00000 -999.25 0.06400 61.19490 11.39100 0.06510 -999.25 2.63000 6.29430 6.47900 2737.20278
 10103.50000 1212420.00000 -999.25 0.07200 64.40460 11.39100 0.47680 -999.25 2.64000 6.00400 6.28100 2737.32387
 10104.00000 1212480.00000 -999.25 0.08000 66.34440 9.76600 0.88840 -999.25 2.65000 5.62350 5.88300 2737.44495
 10104.50000 1212540.00000 -999.25 0.07200 65.16920 9.76600 1.30000 -999.25 2.63500 5.24300 5.48500 2737.56603
 10105.00000 1212600.00000 -999.25 0.06400 63.02020 9.76600 0.68880 -999.25 2.62000 5.01700 5.24850 2737.68712
 10105.50000 1212660.00000 -999.25 0.05600 61.47200 11.45350 0.07760 -999.25 2.60500 4.79100 5.01200 2737.80820
 10106.00000 1212720.00000 -999.25 0.04800 62.65780 13.14100 0.07580 -999.25 2.59000 4.79100 4.79550 2737.92928
 10106.50000 1212780.00000 -999.25 0.05800 62.73730 12.26600 0.07400 -999.25 2.60500 4.79100 4.57900 2738.05037
 10107.00000 1212840.00000 -999.25 0.06800 61.78380 11.39100 0.07220 -999.25 2.62000 4.57900 4.68500 2738.17145
 10107.50000 1212900.00000 -999.25 0.05400 64.37680 11.39100 0.07040 -999.25 2.59000 4.68730 4.79100 2738.29253
 10108.00000 1212960.00000 -999.25 0.04000 68.39890 11.39100 0.07500 -999.25 2.56000 4.79550 4.79100 2738.41362
 10108.50000 1213020.00000 -999.25 0.06400 66.54360 11.39100 0.07970 -999.25 2.58000 4.90370 4.90150 2738.53470
 10109.00000 1213080.00000 -999.25 0.07200 62.17290 10.57850 0.07900 -999.25 2.59500 5.01200 5.01200 2738.65578
 10109.50000 1213140.00000 -999.25 0.08000 60.96440 9.76600 0.07590 -999.25 2.61000 5.12750 5.12750 2738.77687
 10110.00000 1213200.00000 -999.25 0.07930 62.50030 9.38300 0.07280 -999.25 2.59500 5.24300 5.24300 2738.89795
 10110.50000 1213260.00000 -999.25 0.07870 61.95040 9.00000 0.07510 -999.25 2.58000 5.12750 5.12750 2739.01903
 10111.00000 1213320.00000 -999.25 0.07800 58.65900 10.19550 0.07740 -999.25 2.59750 5.01200 5.01200 2739.14012
 10111.50000 1213380.00000 -999.25 0.07730 57.32230 11.39100 0.07400 -999.25 2.61500 5.01200 5.12750 2739.26120
 10112.00000 1213440.00000 -999.25 0.07670 60.34410 12.26600 0.07070 -999.25 2.63250 4.90150 5.24300 2739.38228
 10112.50000 1213500.00000 -999.25 0.07600 64.17340 13.14100 0.08080 -999.25 2.65000 4.79100 4.79100 2739.50337
 10113.00000 1213560.00000 -999.25 0.07470 66.60970 14.57050 0.08300 -999.25 2.61000 4.68500 4.68500 2739.62445
 10113.50000 1213620.00000 -999.25 0.07330 66.48370 16.00000 0.08150 -999.25 2.60500 4.57900 4.57900 2739.74553
 10114.00000 1213680.00000 -999.25 0.07200 65.17740 13.14100 0.07690 -999.25 2.60000 4.68500 4.57900 2739.86662
 10114.50000 1213740.00000 -999.25 0.07200 63.80900 13.60200 0.07230 -999.25 2.61500 4.79100 4.57900 2739.98770
 10115.00000 1213800.00000 -999.25 0.07200 63.49840 14.06300 0.07240 -999.25 2.63000 4.90150 4.79550 2740.10878
 10115.50000 1213860.00000 -999.25 0.06000 62.14590 13.60200 0.07240 -999.25 2.63000 5.01200 5.01200 2740.22987
 10116.00000 1213920.00000 -999.25 0.04800 60.80230 13.14100 0.07050 -999.25 2.63000 5.12750 5.01200 2740.35095
 10116.50000 1213980.00000 -999.25 0.05400 65.21080 12.29720 0.06850 -999.25 2.62000 5.24300 5.01200 2740.47204
 10117.00000 1214040.00000 -999.25 0.06000 64.14080 11.45350 0.07410 -999.25 2.61000 4.79100 5.01200 2740.59312
 10117.50000 1214100.00000 -999.25 0.06400 60.79840 10.60970 0.07980 -999.25 2.59000 4.48750 4.69450 2740.71420
 10118.00000 1214160.00000 -999.25 0.06800 62.83050 9.76600 0.08920 -999.25 2.57000 4.18400 4.37700 2740.83529
 10118.50000 1214220.00000 -999.25 0.08400 67.27550 12.39100 0.10290 -999.25 2.55000 3.76100 3.93500 2740.95637
 10119.00000 1214280.00000 -999.25 0.10000 68.73750 15.01600 0.11650 -999.25 2.57000 3.33800 3.49300 2741.07745
 10119.50000 1214340.00000 -999.25 0.11600 68.93890 14.06300 0.10810 -999.25 2.59000 3.82300 3.82300 2741.19854
 10120.00000 1214400.00000 -999.25 0.12200 66.68760 11.91450 0.09970 -999.25 2.60500 3.79890 3.82300 2741.31962
 10120.50000 1214460.00000 -999.25 0.12800 63.25560 9.76600 0.09130 -999.25 2.62000 3.77470 3.82300 2741.44070
 10121.00000 1214520.00000 -999.25 0.09600 60.28010 11.00800 0.08860 -999.25 2.61500 3.75060 3.82300 2741.56179
 10121.50000 1214580.00000 -999.25 0.06400 60.19380 12.25000 0.08590 -999.25 2.61000 3.72640 3.82300 2741.68287
 10122.00000 1214640.00000 -999.25 0.06800 62.93640 12.25000 0.08330 -999.25 2.60500 3.70230 3.82300 2741.80395
 10122.50000 1214700.00000 -999.25 0.07200 66.10120 12.25000 0.08060 -999.25 2.60000 3.67810 3.82300 2741.92504
 10123.00000 1214760.00000 -999.25 0.09200 66.42240 12.69550 0.08940 -999.25 2.59000 3.65400 3.82300 2742.04612
 10123.50000 1214820.00000 -999.25 0.07800 66.22140 13.14100 0.09830 -999.25 2.60000 3.65400 3.82300 2742.16720
 10124.00000 1214880.00000 -999.25 0.06400 64.42050 12.25000 0.10710 -999.25 2.61000 3.65400 3.82300 2742.28829
 10124.50000 1214940.00000 -999.25 0.05800 61.35800 11.00800 0.09960 -999.25 2.61000 3.65400 3.82300 2742.40937
 10125.00000 1215000.00000 -999.25 0.05200 57.58390 9.76600 0.09210 -999.25 2.61000 3.65400 3.82300 2742.53045
 10125.50000 1215060.00000 -999.25 0.02000 54.33610 9.76600 0.08470 -999.25 2.56000 3.74030 3.86700 2742.65154
 10126.00000 1215120.00000 -999.25 0.02200 55.37740 9.76600 0.07720 -999.25 2.56000 3.82650 3.91100 2742.77262
 10126.50000 1215180.00000 -999.25 0.02400 62.30170 10.57850 0.08630 -999.25 2.56000 3.91280 3.95500 2742.89370
 10127.00000 1215240.00000 -999.25 0.02600 66.51520 11.39100 0.09550 -999.25 2.56000 3.99900 3.99900 2743.01479
 10127.50000 1215300.00000 -999.25 0.02800 67.86390 14.20350 0.10460 -999.25 2.56500 3.63770 3.72970 2743.13587
 10128.00000 1215360.00000 -999.25 0.05200 68.52750 17.01600 0.11380 -999.25 2.57000 3.27630 3.46030 2743.25695
 10128.50000 1215420.00000 -999.25 0.07600 68.32030 17.01600 0.11410 -999.25 2.57500 2.91500 3.19100 2743.37804
 10129.00000 1215480.00000 -999.25 0.10000 67.42480 15.07850 0.11440 -999.25 2.58000 2.91500 3.12200 2743.49912
 10129.50000 1215540.00000 -999.25 0.09600 67.64540 13.14100 0.11470 -999.25 2.58000 2.91500 3.05300 2743.62020
 10130.00000 1215600.00000 -999.25 0.09200 67.99840 13.29470 0.11140 -999.25 2.58000 2.91500 2.98400 2743.74129
 10130.50000 1215660.00000 -999.25 0.08800 65.45140 13.44830 0.10810 -999.25 2.58000 2.91500 2.91500 2743.86237
 10131.00000 1215720.00000 -999.25 0.08400 63.17210 13.60200 0.10480 -999.25 2.58000 2.96000 2.96000 2743.98345
 10131.50000 1215780.00000 -999.25 0.07500 63.97130 13.75570 0.10150 -999.25 2.56000 3.00500 3.00500 2744.10454
 10132.00000 1215840.00000 -999.25 0.06600 64.81000 13.90930 0.10780 -999.25 2.54000 3.05000 3.05000 2744.22562
