~Version ---------------------------------------------------
VERS     .                             2.0 : CWLS log ASCII Standard -VERSION 2.0
WRAP     .                              NO : One Line per depth step
PROD     .                    Schlumberger : LAS Producer
PROG     .               DLIS to ASCII 2.3 : LAS Program name and version
CREA     .                   2019/04/03 19 : 56                          :LAS Creation date {YYYY/MM/DD hh:mm}
DLIS_CREA.                  2009-Feb-18 14 : 31                          :DLIS Creation date and time {YYYY-MMM-DD hh:mm}
SOURCE   . WLC_PETRO_COMPUTED_INPUT_1.DLIS : DLIS File Name
FILE-ID  .                   INPUT.logdata : File Identification Number
~Well ------------------------------------------------------
STRT.F                  566.0 : START DEPTH
STOP.F                12302.0 : STOP DEPTH
STEP.F                    0.5 : STEP
NULL.                 -999.25 : NULL VALUE
COMP.            STATOILHYDRO : COMPANY
WELL.               15/9-F-14 : WELL
FLD .                   VOLVE : FIELD
LOC .                         : LOCATION
CNTY.         MAERSK INSPIRER : COUNTY
STAT.                         : STATE
CTRY.                         : COUNTRY
API .                         : API NUMBER
UWI .                         : UNIQUE WELL ID
DATE.                         : LOG DATE
SRVC. CROCKER DATA PROCESSING : SERVICE COMPANY
LATI.DEG                      : LATITUDE
LONG.DEG                      : LONGITUDE
GDAT.                         : GeoDetic Datum
~Curve Information -----------------------------------------
DEPTH.F            : DEPTH (BOREHOLE) {F10.1}
DEPTH..1IN         : Measured Depth {I11}
DRHO .G/C3         : DRHO:UNKNOWN:rC:NONE:v1 {F13.4}
DT   .US/F         : DT:UNKNOWN:rC:NONE:v2 {F13.4}
DTS  .US/F         : DTS:UNKNOWN:rC:NONE:v1 {F13.4}
GR   .API          : GR:UNKNOWN:rC:NONE:v1 {F13.4}
NPHI .V/V_DECIMAL  : NPHI:UNKNOWN:rC:NONE:v1 {F13.4}
PEF  .B/ELEC       : PEF:UNKNOWN:rC:NONE:v1 {F13.4}
RD   .UNKNOWN      : RD:UNKNOWN:rC:NONE:v1 {F13.4}
RHOB .G/C3         : RHOB:UNKNOWN:rC:NONE:v1 {F13.4}
RS   .UNKNOWN      : RS:UNKNOWN:rC:NONE:v1 {F13.4}
RT   .OHMM         : RT:UNKNOWN:rC:NONE:v1 {F13.4}
TVD  .M            : True Vertical Depth from PyLasMech
~Params ----------------------------------------------------
CN  .    STATOILHYDRO : Company
WN  .       15/9-F-14 : Well Name
FN  .           VOLVE : Field
CTRY.          NORWAY : Country
COUN. MAERSK INSPIRER : County or Rig name
PDAT.             MSL : Perm. Datum
ELZ .M            0.0 : Elev. Log Zero (wrt EPD)
SRVC.         UNKNOWN : Service company
R2  .           INPUT : R2
RUN .                 : RUN NUMBER
EPD .                 : Elevation of Permanent Datum above Mean Sea Level
LMF .                 : Logging Measured From (Name of Logging Elevation Reference)
APD .                 : Elevation of Depth Reference (LMF) above Permanent Datum
~Other -----------------------------------------------------
~ASCII -----------------------------------------------------
# ...
 12234.00000 1468080.00000 0.03370 -999.25 -999.25 47.65410 0.18480 2.67110 0.42190 2.34160 0.68630 0.76480 -999.25
 12234.50000 1468140.00000 0.03240 -999.25 -999.25 47.86400 0.17680 2.58510 0.42600 2.34880 0.71990 0.72590 -999.25
 12235.00000 1468200.00000 0.03380 -999.25 -999.25 53.82670 0.16080 2.57180 0.41230 2.36200 0.71040 0.90150 -999.25
 12235.50000 1468260.00000 0.03080 -999.25 -999.25 62.75910 0.15530 2.68080 0.45110 2.37290 0.76780 0.86870 -999.25
 12236.00000 1468320.00000 0.02910 -999.25 -999.25 72.71740 0.16860 2.82880 0.48280 2.37720 0.85730 1.13660 -999.25
 12236.50000 1468380.00000 0.02630 -999.25 -999.25 75.53830 0.18090 2.89400 0.50800 2.38120 0.87400 1.15960 -999.25
 12237.00000 1468440.00000 0.02690 -999.25 -999.25 73.95150 0.16740 2.88420 0.54490 2.38030 0.87630 1.12060 -999.25
 12237.50000 1468500.00000 0.03820 -999.25 -999.25 71.87390 0.17130 2.92640 0.53090 2.38200 0.84780 1.03470 -999.25
 12238.00000 1468560.00000 0.04250 -999.25 -999.25 68.57090 0.18000 2.86760 0.51070 2.36880 0.85270 1.01890 -999.25
 12238.50000 1468620.00000 0.04340 -999.25 -999.25 69.47320 0.18460 2.78430 0.51610 2.35450 0.69260 0.81790 -999.25
 12239.00000 1468680.00000 0.03680 -999.25 -999.25 66.90910 0.19080 2.67020 0.49990 2.33660 0.65800 0.73600 -999.25
 12239.50000 1468740.00000 0.03500 -999.25 -999.25 65.26410 0.18270 2.69810 0.49970 2.32970 0.59290 0.68850 -999.25
 12240.00000 1468800.00000 0.03390 -999.25 -999.25 59.75690 0.17960 2.67230 0.49490 2.33160 0.56460 0.63960 -999.25
 12240.50000 1468860.00000 0.03650 -999.25 -999.25 58.16450 0.18990 2.69510 0.49320 2.33920 0.57240 0.61070 -999.25
 12241.00000 1468920.00000 0.03840 -999.25 -999.25 56.77710 0.17700 2.69350 0.50230 2.34730 0.58700 0.64230 -999.25
 12241.50000 1468980.00000 0.04470 -999.25 -999.25 55.53190 0.18550 2.85060 0.48450 2.35530 0.62080 0.62050 -999.25
 12242.00000 1469040.00000 0.06120 -999.25 -999.25 50.25670 0.18310 2.98030 0.46320 2.38050 0.59400 0.62750 -999.25
 12242.50000 1469100.00000 0.04630 -999.25 -999.25 46.98500 0.17340 3.20240 0.48140 2.37250 0.57490 0.53830 -999.25
 12243.00000 1469160.00000 0.04240 -999.25 -999.25 47.00370 0.17720 3.14620 0.45070 2.37820 0.59490 0.52600 -999.25
 12243.50000 1469220.00000 0.01630 -999.25 -999.25 49.25970 0.17440 3.16660 0.50980 2.34960 0.58480 0.53570 -999.25
 12244.00000 1469280.00000 0.02630 -999.25 -999.25 51.61550 0.17710 3.26730 0.47090 2.35830 0.56620 0.51180 -999.25
 12244.50000 1469340.00000 0.02410 -999.25 -999.25 52.83090 0.17440 3.49340 0.42090 2.35390 0.54000 0.48950 -999.25
 12245.00000 1469400.00000 0.03100 -999.25 -999.25 53.44240 0.17150 3.52420 0.42390 2.36710 0.54570 0.49620 -999.25
 12245.50000 1469460.00000 0.02320 -999.25 -999.25 50.86290 0.17640 3.22410 0.42470 2.36290 0.52280 0.45900 -999.25
 12246.00000 1469520.00000 0.02600 -999.25 -999.25 47.43450 0.17870 2.99690 0.47090 2.36370 0.52620 0.48680 -999.25
 12246.50000 1469580.00000 0.03490 -999.25 -999.25 44.61820 0.16250 2.84900 0.45190 2.37050 0.52930 0.53160 -999.25
 12247.00000 1469640.00000 0.04410 -999.25 -999.25 45.17390 0.16990 2.97160 0.47690 2.38380 0.49410 0.48780 -999.25
 12247.50000 1469700.00000 0.01460 -999.25 -999.25 45.98780 0.17790 3.27570 0.49440 2.38310 0.46980 0.46620 -999.25
 12248.00000 1469760.00000 -0.00370 -999.25 -999.25 47.40330 0.18230 3.77900 0.49890 2.38380 0.48580 0.47800 -999.25
 12248.50000 1469820.00000 -0.00520 -999.25 -999.25 47.97650 0.16610 3.86350 0.54200 2.40230 0.51260 0.48490 -999.25
 12249.00000 1469880.00000 0.01900 -999.25 -999.25 48.35910 0.16630 3.44150 0.66620 2.42900 0.50490 0.49000 -999.25
 12249.50000 1469940.00000 0.03750 -999.25 -999.25 50.36040 0.16810 3.19710 0.62690 2.42940 0.49580 0.51030 -999.25
 12250.00000 1470000.00000 0.04580 -999.25 -999.25 53.09880 0.17540 3.17230 0.70010 2.40730 0.52720 0.54270 -999.25
 12250.50000 1470060.00000 0.04090 -999.25 -999.25 56.12580 0.17360 3.18060 0.76890 2.37040 0.56610 0.55110 -999.25
 12251.00000 1470120.00000 0.04490 -999.25 -999.25 54.87320 0.18490 3.05760 0.90930 2.37280 0.62770 0.58130 -999.25
 12251.50000 1470180.00000 0.04300 -999.25 -999.25 53.88150 0.17440 3.10840 1.06620 2.38130 0.67360 0.60100 -999.25
 12252.00000 1470240.00000 0.04320 -999.25 -999.25 53.64220 0.16750 3.27060 1.05080 2.38690 0.84830 0.82490 -999.25
 12252.50000 1470300.00000 0.03380 -999.25 -999.25 56.45590 0.16680 3.38500 0.99070 2.37970 0.86470 0.87560 -999.25
 12253.00000 1470360.00000 0.01140 -999.25 -999.25 57.36050 0.16670 3.17910 1.10550 2.36830 0.85480 0.93980 -999.25
 12253.50000 1470420.00000 0.00990 -999.25 -999.25 58.89280 0.18660 2.99330 1.24660 2.37960 0.86050 0.94100 -999.25
 12254.00000 1470480.00000 0.02110 -999.25 -999.25 59.36680 0.17610 2.83870 1.50920 2.38350 0.87140 0.71530 -999.25
 12254.50000 1470540.00000 0.02990 -999.25 -999.25 60.15210 0.17160 2.87140 1.78680 2.37480 0.84960 0.61780 -999.25
 12255.00000 1470600.00000 0.03420 -999.25 -999.25 59.38150 0.17520 2.90030 1.22810 2.36470 0.83390 1.03120 -999.25
 12255.50000 1470660.00000 0.03010 -999.25 -999.25 59.07750 0.17160 2.85340 1.28020 2.35280 0.82920 1.21400 -999.25
 12256.00000 1470720.00000 0.04280 -999.25 -999.25 59.51830 0.17470 2.88630 1.56770 2.36200 0.82420 1.22660 -999.25
 12256.50000 1470780.00000 0.05050 -999.25 -999.25 62.25200 0.16510 2.86090 2.39130 2.39620 0.90990 0.89930 -999.25
 12257.00000 1470840.00000 0.03480 -999.25 -999.25 67.64500 0.15840 2.95010 2.44080 2.45230 1.25720 0.89630 -999.25
 12257.50000 1470900.00000 0.02840 -999.25 -999.25 71.42900 -999.25 3.04500 1.93840 2.53130 1.49970 1.54330 -999.25
 12258.00000 1470960.00000 0.01890 -999.25 -999.25 75.13730 -999.25 3.08750 2.52380 2.58610 1.77640 2.92520 -999.25
 12258.50000 1471020.00000 0.02150 -999.25 -999.25 77.65240 -999.25 3.09510 2.61360 2.60090 1.81350 2.87410 -999.25
 12259.00000 1471080.00000 0.02160 -999.25 -999.25 82.84850 -999.25 3.11090 2.66150 2.60190 2.14670 3.29760 -999.25
 12259.50000 1471140.00000 0.02460 -999.25 -999.25 82.90000 -999.25 3.26560 2.96240 2.58940 2.30550 3.56730 -999.25
 12260.00000 1471200.00000 0.03420 -999.25 -999.25 80.59150 -999.25 3.43320 3.26320 2.58370 2.46360 4.72110 -999.25
 12260.50000 1471260.00000 0.03810 -999.25 -999.25 74.88900 -999.25 3.56080 4.91800 2.56980 2.68570 6.78730 -999.25
 12261.00000 1471320.00000 0.02900 -999.25 -999.25 76.18650 -999.25 3.52790 4.48390 2.54460 2.13560 6.23340 -999.25
 12261.50000 1471380.00000 0.02040 -999.25 -999.25 78.41580 -999.25 3.39320 -999.25 2.52540 -999.25 -999.25 -999.25
 12262.00000 1471440.00000 0.01990 -999.25 -999.25 81.32520 -999.25 3.18330 -999.25 2.50820 -999.25 -999.25 -999.25
 12262.50000 1471500.00000 0.02630 -999.25 -999.25 82.12650 -999.25 3.11660 -999.25 2.51720 -999.25 -999.25 -999.25
 12263.00000 1471560.00000 0.02940 -999.25 -999.25 83.48580 -999.25 3.18490 -999.25 2.52940 -999.25 -999.25 -999.25
 12263.50000 1471620.00000 0.02400 -999.25 -999.25 86.46640 -999.25 3.29850 -999.25 2.53760 -999.25 -999.25 -999.25
 12264.00000 1471680.00000 0.02740 -999.25 -999.25 87.33670 -999.25 3.31410 -999.25 2.55540 -999.25 -999.25 -999.25
 12264.50000 1471740.00000 0.02890 -999.25 -999.25 91.34160 -999.25 3.24240 -999.25 2.56870 -999.25 -999.25 -999.25
 12265.00000 1471800.00000 0.03240 -999.25 -999.25 98.24600 -999.25 3.09580 -999.25 2.58970 -999.25 -999.25 -999.25
 12265.50000 1471860.00000 0.03220 -999.25 -999.25 108.93560 -999.25 3.01570 -999.25 2.59450 -999.25 -999.25 -999.25
 12266.00000 1471920.00000 0.03440 -999.25 -999.25 114.25010 -999.25 3.05360 -999.25 2.59670 -999.25 -999.25 -999.25
 12266.50000 1471980.00000 -999.25 -999.25 -999.25 118.49360 -999.25 -999.25 -999.25 -999.25 -999.25 -999.25 -999.25
 12267.00000 1472040.00000 -999.25 -999.25 -999.25 121.47270 -999.25 -999.25 -999.25 -999.25 -999.25 -999.25 -999.25
 12267.50000 1472100.00000 -999.25 -999.25 -999.25 124.96160 -999.25 -999.25 -999.25 -999.25 -999.25 -999.25 -999.25
 12268.00000 1472160.00000 -999.25 -999.25 -999.25 122.23540 -999.25 -999.25 -999.25 -999.25 -999.25 -999.25 -999.25
