~Version ---------------------------------------------------
VERS     .                             2.0 : CWLS log ASCII Standard -VERSION 2.0
WRAP     .                              NO : One Line per depth step
PROD     .         CROCKER DATA PROCESSING : LAS Producer
PROG     .                   LAS Viewer v0 : LAS Program name and version
CREA     .                2019/04/03 21-01 : LAS Creation date {YYYY/MM/DD hh-mm}
DLIS_CREA.               2009-Aug-25 10-08 : DLIS Creation date and time {YYYY-MMM-DD hh-mm}
SOURCE   . WLC_PETRO_COMPUTED_INPUT_1.DLIS : DLIS File Name
FILE-ID  .               CPI_INPUT.logdata : File Identification Number
~Well ------------------------------------------------------
STRT .m               2560.0152 : START DEPTH
STOP .m               3222.1932 : STOP DEPTH
STEP .m       0.152400000000398 : STEP
NULL .                  -999.25 : NULL VALUE
COMP .             STATOILHYDRO : COMPANY
WELL .              15/9-F-15 C : WELL
FIELD.                    VOLVE : FIELD
LOC  .                          : LOCATION
CNTY .                          : COUNTY
STAT .                          : STATE
NATI .                          : COUNTRY
API  .                          : API NUMBER
UWI  .                          : UNIQUE WELL ID
SRVC .                          : SERVICE COMPANY
LATI . 058 26' 29.706" N    DMS : LATITUDE
LONG . 001 53' 15.149" E    DMS : LONGITUDE
GDAT .                      MSL : GeoDetic Datum
~Curve Information -----------------------------------------
DEPTH.m      : Measured Depth
CALI .IN     : 
DRHO .G/CC   : 
DRHU .G/CC   : 
DT   .US/FT  : 
GR   .GAPI   : 
NPHI .V/V    : 
RD   .OHMM   : 
RHOB .G/CC   : 
ROBU .G/CC   : 
RS   .OHMM   : 
RT   .OHMM   : 
TVD  .M      : True Vertical Depth from PyLasMech
~Params ----------------------------------------------------
RUN . MWD RUN 12-13 : Run number
PDAT.           MSL : Perm. Datum
~Other -----------------------------------------------------
~ASCII -----------------------------------------------------
# ...
 3147.82200 8.71030 0.00220 0.06800 85.65330 15.83510 0.18420 14.40700 2.17940 2.17140 37.67130 39.03590 2965.22509
 3147.97440 8.68500 0.00980 0.07720 86.41770 16.96580 0.18500 13.46610 2.18070 2.17100 38.12110 45.06000 2965.36657
 3148.12680 8.73780 0.01810 0.07120 86.95810 20.15330 0.18630 11.32640 2.19330 2.16850 25.97050 47.23800 2965.50805
 3148.27920 8.68920 0.02160 0.07590 87.44910 21.23630 0.18130 8.46730 2.18980 2.18600 19.44040 37.67060 2965.64952
 3148.43160 8.71970 0.02060 0.06510 88.43000 19.53040 0.18550 8.09180 2.16760 2.18580 25.65770 23.46890 2965.79100
 3148.58400 8.70000 0.01290 0.06580 88.89580 15.91110 0.19930 6.67590 2.14410 2.17960 28.78210 20.82910 2965.93248
 3148.73640 8.73040 0.01390 0.06470 88.53980 15.17610 0.19680 5.43520 2.14250 2.16710 26.52530 17.68510 2966.07396
 3148.88880 8.69370 0.01840 0.07790 87.19210 15.84460 0.19060 4.38900 2.15320 2.19070 13.80960 15.12700 2966.21544
 3149.04120 8.67220 0.01950 0.07400 85.68180 16.03580 0.18920 3.42840 2.17680 2.21800 6.94810 10.24030 2966.35692
 3149.19360 8.73780 0.02020 0.08430 84.76310 15.91410 0.19440 2.57730 2.19810 2.26080 3.32150 5.31150 2966.49840
 3149.34600 8.68950 0.02170 0.07400 83.88900 15.73300 0.19230 2.04230 2.21680 2.25060 1.63270 2.42600 2966.63988
 3149.49840 8.73020 0.02710 0.08210 83.02100 15.11170 0.19710 1.83770 2.22950 2.24730 1.39190 1.64330 2966.78136
 3149.65080 8.68850 0.02500 0.06940 82.40850 14.59010 0.20520 1.77170 2.23230 2.23260 1.34460 1.51300 2966.92284
 3149.80320 8.67350 0.02780 0.06890 82.55780 13.98120 0.20720 1.64560 2.24570 2.24050 1.31240 1.35610 2967.06432
 3149.95560 8.68810 0.02590 0.06330 83.41980 15.71540 0.20650 1.42260 2.24350 2.24080 1.18560 1.11740 2967.20580
 3150.10800 8.69490 0.02760 0.07450 84.85810 15.87110 0.19930 1.20300 2.24390 2.25530 1.15840 1.18060 2967.34728
 3150.26040 8.68180 0.02110 0.07330 86.89550 16.60260 0.20210 1.14870 2.22480 2.24940 0.96940 1.13570 2967.48876
 3150.41280 8.68700 0.01840 0.07130 89.60260 15.69900 0.19050 1.12880 2.21040 2.23500 0.83890 0.86340 2967.63024
 3150.56520 8.71220 0.01690 0.05640 91.87860 16.27430 0.21020 0.98700 2.20180 2.20900 0.75860 0.81660 2967.77172
 3150.71760 8.67590 0.01120 0.05300 93.12460 20.76600 0.21870 0.95640 2.18610 2.20160 0.74690 0.77160 2967.91319
 3150.87000 8.69360 0.01570 0.05400 93.58150 29.97290 0.23470 1.24720 2.18750 2.20270 0.87020 0.79540 2968.05467
 3151.02240 8.72540 0.01060 0.05420 94.25770 38.44690 0.23950 1.46490 2.16970 2.19200 1.46190 1.43880 2968.19615
 3151.17480 8.75640 0.01680 0.05650 95.26320 41.66590 0.24330 1.63070 2.17650 2.18550 1.91710 2.04630 2968.33763
 3151.32720 8.72840 0.01410 0.05640 95.73650 38.94980 0.25340 1.91740 2.16490 2.18040 2.40530 2.62730 2968.47911
 3151.47960 8.71740 0.01810 0.05700 95.63080 36.01090 0.25080 2.10430 2.17070 2.18110 2.73340 2.75220 2968.62059
 3151.63200 8.71650 0.01990 0.05590 95.27220 35.21020 0.24000 2.24300 2.17020 2.17880 3.12420 2.94750 2968.76207
 3151.78440 8.71660 0.01390 0.05330 94.49580 35.47140 0.25660 2.23660 2.16700 2.17380 3.37150 3.21460 2968.90355
 3151.93680 8.70660 0.01190 0.05230 93.04110 36.72240 0.24130 2.26190 2.17010 2.17880 3.43510 3.41240 2969.04503
 3152.08920 8.70480 0.00980 0.05190 91.98190 37.47090 0.24110 2.27480 2.18100 2.18720 3.17860 3.57350 2969.18651
 3152.24160 8.70060 0.01230 0.04970 90.66390 37.82030 0.23850 1.94000 2.20440 2.20590 2.09170 2.73630 2969.32799
 3152.39400 8.69770 0.01290 0.05430 89.09060 36.31730 0.21370 1.44060 2.22200 2.22800 1.24280 1.13330 2969.46947
 3152.54640 8.68350 0.00690 0.05510 87.87850 33.18370 0.19410 1.18230 2.23300 2.25720 1.32440 1.11330 2969.61095
 3152.69880 8.68280 0.00900 0.05280 87.18560 30.41090 0.19930 1.03420 2.24370 2.27910 1.41830 1.29810 2969.75243
 3152.85120 8.70920 0.01080 0.05350 86.69280 27.23260 0.19520 1.09900 2.25180 2.29390 1.26590 1.28080 2969.89391
 3153.00360 8.70800 0.02010 0.05560 86.25240 25.55170 0.21620 1.03530 2.25970 2.28640 1.00890 1.01650 2970.03538
 3153.15600 8.71620 0.02480 0.06160 86.61400 25.34430 0.21190 0.89800 2.26260 2.27280 0.84600 0.78340 2970.17686
 3153.30840 8.71070 0.02800 0.06160 86.72560 26.16000 0.19560 0.79900 2.26600 2.26150 0.75850 0.69920 2970.31834
 3153.46080 8.70530 0.03350 0.06250 86.15230 26.49980 0.20380 0.74990 2.27460 2.26100 0.75750 0.68600 2970.45982
 3153.61320 8.69530 0.03530 0.07140 85.93880 26.90590 0.20060 0.74370 2.28650 2.27210 0.73540 0.68120 2970.60130
 3153.76560 8.71400 0.03140 0.07510 87.09520 27.32130 0.20990 0.78890 2.28630 2.27700 0.77730 0.71110 2970.74278
 3153.91800 8.71150 0.02480 0.07490 88.92770 26.81910 0.20410 0.80520 2.27610 2.27590 0.83700 0.75880 2970.88426
 3154.07040 8.74450 0.01310 0.07890 90.41160 25.63550 0.20630 0.80520 2.26210 2.27400 0.90010 0.86130 2971.02574
 3154.22280 8.70340 0.01950 0.07740 91.04090 25.32770 0.20360 0.83380 2.26990 2.26970 0.98620 0.94980 2971.16722
 3154.37520 8.73480 0.01880 0.08300 91.33790 26.37100 0.23550 0.81540 2.26740 2.27240 0.83120 0.82140 2971.30870
 3154.52760 8.73350 0.02430 0.07710 91.78300 28.13840 0.21440 0.78400 2.26990 2.26130 0.77870 0.74800 2971.45018
 3154.68000 8.70760 0.01910 0.07560 92.53070 31.15810 0.20960 0.77410 2.26950 2.26490 0.73690 0.70750 2971.59166
 3154.83240 8.69350 0.02130 0.07210 92.20110 32.52810 0.24560 0.74480 2.28260 2.27710 0.74890 0.70630 2971.73314
 3154.98480 8.67960 0.02830 0.07480 91.08170 35.54730 0.22570 0.73810 2.30550 2.29430 0.75860 0.71140 2971.87462
 3155.13720 8.69900 0.02410 0.09010 89.89820 45.60850 0.22360 0.71300 2.30530 2.32480 0.76370 0.72070 2972.01610
 3155.28960 8.75260 0.03340 0.08610 88.76770 58.55600 0.23380 0.69640 2.31960 2.32630 0.77590 0.71950 2972.15758
 3155.44200 8.76340 0.03670 0.08610 87.75060 63.65590 0.21290 0.62680 2.31350 2.33710 0.71330 0.66300 2972.29905
 3155.59440 8.81440 0.04600 0.07990 87.06920 53.13420 0.21690 0.59430 2.31160 2.31840 0.65270 0.59430 2972.44053
 3155.74680 8.78520 0.03840 0.08750 86.58560 37.31700 0.20880 0.57730 2.28730 2.31560 0.61110 0.56940 2972.58201
 3155.89920 8.75840 0.03420 0.08550 85.74670 26.50920 0.21470 0.54650 2.27830 2.30140 0.58950 0.53450 2972.72349
 3156.05160 8.76810 0.03520 0.08150 84.76020 22.66350 0.20740 0.54010 2.27550 2.29710 0.53090 0.50400 2972.86497
 3156.20400 8.72950 0.03670 0.07860 83.79620 21.79260 0.20060 0.46060 2.28440 2.28650 0.45220 0.42230 2973.00645
 3156.35640 8.73900 0.03930 0.08690 83.61830 21.47880 0.19520 0.42660 2.29090 2.29000 0.44120 0.39120 2973.14793
 3156.50880 8.76700 0.03200 0.08610 83.45830 21.81350 0.19270 0.42390 2.29320 2.29550 0.43550 0.40620 2973.28941
 3156.66120 8.72160 0.03350 0.07800 83.62880 22.37510 0.20430 0.44390 2.29830 2.30240 0.44080 0.42370 2973.43089
 3156.81360 8.71830 0.02700 0.06810 84.45310 22.53130 0.20020 0.44110 2.29320 2.30240 0.45010 0.40660 2973.57237
 3156.96600 8.71820 0.03180 0.06930 85.04810 22.50750 0.18750 0.44200 2.30090 2.29960 0.43870 0.39310 2973.71385
 3157.11840 8.74270 0.02830 0.07690 84.88430 22.59270 0.19600 0.40980 2.30010 2.29980 0.43160 0.38240 2973.85533
 3157.27080 8.71340 0.02760 0.08330 85.15370 23.71370 0.20130 0.42750 2.30520 2.30970 0.43730 0.38930 2973.99681
 3157.42320 8.67150 0.02630 0.06490 86.13760 24.10160 0.19250 0.45320 2.30420 2.30920 0.43530 0.39000 2974.13829
 3157.57560 8.66770 0.02600 0.04670 87.05260 25.41400 0.20030 0.45070 2.30240 2.30820 0.48150 0.42390 2974.27977
 3157.72800 8.73230 0.01940 0.03960 87.15470 25.66680 0.21110 0.42930 2.28050 2.30690 0.44900 0.43330 2974.42124
 3157.88040 8.70880 0.02110 0.04770 86.77650 27.53330 0.22520 0.40770 2.26930 2.29980 0.41880 0.38910 2974.56272
 3158.03280 8.73200 0.02170 0.05830 85.27010 27.82430 0.20730 0.42640 2.27540 2.29530 0.37210 0.31960 2974.70420
 3158.18520 8.72830 0.02340 0.06280 82.99920 29.35330 0.18560 0.43630 2.31130 2.30750 0.47620 0.40750 2974.84568
 3158.33760 8.72900 0.01530 0.05630 81.94630 31.53430 0.18320 0.43380 2.33460 2.33340 0.61000 0.53630 2974.98716
 3158.49000 8.67610 0.02300 0.05060 83.16110 35.15260 0.22410 0.50060 2.33740 2.35610 0.55550 0.43200 2975.12864
