~Version ---------------------------------------------------
VERS     .                             2.0 : CWLS log ASCII Standard -VERSION 2.0
WRAP     .                              NO : One Line per depth step
PROD     .                    Schlumberger : LAS Producer
PROG     .               DLIS to ASCII 2.3 : LAS Program name and version
CREA     .                   2019/04/03 19 : 56                          :LAS Creation date {YYYY/MM/DD hh:mm}
DLIS_CREA.                  2009-Feb-18 14 : 31                          :DLIS Creation date and time {YYYY-MMM-DD hh:mm}
SOURCE   . WLC_PETRO_COMPUTED_INPUT_1.DLIS : DLIS File Name
FILE-ID  .                   INPUT.logdata : File Identification Number
~Well ------------------------------------------------------
STRT.F                  566.0 : START DEPTH
STOP.F                12302.0 : STOP DEPTH
STEP.F                    0.5 : STEP
NULL.                 -999.25 : NULL VALUE
COMP.            STATOILHYDRO : COMPANY
WELL.               15/9-F-14 : WELL
FLD .                   VOLVE : FIELD
LOC .                         : LOCATION
CNTY.         MAERSK INSPIRER : COUNTY
STAT.                         : STATE
CTRY.                         : COUNTRY
API .                         : API NUMBER
UWI .                         : UNIQUE WELL ID
DATE.                         : LOG DATE
SRVC. CROCKER DATA PROCESSING : SERVICE COMPANY
LATI.DEG                      : LATITUDE
LONG.DEG                      : LONGITUDE
GDAT.                         : GeoDetic Datum
~Curve Information -----------------------------------------
DEPTH.F            : DEPTH (BOREHOLE) {F10.1}
DEPTH..1IN         : Measured Depth {I11}
DRHO .G/C3         : DRHO:UNKNOWN:rC:NONE:v1 {F13.4}
DT   .US/F         : DT:UNKNOWN:rC:NONE:v2 {F13.4}
DTS  .US/F         : DTS:UNKNOWN:rC:NONE:v1 {F13.4}
GR   .API          : GR:UNKNOWN:rC:NONE:v1 {F13.4}
NPHI .V/V_DECIMAL  : NPHI:UNKNOWN:rC:NONE:v1 {F13.4}
PEF  .B/ELEC       : PEF:UNKNOWN:rC:NONE:v1 {F13.4}
RD   .UNKNOWN      : RD:UNKNOWN:rC:NONE:v1 {F13.4}
RHOB .G/C3         : RHOB:UNKNOWN:rC:NONE:v1 {F13.4}
RS   .UNKNOWN      : RS:UNKNOWN:rC:NONE:v1 {F13.4}
RT   .OHMM         : RT:UNKNOWN:rC:NONE:v1 {F13.4}
TVD  .M            : True Vertical Depth from PyLasMech
~Params ----------------------------------------------------
CN  .    STATOILHYDRO : Company
WN  .       15/9-F-14 : Well Name
FN  .           VOLVE : Field
CTRY.          NORWAY : Country
COUN. MAERSK INSPIRER : County or Rig name
PDAT.             MSL : Perm. Datum
ELZ .M            0.0 : Elev. Log Zero (wrt EPD)
SRVC.         UNKNOWN : Service company
R2  .           INPUT : R2
RUN .                 : RUN NUMBER
EPD .                 : Elevation of Permanent Datum above Mean Sea Level
LMF .                 : Logging Measured From (Name of Logging Elevation Reference)
APD .                 : Elevation of Depth Reference (LMF) above Permanent Datum
~Other -----------------------------------------------------
~ASCII -----------------------------------------------------
# ...
 10810.50000 1297260.00000 0.01890 91.96590 155.25690 38.94610 0.20500 2.58730 39.02220 2.15620 71.87020 64.12070 2940.39506
 10811.00000 1297320.00000 0.02480 93.40320 156.34490 37.72040 0.20340 2.75010 39.21440 2.16100 72.92680 65.58070 2940.42527
 10811.50000 1297380.00000 0.02780 93.95300 154.92000 36.64700 0.22200 2.86850 38.84600 2.16280 68.00820 63.15610 2940.45547
 10812.00000 1297440.00000 0.02700 93.34400 153.21560 37.40840 0.21190 2.83950 39.58740 2.16190 70.55450 64.41300 2940.48568
 10812.50000 1297500.00000 0.02070 92.82560 152.47670 38.48870 0.19850 2.75960 38.77750 2.15550 71.90020 62.49370 2940.51589
 10813.00000 1297560.00000 0.01830 93.35440 150.54940 39.14810 0.21180 2.70790 39.10190 2.15560 69.64100 63.83140 2940.54609
 10813.50000 1297620.00000 0.01730 93.90930 148.24170 40.01620 0.19070 2.75880 40.60570 2.16100 69.09400 63.80540 2940.57630
 10814.00000 1297680.00000 0.01900 95.03810 148.83010 38.04930 0.19510 2.83780 39.06920 2.17230 72.90250 61.69570 2940.60650
 10814.50000 1297740.00000 0.02610 96.32110 145.41320 37.62740 0.18460 2.93100 40.56870 2.19000 77.39520 64.32220 2940.63671
 10815.00000 1297800.00000 0.02670 97.64370 143.40640 37.01540 0.18840 2.95890 41.06400 2.19920 74.15950 64.18860 2940.66692
 10815.50000 1297860.00000 0.02340 98.01880 144.77650 40.19770 0.17170 2.95980 40.82590 2.20460 76.14870 65.42340 2940.69712
 10816.00000 1297920.00000 0.01590 96.23060 145.22780 39.31730 0.16920 2.92580 41.51240 2.20620 76.33940 66.23350 2940.72733
 10816.50000 1297980.00000 0.01750 95.85550 144.96950 39.04320 0.16660 3.04280 41.60960 2.21430 77.33640 65.65990 2940.75754
 10817.00000 1298040.00000 0.02690 97.54500 143.09190 38.03210 0.18750 3.25380 42.88280 2.23420 78.39100 65.66450 2940.78774
 10817.50000 1298100.00000 0.03220 98.39820 143.48780 37.43200 0.15210 3.59140 42.65520 2.24540 79.21630 66.63470 2940.81795
 10818.00000 1298160.00000 0.03830 97.54190 144.83280 35.79290 0.16300 3.79980 43.55070 2.25830 77.44080 66.83150 2940.84815
 10818.50000 1298220.00000 0.04140 93.99530 146.12130 34.73130 0.17230 3.92610 44.32940 2.25310 76.97550 66.95230 2940.87836
 10819.00000 1298280.00000 0.04570 94.44450 147.12320 35.17240 0.16660 3.98240 42.79780 2.25610 78.59880 67.03780 2940.90857
 10819.50000 1298340.00000 0.04730 94.92280 147.42540 37.09770 0.16610 3.88800 43.05250 2.26110 78.24000 66.12410 2940.93877
 10820.00000 1298400.00000 0.04720 95.17630 146.83320 37.25600 0.17420 3.77840 43.14810 2.27550 74.22980 66.53100 2940.96898
 10820.50000 1298460.00000 0.04330 94.96960 146.09630 38.13230 0.16650 3.53190 43.39330 2.28870 73.14000 66.62570 2940.99919
 10821.00000 1298520.00000 0.03430 95.67650 146.48080 36.63840 0.15700 3.39040 43.69970 2.30640 75.73710 65.86280 2941.02939
 10821.50000 1298580.00000 0.01300 96.27590 147.69460 35.29810 0.14450 3.24340 43.35680 2.32130 70.59560 64.99700 2941.05960
 10822.00000 1298640.00000 0.01120 96.45590 146.60750 35.72820 0.13170 3.18000 44.84690 2.36080 74.49320 64.49680 2941.08980
 10822.50000 1298700.00000 0.00990 96.24750 145.80910 35.68600 0.12420 3.18180 43.44050 2.38980 71.89130 63.93570 2941.12001
 10823.00000 1298760.00000 0.03350 96.07080 145.23060 36.59810 0.12640 3.24140 43.99580 2.43610 68.74110 64.30630 2941.15022
 10823.50000 1298820.00000 0.01220 95.97400 145.23250 35.35650 0.12550 3.30750 44.36080 2.39700 68.71340 63.03150 2941.18042
 10824.00000 1298880.00000 0.00490 95.61800 146.22120 35.73250 0.13630 3.38070 43.95830 2.39440 69.02960 64.01660 2941.21063
 10824.50000 1298940.00000 -0.00330 96.17940 149.60010 35.54350 0.13230 3.49320 45.97850 2.39130 69.30850 63.46310 2941.24084
 10825.00000 1299000.00000 0.00570 97.09080 151.63350 36.04160 0.13070 3.64530 44.87470 2.43490 66.75320 61.96490 2941.27104
 10825.50000 1299060.00000 0.01850 98.34110 151.15270 37.25320 0.13000 3.74010 44.80510 2.45690 66.74830 62.41440 2941.30125
 10826.00000 1299120.00000 0.02520 96.65870 150.67180 37.28510 0.12170 3.75140 44.42890 2.46340 66.35100 60.05900 2941.33145
 10826.50000 1299180.00000 0.02830 96.74120 150.19090 37.63890 0.12430 3.67610 45.33930 2.47590 63.56900 61.81420 2941.36166
 10827.00000 1299240.00000 0.02220 96.92680 149.71000 38.43490 0.12260 3.51950 45.40080 2.46930 62.53700 62.94770 2941.39187
 10827.50000 1299300.00000 0.02010 95.18540 149.22920 39.34490 0.13400 3.34060 45.51010 2.46270 67.20560 61.41410 2941.42207
 10828.00000 1299360.00000 0.01560 94.08390 148.74830 39.30050 0.13240 3.37820 46.49880 2.43500 60.21280 58.53840 2941.45228
 10828.50000 1299420.00000 0.01920 94.30710 148.26740 39.04890 0.14440 3.41180 46.09410 2.40710 57.63030 58.16000 2941.48249
 10829.00000 1299480.00000 0.02310 94.46740 146.79250 39.87720 0.15200 3.35390 46.38030 2.36450 58.16550 56.55110 2941.51269
 10829.50000 1299540.00000 0.03160 93.44600 148.41260 40.84980 0.16150 3.20770 46.85530 2.31600 55.23760 56.65650 2941.54290
 10830.00000 1299600.00000 0.03910 92.46560 149.62220 42.75980 0.17590 3.11360 48.14260 2.26340 53.66650 55.10600 2941.57310
 10830.50000 1299660.00000 0.03680 91.74040 151.35390 44.13420 0.17220 3.08680 46.73560 2.21850 50.81580 54.04270 2941.60331
 10831.00000 1299720.00000 0.03310 91.85260 154.06050 45.69660 0.18140 3.07710 48.20900 2.19520 45.23780 54.19730 2941.63352
 10831.50000 1299780.00000 0.02000 91.73690 155.64490 44.28700 0.19370 3.06430 47.70340 2.18100 46.01050 51.42300 2941.66372
 10832.00000 1299840.00000 0.02010 91.07280 157.44990 44.48540 0.18350 3.14290 48.21690 2.18840 42.53960 49.40030 2941.69393
 10832.50000 1299900.00000 0.00290 90.73390 159.37120 43.22020 0.18180 3.24280 47.80870 2.18160 41.12170 46.70460 2941.72414
 10833.00000 1299960.00000 0.02540 91.62350 158.53220 44.39660 0.19160 3.17760 49.16170 2.23620 39.58310 48.80730 2941.75434
 10833.50000 1300020.00000 0.02900 92.16080 156.05200 45.41130 0.18650 3.12930 48.85290 2.24130 37.56470 45.61130 2941.78455
 10834.00000 1300080.00000 0.04580 91.59060 156.38050 46.15720 0.17930 3.05090 50.45520 2.25050 37.00960 44.18600 2941.81475
 10834.50000 1300140.00000 0.03040 90.57830 156.70900 46.14600 0.19540 3.13950 49.03990 2.19890 34.97830 45.02240 2941.84496
 10835.00000 1300200.00000 0.02570 89.07550 157.05730 45.03130 0.20150 3.10950 52.53070 2.18910 34.13470 42.88760 2941.87517
 10835.50000 1300260.00000 0.02620 88.59140 157.66130 45.80900 0.19690 3.11060 52.26650 2.18930 33.57190 41.96010 2941.90537
 10836.00000 1300320.00000 0.02610 89.38160 158.19540 45.32530 0.20020 3.14700 53.30830 2.19500 33.17950 40.27780 2941.93558
 10836.50000 1300380.00000 0.02780 90.37160 157.16640 46.60200 0.18980 3.20630 53.23460 2.20460 32.60910 40.91990 2941.96579
 10837.00000 1300440.00000 0.02860 88.77230 155.80910 48.74350 0.20120 3.27650 53.39850 2.21340 32.72340 40.25860 2941.99599
 10837.50000 1300500.00000 0.02990 88.72510 153.86350 50.85510 0.20770 3.27890 52.10510 2.22060 31.85250 40.41850 2942.02620
 10838.00000 1300560.00000 0.02070 89.79760 153.66370 51.09720 0.20030 3.24880 53.42290 2.21530 31.86880 39.27380 2942.05640
 10838.50000 1300620.00000 0.01430 88.64120 153.46400 49.85700 0.20360 3.19060 54.60090 2.21110 30.55400 40.13190 2942.08661
 10839.00000 1300680.00000 0.01410 88.03400 153.33520 49.22100 0.20300 3.24950 52.77310 2.20950 30.47380 38.79060 2942.11682
 10839.50000 1300740.00000 0.02560 87.36910 153.43010 49.19260 0.19030 3.32060 53.72010 2.22260 29.80750 38.72330 2942.14702
 10840.00000 1300800.00000 0.03450 86.35160 153.57070 49.48680 0.19910 3.37090 54.23450 2.23240 29.60710 39.10780 2942.17723
 10840.50000 1300860.00000 0.03790 85.51530 153.53660 48.74480 0.18950 3.39370 52.83210 2.23860 30.03220 40.11810 2942.20743
 10841.00000 1300920.00000 0.03790 85.55690 152.91880 47.95450 0.18310 3.39520 54.72700 2.23560 30.65220 38.38540 2942.23764
 10841.50000 1300980.00000 0.03240 86.31210 151.52360 47.41620 0.18370 3.32150 51.61380 2.22990 31.15570 40.10650 2942.26785
 10842.00000 1301040.00000 0.02170 86.53140 151.34390 46.84640 0.19570 3.02000 53.04610 2.21880 31.62050 39.01600 2942.29805
