~Version ---------------------------------------------------
VERS     .                             2.0 : CWLS log ASCII Standard -VERSION 2.0
WRAP     .                              NO : One Line per depth step
PROD     .                    Schlumberger : LAS Producer
PROG     .               DLIS to ASCII 2.3 : LAS Program name and version
CREA     .                   2019/04/03 19 : 50                          :LAS Creation date {YYYY/MM/DD hh:mm}
DLIS_CREA.                  2009-Feb-18 14 : 26                          :DLIS Creation date and time {YYYY-MMM-DD hh:mm}
SOURCE   . WLC_PETRO_COMPUTED_INPUT_1.DLIS : DLIS File Name
FILE-ID  .                   INPUT.logdata : File Identification Number
~Well ------------------------------------------------------
STRT.F                  657.0 : START DEPTH
STOP.F                11567.5 : STOP DEPTH
STEP.F                    0.5 : STEP
NULL.                 -999.25 : NULL VALUE
COMP.            STATOILHYDRO : COMPANY
WELL.                15/9-F-4 : WELL
FLD .                   VOLVE : FIELD
LOC .                         : LOCATION
CNTY.         MAERSK INSPIRER : COUNTY
STAT.                         : STATE
CTRY.                         : COUNTRY
API .                         : API NUMBER
UWI .                         : UNIQUE WELL ID
DATE.                         : LOG DATE
SRVC. CROCKER DATA PROCESSING : SERVICE COMPANY
LATI.DEG                      : LATITUDE
LONG.DEG                      : LONGITUDE
GDAT.                         : GeoDetic Datum
~Curve Information -----------------------------------------
DEPTH.F            : DEPTH (BOREHOLE) {F10.1}
DEPTH..1IN         : {I11}
DT   .US/F         : {F13.4}
DTS  .US/F         : {F13.4}
GR   .API          : {F13.4}
NPHI .V/V_DECIMAL  : {F13.4}
RD   .UNKNOWN      : {F13.4}
RHOB .G/C3         : {F13.4}
RS   .UNKNOWN      : {F13.4}
RT   .OHMM         : {F13.4}
TVD  .M            : True Vertical Depth from PyLasMech
~Params ----------------------------------------------------
CN  .    STATOILHYDRO : Company
WN  .        15/9-F-4 : Well Name
FN  .           VOLVE : Field
CTRY.          NORWAY : Country
COUN. MAERSK INSPIRER : County or Rig name
PDAT.             MSL : Perm. Datum
ELZ .M            0.0 : Elev. Log Zero (wrt EPD)
RUN .                 : RUN NUMBER
EPD .                 : Elevation of Permanent Datum above Mean Sea Level
LMF .                 : Logging Measured From (Name of Logging Elevation Reference)
APD .                 : Elevation of Depth Reference (LMF) above Permanent Datum
~Other -----------------------------------------------------
~ASCII -----------------------------------------------------
# ...
 10478.50000 1257420.00000 88.91260 168.17310 93.89570 0.24390 1.62850 2.50050 1.46670 1.59620 3026.45682
 10479.00000 1257480.00000 88.95280 171.74060 91.49780 0.25990 1.70180 2.51190 1.41580 1.46300 3026.47219
 10479.50000 1257540.00000 88.18990 172.39720 91.24990 0.25400 1.80550 2.51130 1.41200 1.33290 3026.48756
 10480.00000 1257600.00000 87.58270 170.27870 91.49060 0.24950 1.71560 2.52540 1.45160 1.41050 3026.50292
 10480.50000 1257660.00000 87.31270 169.15530 92.96970 0.24480 1.55260 2.51000 1.51530 1.60850 3026.51829
 10481.00000 1257720.00000 87.41840 170.48420 96.00100 0.23770 1.57260 2.51640 1.51710 1.58300 3026.53366
 10481.50000 1257780.00000 86.90230 172.57470 97.55980 0.26700 1.64920 2.49500 1.49010 1.45770 3026.54903
 10482.00000 1257840.00000 87.44450 173.29700 99.79760 0.28020 1.69520 2.48930 1.45550 1.40130 3026.56440
 10482.50000 1257900.00000 88.75750 175.42450 103.25420 0.25640 1.60930 2.48540 1.45240 1.50320 3026.57976
 10483.00000 1257960.00000 90.10290 176.70580 105.27070 0.26560 1.63090 2.49270 1.43510 1.49970 3026.59513
 10483.50000 1258020.00000 90.74180 176.59820 104.89280 0.26480 1.67760 2.50160 1.43670 1.51610 3026.61050
 10484.00000 1258080.00000 90.57040 179.62030 102.53660 0.25450 1.66820 2.50510 1.48060 1.58450 3026.62587
 10484.50000 1258140.00000 90.54360 183.95200 100.50790 0.23880 1.68270 2.51390 1.49750 1.61440 3026.64124
 10485.00000 1258200.00000 88.87950 185.04700 102.37040 0.25060 1.78100 2.51590 1.51230 1.58020 3026.65661
 10485.50000 1258260.00000 88.51780 183.55710 103.19100 0.25610 1.75160 2.51720 1.56700 1.73540 3026.67197
 10486.00000 1258320.00000 87.45940 178.65470 103.74810 0.24450 1.57400 2.50980 1.65990 1.95860 3026.68734
 10486.50000 1258380.00000 87.35500 171.48950 105.84600 0.25100 1.61850 2.49910 1.64400 1.89340 3026.70271
 10487.00000 1258440.00000 88.87100 170.97870 108.13750 0.26500 1.61600 2.48290 1.58150 1.91700 3026.71808
 10487.50000 1258500.00000 88.39510 170.53450 113.25340 0.26110 1.66400 2.47260 1.50300 1.74960 3026.73345
 10488.00000 1258560.00000 88.37180 169.71660 113.33470 0.25700 1.85520 2.47510 1.40240 1.40210 3026.74881
 10488.50000 1258620.00000 89.94780 169.97500 114.58240 0.27370 1.78420 2.48750 1.43490 1.46480 3026.76418
 10489.00000 1258680.00000 91.34890 173.95800 109.68670 0.27950 1.69430 2.49500 1.44830 1.55380 3026.77955
 10489.50000 1258740.00000 90.79110 177.76280 105.75500 0.27720 1.60850 2.50530 1.46210 1.58900 3026.79492
 10490.00000 1258800.00000 90.15860 178.30450 100.79910 0.24980 1.58060 2.49210 1.47580 1.55150 3026.81029
 10490.50000 1258860.00000 89.15030 176.01150 102.69370 0.25860 1.67170 2.48880 1.37870 1.38950 3026.82565
 10491.00000 1258920.00000 89.38090 175.65190 102.11740 0.25300 1.63810 2.47820 1.37980 1.44010 3026.84102
 10491.50000 1258980.00000 90.38990 176.39980 101.29120 0.25220 1.64540 2.49070 1.37610 1.39370 3026.85639
 10492.00000 1259040.00000 91.07880 176.88530 98.11310 0.25980 1.60070 2.49310 1.38090 1.40850 3026.87176
 10492.50000 1259100.00000 91.11900 175.98420 98.89020 0.27200 1.53340 2.48530 1.44480 1.49840 3026.88713
 10493.00000 1259160.00000 90.23270 177.96390 100.54640 0.26840 1.53360 2.47190 1.46930 1.51030 3026.90249
 10493.50000 1259220.00000 89.49510 178.71420 101.10920 0.27420 1.55420 2.46230 1.46500 1.48500 3026.91786
 10494.00000 1259280.00000 89.82370 178.60640 101.18630 0.26240 1.53390 2.47340 1.45540 1.47320 3026.93323
 10494.50000 1259340.00000 90.54580 180.05690 100.44150 0.26620 1.58860 2.47420 1.43080 1.43010 3026.94860
 10495.00000 1259400.00000 91.04570 180.74190 97.85560 0.26020 1.57170 2.47080 1.43760 1.44590 3026.96397
 10495.50000 1259460.00000 91.07880 180.75020 97.46800 0.26950 1.59460 2.46920 1.43370 1.44220 3026.97933
 10496.00000 1259520.00000 91.43990 181.12940 96.27480 0.25380 1.57320 2.47600 1.43460 1.45790 3026.99470
 10496.50000 1259580.00000 91.55410 181.17540 96.60630 0.25580 1.53000 2.49410 1.41500 1.51540 3027.01007
 10497.00000 1259640.00000 91.11130 179.64080 97.86300 0.25630 1.54040 2.48810 1.37310 1.46000 3027.02544
 10497.50000 1259700.00000 90.68400 177.48420 98.37010 0.28710 1.75260 2.49510 1.29670 1.28630 3027.04081
 10498.00000 1259760.00000 89.97110 176.61120 100.58160 0.26040 1.63920 2.49320 1.32760 1.39320 3027.05617
 10498.50000 1259820.00000 89.89630 175.84930 98.85080 0.25340 1.62610 2.50610 1.36570 1.50840 3027.07154
 10499.00000 1259880.00000 88.95280 173.18790 98.14280 0.25680 1.64670 2.51640 1.43930 1.54210 3027.08691
 10499.50000 1259940.00000 87.86900 172.27220 98.71140 0.23190 1.68800 2.52390 1.49580 1.61870 3027.10228
 10500.00000 1260000.00000 85.27410 171.63330 96.10450 0.23850 1.70980 2.54850 1.59940 1.68900 3027.11765
 10500.50000 1260060.00000 80.97560 167.03260 91.78780 0.20770 1.83830 2.55930 1.69990 1.70160 3027.13302
 10501.00000 1260120.00000 78.34330 161.98450 88.71980 0.20860 1.73260 2.56690 1.91230 2.04800 3027.14838
 10501.50000 1260180.00000 78.04150 158.80340 89.21160 0.23720 1.67190 2.53540 2.03300 2.26410 3027.16375
 10502.00000 1260240.00000 79.99540 159.98980 91.63600 0.23220 1.77210 2.49740 1.99840 2.19790 3027.17912
 10502.50000 1260300.00000 82.59530 161.95050 93.74880 0.21990 1.89030 2.47620 1.90800 2.10090 3027.19449
 10503.00000 1260360.00000 83.80110 161.84200 94.08940 0.24660 1.96090 2.47540 1.85160 1.96400 3027.20986
 10503.50000 1260420.00000 84.39130 163.89840 93.59760 0.21850 1.94440 2.48910 1.76340 1.88300 3027.22522
 10504.00000 1260480.00000 84.02110 164.51190 91.47550 0.22250 1.87920 2.49650 1.73840 1.85190 3027.24059
 10504.50000 1260540.00000 83.35820 163.23740 94.45300 0.23040 1.88070 2.50330 1.69840 1.77010 3027.25596
 10505.00000 1260600.00000 84.70440 162.67600 95.67000 0.24350 1.91310 2.48920 1.68430 1.69610 3027.27133
 10505.50000 1260660.00000 86.36150 162.76220 97.28950 0.23440 1.84710 2.47830 1.68430 1.73410 3027.28670
 10506.00000 1260720.00000 87.20550 162.39650 97.43230 0.24650 1.82170 2.47180 1.66170 1.73740 3027.30206
 10506.50000 1260780.00000 86.88540 165.47310 98.83250 0.26070 1.83290 2.48770 1.62110 1.76300 3027.31743
 10507.00000 1260840.00000 86.55750 166.53300 98.48350 0.23400 1.87240 2.49960 1.61780 1.65310 3027.33280
 10507.50000 1260900.00000 85.81710 163.33180 95.65060 0.22460 1.81170 2.51280 1.64480 1.74600 3027.34817
 10508.00000 1260960.00000 83.72630 160.05520 92.57450 0.21170 1.77380 2.50850 1.69860 1.82030 3027.36354
 10508.50000 1261020.00000 83.17630 158.63780 90.38250 0.21810 1.75440 2.50960 1.70700 1.85930 3027.37890
 10509.00000 1261080.00000 82.53680 155.64980 87.04930 0.23660 1.75500 2.49410 1.73380 1.86010 3027.39427
 10509.50000 1261140.00000 82.57840 154.42970 86.58990 0.22390 1.77770 2.49030 1.75350 1.83660 3027.40964
 10510.00000 1261200.00000 83.11150 155.21240 86.92220 0.21220 1.76840 2.48440 1.74820 1.84060 3027.42501
 10510.50000 1261260.00000 83.60430 155.80020 88.81230 0.23950 1.78700 2.48940 1.73710 1.82410 3027.44038
 10511.00000 1261320.00000 84.39130 155.44050 90.63700 0.24440 1.80980 2.49560 1.71110 1.81630 3027.45574
 10511.50000 1261380.00000 84.26790 157.11400 90.63830 0.22280 1.88650 2.50090 1.69840 1.75480 3027.47111
 10512.00000 1261440.00000 84.28550 161.15600 92.02550 0.21960 1.87240 2.50630 1.70520 1.76040 3027.48648
 10512.50000 1261500.00000 85.47510 161.84720 94.12680 0.22000 1.83310 2.49800 1.70010 1.79150 3027.50185
 10513.00000 1261560.00000 86.14710 159.39490 97.15340 0.23600 1.83050 2.48910 1.68370 1.76690 3027.51722
 10513.50000 1261620.00000 86.16400 158.42180 97.13120 0.24100 1.93170 2.48910 1.66360 1.68690 3027.53258
 10514.00000 1261680.00000 86.01450 160.20630 94.10420 0.23760 1.90390 2.49610 1.72060 1.71870 3027.54795
 10514.50000 1261740.00000 84.30030 160.31660 90.20000 0.22300 1.89150 2.51030 1.74410 1.75750 3027.56332
 10515.00000 1261800.00000 83.38150 157.96470 89.00670 0.21330 1.77950 2.51890 1.82960 1.95990 3027.57869
 10515.50000 1261860.00000 82.61010 158.94690 89.14070 0.22390 1.78100 2.53970 1.82910 1.93720 3027.59406
 10516.00000 1261920.00000 81.53480 156.36830 89.89910 0.21510 1.76720 2.54500 1.83520 1.92010 3027.60943
