~Version ---------------------------------------------------
VERS     .                             2.0 : CWLS log ASCII Standard -VERSION 2.0
WRAP     .                              NO : One Line per depth step
PROD     .         CROCKER DATA PROCESSING : LAS Producer
PROG     .                   LAS Viewer v0 : LAS Program name and version
CREA     .                2019/04/03 21-01 : LAS Creation date {YYYY/MM/DD hh-mm}
DLIS_CREA.               2009-Aug-25 10-08 : DLIS Creation date and time {YYYY-MMM-DD hh-mm}
SOURCE   . WLC_PETRO_COMPUTED_INPUT_1.DLIS : DLIS File Name
FILE-ID  .               CPI_INPUT.logdata : File Identification Number
~Well ------------------------------------------------------
STRT .m               2560.0152 : START DEPTH
STOP .m               3222.1932 : STOP DEPTH
STEP .m       0.152400000000398 : STEP
NULL .                  -999.25 : NULL VALUE
COMP .             STATOILHYDRO : COMPANY
WELL .              15/9-F-15 C : WELL
FIELD.                    VOLVE : FIELD
LOC  .                          : LOCATION
CNTY .                          : COUNTY
STAT .                          : STATE
NATI .                          : COUNTRY
API  .                          : API NUMBER
UWI  .                          : UNIQUE WELL ID
SRVC .                          : SERVICE COMPANY
LATI . 058 26' 29.706" N    DMS : LATITUDE
LONG . 001 53' 15.149" E    DMS : LONGITUDE
GDAT .                      MSL : GeoDetic Datum
~Curve Information -----------------------------------------
DEPTH.m      : Measured Depth
CALI .IN     : 
DRHO .G/CC   : 
DRHU .G/CC   : 
DT   .US/FT  : 
GR   .GAPI   : 
NPHI .V/V    : 
RD   .OHMM   : 
RHOB .G/CC   : 
ROBU .G/CC   : 
RS   .OHMM   : 
RT   .OHMM   : 
TVD  .M      : True Vertical Depth from PyLasMech
~Params ----------------------------------------------------
RUN . MWD RUN 12-13 : Run number
PDAT.           MSL : Perm. Datum
~Other -----------------------------------------------------
~ASCII -----------------------------------------------------
# ...
 3029.10240 8.73420 0.01480 0.08110 78.74700 34.10290 0.11870 2.42030 2.58060 2.59920 2.26130 2.35870 2852.86895
 3029.25480 8.75320 0.02110 0.07980 77.85230 36.83960 0.12210 2.37370 2.57420 2.59330 2.19350 2.30430 2853.01410
 3029.40720 8.75360 0.02730 0.08890 75.69560 39.02160 0.13330 2.37160 2.57910 2.58520 1.99820 2.07160 2853.15924
 3029.55960 8.75150 0.02940 0.09550 73.28730 39.26460 0.12160 2.44230 2.58270 2.58410 2.12380 2.08390 2853.30438
 3029.71200 8.76490 0.02810 0.09680 72.84210 34.89480 0.12020 2.47950 2.59160 2.59110 2.49100 2.42870 2853.44952
 3029.86440 8.73710 0.02310 0.09300 73.63160 29.48560 0.11150 2.54860 2.58840 2.59840 2.60500 2.55510 2853.59467
 3030.01680 8.72420 0.02210 0.09140 75.52300 26.42450 0.10000 2.59840 2.58680 2.60710 2.71860 2.77000 2853.73981
 3030.16920 8.71860 0.02140 0.09350 76.66350 27.38760 0.10350 2.63080 2.58880 2.61200 2.79900 2.91190 2853.88495
 3030.32160 8.76630 0.03470 0.09650 76.91930 29.36360 0.10710 2.64790 2.59940 2.60970 2.68050 2.74250 2854.03010
 3030.47400 8.73630 0.04310 0.09130 76.32810 32.81470 0.09960 2.68060 2.60070 2.59170 2.47320 2.51420 2854.17524
 3030.62640 8.76900 0.04330 0.09520 75.62460 33.54920 0.11160 2.69160 2.59430 2.59480 2.39220 2.37590 2854.32038
 3030.77880 8.75530 0.02810 0.09430 75.78350 32.75360 0.10940 2.68410 2.58630 2.59780 2.41150 2.32050 2854.46552
 3030.93120 8.75640 0.01580 0.09830 75.99120 30.91440 0.10250 2.62720 2.58790 2.61140 2.49020 2.41030 2854.61067
 3031.08360 8.76170 0.03200 0.09090 76.12310 30.35970 0.12070 2.62260 2.60370 2.60750 2.55700 2.65050 2854.75581
 3031.23600 8.74710 0.04390 0.08680 76.10210 30.43110 0.11420 2.59780 2.60160 2.60490 2.29700 2.32480 2854.90095
 3031.38840 8.79260 0.04570 0.09600 75.57060 30.21700 0.11290 2.60860 2.59310 2.60330 2.30860 2.32700 2855.04610
 3031.54080 8.78290 0.03820 0.10110 75.15510 30.44350 0.12040 2.58560 2.59170 2.59600 2.31130 2.31540 2855.19124
 3031.69320 8.78090 0.02800 0.09750 74.70250 30.15770 0.10760 2.59330 2.58770 2.59110 2.39390 2.39360 2855.33638
 3031.84560 8.76390 0.03520 0.07830 73.83150 30.32940 0.11270 2.60430 2.59980 2.57020 2.40900 2.42990 2855.48152
 3031.99800 8.69210 0.03200 0.07310 73.82990 30.77160 0.11930 2.62670 2.58780 2.57270 2.45000 2.44150 2855.62667
 3032.15040 8.68230 0.03920 0.08660 73.65280 30.78590 0.10940 2.65250 2.59840 2.58530 2.61090 2.67840 2855.77181
 3032.30280 8.78900 0.03360 0.10470 73.93830 30.08870 0.11350 2.64560 2.59200 2.59730 2.58360 2.58920 2855.91695
 3032.45520 8.77020 0.02610 0.11040 73.97410 30.20380 0.10860 2.71790 2.59050 2.59600 2.55560 2.57000 2856.06210
 3032.60760 8.76240 0.01680 0.09580 73.74820 30.40300 0.10610 2.67600 2.58000 2.58720 2.59690 2.59000 2856.20724
 3032.76000 8.73340 0.01650 0.08520 74.09480 31.79860 0.11360 2.66870 2.58530 2.59890 2.59510 2.57890 2856.35238
 3032.91240 8.71510 0.01750 0.08330 74.36980 30.01260 0.11360 2.75210 2.58930 2.60490 2.59250 2.60290 2856.49752
 3033.06480 8.74440 0.02570 0.09740 74.38660 31.39420 0.10940 2.75120 2.59350 2.61150 2.56330 2.60930 2856.64267
 3033.21720 8.71470 0.02820 0.10070 74.54910 31.92070 0.11260 2.71560 2.59120 2.60600 2.53030 2.57230 2856.78781
 3033.36960 8.69000 0.03130 0.10480 74.32710 34.34590 0.11340 2.75250 2.58470 2.60100 2.53660 2.60370 2856.93295
 3033.52200 8.69180 0.03370 0.10010 72.43030 33.48950 0.11440 2.84300 2.58410 2.59610 2.45590 2.55840 2857.07810
 3033.67440 8.66870 0.03220 0.10630 69.00630 32.37860 0.11680 2.88190 2.57790 2.60280 2.55130 2.70420 2857.22324
 3033.82680 8.66350 0.03910 0.11940 66.08170 30.67080 0.11090 2.89500 2.58690 2.62330 2.66190 2.76660 2857.36838
 3033.97920 8.66620 0.04150 0.12620 65.68950 29.73310 0.10710 2.94200 2.59870 2.62010 2.83410 2.79460 2857.51352
 3034.13160 8.67850 0.04870 0.12460 67.16240 26.60010 0.09370 3.01070 2.61500 2.60700 3.17450 3.06570 2857.65867
 3034.28400 8.65550 0.04840 0.11040 69.66110 23.43850 0.08050 3.05070 2.63350 2.59890 3.81460 3.54880 2857.80381
 3034.43640 8.64810 0.04590 0.11210 72.71550 22.12880 0.07260 3.06680 2.64240 2.62190 4.25430 4.01520 2857.94895
 3034.58880 8.65790 0.04280 0.11300 75.88230 24.43690 0.07530 3.02810 2.64090 2.63520 4.22390 4.18370 2858.09410
 3034.74120 8.62040 0.03720 0.12360 79.26750 29.70670 0.09300 2.92150 2.62340 2.64020 3.69370 3.79760 2858.23924
 3034.89360 8.64720 0.02810 0.12300 82.19800 35.30140 0.10060 2.72790 2.59690 2.62170 3.02910 3.29550 2858.38438
 3035.04600 8.70120 0.01940 0.12700 83.74910 41.26690 0.12540 2.56090 2.57190 2.60470 2.25270 2.26600 2858.52952
 3035.19840 8.72470 0.01610 0.12220 83.36410 46.62150 0.13780 2.35240 2.55750 2.58390 1.91120 1.90660 2858.67467
 3035.35080 8.70640 0.01630 0.11550 83.44230 48.51620 0.14800 2.16960 2.54840 2.57120 1.81460 1.82530 2858.81981
 3035.50320 8.73760 0.01960 0.11590 84.26560 50.29500 0.15210 2.02330 2.54760 2.57300 1.71770 1.72860 2858.96495
 3035.65560 8.76310 0.02530 0.11110 85.18710 48.95550 0.15450 1.92880 2.54670 2.56780 1.64740 1.67690 2859.11010
 3035.80800 8.77650 0.03130 0.11210 85.27520 49.79680 0.15100 1.93940 2.55330 2.56840 1.61520 1.66620 2859.25524
 3035.96040 8.77330 0.03400 0.10390 84.93550 47.67650 0.16290 1.82710 2.56190 2.56340 1.57510 1.63230 2859.40038
 3036.11280 8.74360 0.03350 0.09440 82.27420 47.20500 0.15420 1.81800 2.56730 2.54910 1.57490 1.60560 2859.54552
 3036.26520 8.72370 0.03830 0.08950 79.50250 47.48780 0.15640 1.86280 2.57460 2.55280 1.58360 1.59620 2859.69067
 3036.41760 8.73540 0.03840 0.09080 78.41280 48.55700 0.14810 1.86610 2.57710 2.55500 1.64470 1.63230 2859.83581
 3036.57000 8.76160 0.03590 0.10460 77.97900 45.52550 0.13750 1.96880 2.58240 2.58200 1.80900 1.79190 2859.98095
 3036.72240 8.72710 0.02810 0.10250 77.21380 41.63950 0.14310 1.99000 2.58000 2.57700 2.05230 2.10380 2860.12610
 3036.87480 8.72580 0.02680 0.10100 76.87300 36.76850 0.13580 2.08770 2.58410 2.58290 2.13400 2.18400 2860.27124
 3037.02720 8.72340 0.02320 0.10000 78.06620 35.81380 0.13220 2.16800 2.57790 2.58690 2.17570 2.21890 2860.41638
 3037.17960 8.72880 0.02470 0.10010 78.49740 36.11240 0.12940 2.18930 2.58390 2.59520 2.17080 2.21540 2860.56152
 3037.33200 8.77970 0.02230 0.09810 78.98040 36.85110 0.13400 2.20500 2.57910 2.59660 2.11770 2.11940 2860.70667
 3037.48440 8.76680 0.02470 0.08660 78.93160 37.46370 0.12590 2.25390 2.58790 2.58520 2.13240 2.17790 2860.85181
 3037.63680 8.76970 0.02140 0.08570 79.05900 38.50160 0.12590 2.23070 2.58890 2.59130 2.09900 2.12490 2860.99695
 3037.78920 8.80970 0.01970 0.08370 79.54420 40.23120 0.12430 2.24990 2.58830 2.60550 2.07340 2.07430 2861.14210
 3037.94160 8.78850 0.01690 0.07690 80.59950 41.85490 0.13350 2.21690 2.58060 2.60870 2.08480 2.10910 2861.28724
 3038.09400 8.76990 0.01590 0.07050 80.77320 41.23030 0.13240 2.22890 2.57310 2.60440 2.04130 2.11790 2861.43238
 3038.24640 8.78780 0.01690 0.06420 79.96790 40.61320 0.12880 2.24800 2.56800 2.59170 2.04640 2.12130 2861.57752
 3038.39880 8.74730 0.02390 0.07750 80.05790 41.12650 0.13480 2.29270 2.57830 2.60430 2.01060 2.03180 2861.72267
 3038.55120 8.76290 0.02860 0.09060 80.11070 40.21450 0.12160 2.29890 2.58510 2.60890 2.06450 2.07400 2861.86781
 3038.70360 8.78460 0.03690 0.09600 79.72400 40.54280 0.13150 2.26390 2.59900 2.60410 2.10900 2.16410 2862.01295
 3038.85600 8.76330 0.03970 0.08570 79.71470 40.89660 0.12490 2.26980 2.59060 2.59310 2.10350 2.20910 2862.15810
 3039.00840 8.75210 0.04670 0.08190 79.18510 42.52080 0.13180 2.27470 2.59360 2.59540 2.15930 2.21260 2862.30324
 3039.16080 8.76390 0.04150 0.08680 78.13780 45.29530 0.12260 2.26030 2.58700 2.60270 2.17660 2.25260 2862.44838
 3039.31320 8.75940 0.03490 0.09520 78.41870 44.44160 0.12640 2.28180 2.59580 2.60470 2.12820 2.09130 2862.59352
 3039.46560 8.74830 0.03200 0.09710 79.40750 45.31100 0.12610 2.22140 2.59200 2.60150 2.33230 2.38770 2862.73867
 3039.61800 8.74540 0.03530 0.09380 80.28480 44.89800 0.12800 2.18800 2.59070 2.59490 2.24320 2.29410 2862.88381
 3039.77040 8.75050 0.03390 0.09460 81.35780 45.32480 0.13070 2.20600 2.57920 2.59370 2.02800 1.92970 2863.02895
