~Version ---------------------------------------------------
VERS     .                             2.0 : CWLS log ASCII Standard -VERSION 2.0
WRAP     .                              NO : One Line per depth step
PROD     .                    Schlumberger : LAS Producer
PROG     .               DLIS to ASCII 2.3 : LAS Program name and version
CREA     .                   2019/04/03 19 : 51                          :LAS Creation date {YYYY/MM/DD hh:mm}
DLIS_CREA.                  2009-Feb-18 14 : 44                          :DLIS Creation date and time {YYYY-MMM-DD hh:mm}
SOURCE   . WLC_PETRO_COMPUTED_INPUT_1.DLIS : DLIS File Name
FILE-ID  .                   INPUT.logdata : File Identification Number
~Well ------------------------------------------------------
STRT.F                 1382.0 : START DEPTH
STOP.F                12441.0 : STOP DEPTH
STEP.F                    0.5 : STEP
NULL.                 -999.25 : NULL VALUE
COMP.                         : COMPANY
WELL.                15/9-F-5 : WELL
FLD .                   VOLVE : FIELD
LOC .                         : LOCATION
CNTY.         MAERSK INSPIRER : COUNTY
STAT.                         : STATE
CTRY.                         : COUNTRY
API .                         : API NUMBER
UWI .                         : UNIQUE WELL ID
DATE.                         : LOG DATE
SRVC. CROCKER DATA PROCESSING : SERVICE COMPANY
LATI.DEG                      : LATITUDE
LONG.DEG                      : LONGITUDE
GDAT.                         : GeoDetic Datum
~Curve Information -----------------------------------------
DEPTH.F            : DEPTH (BOREHOLE) {F10.1}
DEPTH..1IN         : Measured Depth {I11}
CALI .INCHES       : CALI:UNKNOWN:rC:NONE:v1 {F13.4}
DRHO .G/C3         : DRHO:UNKNOWN:rC:NONE:v1 {F13.4}
DT   .US/F         : DT:UNKNOWN:rC:NONE:v1 {F13.4}
GR   .API          : GR:UNKNOWN:rC:NONE:v1 {F13.4}
NPHI .V/V_DECIMAL  : NPHI:UNKNOWN:rC:NONE:v1 {F13.4}
RD   .UNKNOWN      : RD:UNKNOWN:rC:NONE:v1 {F13.4}
RHOB .G/C3         : RHOB:UNKNOWN:rC:NONE:v1 {F13.4}
RS   .UNKNOWN      : RS:UNKNOWN:rC:NONE:v1 {F13.4}
RT   .OHMM         : RT:UNKNOWN:rC:NONE:v1 {F13.4}
TVD  .M            : True Vertical Depth from PyLasMech
~Params ----------------------------------------------------
WN  .        15/9-F-5 : Well Name
FN  .           VOLVE : Field
CTRY.          NORWAY : Country
COUN. MAERSK INSPIRER : County or Rig name
PDAT.             MSL : Perm. Datum
ELZ .M            0.0 : Elev. Log Zero (wrt EPD)
RUN .                 : RUN NUMBER
EPD .                 : Elevation of Permanent Datum above Mean Sea Level
LMF .                 : Logging Measured From (Name of Logging Elevation Reference)
APD .                 : Elevation of Depth Reference (LMF) above Permanent Datum
~Other -----------------------------------------------------
~ASCII -----------------------------------------------------
# ...
 11387.50000 1366500.00000 8.51000 0.06000 66.33520 54.26000 0.30020 2.31000 2.74000 1.36000 1.43000 3053.56315
 11388.00000 1366560.00000 8.49940 0.08020 71.81530 55.79420 0.27660 1.80560 2.76130 1.37950 1.94520 3053.66837
 11388.50000 1366620.00000 8.46120 0.08910 73.97380 51.56400 0.26180 1.54270 2.84120 1.34850 2.84430 3053.77360
 11389.00000 1366680.00000 8.49930 0.06050 74.01910 45.65850 0.24350 1.94240 2.87930 1.30090 1.71080 3053.87883
 11389.50000 1366740.00000 8.48000 0.05000 78.57140 41.00000 0.23210 2.45000 2.86000 1.20000 1.56000 3053.98406
 11390.00000 1366800.00000 8.51000 0.03040 76.67780 41.91080 0.22430 4.68320 2.75960 0.94110 0.82090 3054.08928
 11390.50000 1366860.00000 8.51000 0.06000 73.16890 42.60990 0.21270 4.26790 2.72970 1.02960 0.92380 3054.19451
 11391.00000 1366920.00000 8.51000 0.06000 71.64520 39.14280 0.20530 6.65050 2.72020 1.36300 2.09540 3054.29974
 11391.50000 1366980.00000 8.53000 0.07990 66.54820 34.62380 0.18890 7.74000 2.74980 1.74800 4.38780 3054.40497
 11392.00000 1367040.00000 8.53000 0.06000 60.57410 31.23950 0.14500 9.46000 2.77020 2.03680 5.74500 3054.51019
 11392.50000 1367100.00000 8.52970 0.05950 61.10540 30.20570 0.13300 13.94850 2.78950 2.71400 8.95070 3054.61542
 11393.00000 1367160.00000 8.52020 0.04040 71.80660 27.75780 0.12690 10.90340 2.77050 4.39040 7.45530 3054.72065
 11393.50000 1367220.00000 8.50000 0.03010 78.17990 26.57900 0.12250 19.42000 2.71050 5.09460 14.03660 3054.82588
 11394.00000 1367280.00000 8.50000 0.01000 79.51050 27.07900 0.12120 46.37000 2.61910 5.84540 10.88000 3054.93111
 11394.50000 1367340.00000 8.55000 0.01070 79.94320 28.18110 0.12650 29.01320 2.50800 6.58640 17.09440 3055.03633
 11395.00000 1367400.00000 8.55000 0.03930 79.82400 27.38100 0.12830 18.91110 2.42230 9.39630 17.70400 3055.14156
 11395.50000 1367460.00000 8.53000 0.05980 77.56930 27.26110 0.13790 18.19000 2.37050 12.74470 23.10200 3055.24679
 11396.00000 1367520.00000 8.52000 0.06000 75.68250 27.41440 0.14260 19.58000 2.31990 17.09410 26.80950 3055.35202
 11396.50000 1367580.00000 8.45000 0.05960 76.18990 26.33800 0.14030 26.00690 2.29960 23.55860 50.83700 3055.45724
 11397.00000 1367640.00000 8.45000 0.04060 77.24690 24.81400 0.15820 18.95570 2.28060 28.73070 44.50290 3055.56247
 11397.50000 1367700.00000 8.45000 0.04000 77.74460 21.71130 0.15650 16.12000 2.27010 38.47040 51.73970 3055.66770
 11398.00000 1367760.00000 8.47000 0.05000 78.73750 20.77000 0.15240 14.94000 2.28000 18.12000 26.34000 3055.77293
 11398.50000 1367820.00000 8.46020 0.05000 79.88700 20.60450 0.17250 13.69190 2.28000 24.37920 26.79150 3055.87815
 11399.00000 1367880.00000 8.46970 0.05000 80.71120 21.93800 0.17680 13.79680 2.28000 23.24570 27.42020 3055.98338
 11399.50000 1367940.00000 8.49950 0.04020 80.80540 24.05620 0.17660 13.98690 2.28000 21.74380 26.65280 3056.08861
 11400.00000 1368000.00000 8.48000 0.04000 79.41840 26.22000 0.19500 13.30000 2.29000 18.26000 22.42000 3056.19384
 11400.50000 1368060.00000 8.48940 0.03980 81.17900 29.36720 0.19350 13.43260 2.28980 16.00810 19.89380 3056.29906
 11401.00000 1368120.00000 8.44940 0.02970 82.74490 32.31530 0.19210 13.59520 2.27940 13.41830 16.39230 3056.40429
 11401.50000 1368180.00000 8.43030 0.02020 82.50680 33.75360 0.18670 13.44270 2.26030 13.04680 14.87780 3056.50952
 11402.00000 1368240.00000 8.48000 0.02000 83.71220 35.85000 0.19540 13.95000 2.26000 11.38000 12.95000 3056.61475
 11402.50000 1368300.00000 8.50000 0.03010 87.13430 37.60530 0.19930 13.68000 2.27010 12.22350 14.86770 3056.71998
 11403.00000 1368360.00000 8.46030 0.04000 88.70630 39.47390 0.19370 13.89570 2.28000 12.48080 13.98640 3056.82520
 11403.50000 1368420.00000 8.46980 0.04000 89.92090 39.26440 0.19570 14.08600 2.28000 12.50940 14.90080 3056.93043
 11404.00000 1368480.00000 8.50000 0.04000 88.17740 38.10620 0.20280 13.73000 2.28000 12.30110 13.27880 3057.03566
 11404.50000 1368540.00000 8.47000 0.04000 85.90070 34.50260 0.19180 13.69000 2.27000 13.09660 12.89600 3057.14089
 11405.00000 1368600.00000 8.47050 0.04020 85.98820 31.88400 0.19560 13.71830 2.27000 13.71420 13.48170 3057.24611
 11405.50000 1368660.00000 8.48960 0.04980 87.21300 28.98840 0.18710 14.03280 2.27000 13.87620 14.69140 3057.35134
 11406.00000 1368720.00000 8.47000 0.05000 88.06910 29.94180 0.19290 14.58000 2.27990 13.85020 15.86080 3057.45657
 11406.50000 1368780.00000 8.47000 0.04990 87.59610 31.25140 0.19350 14.32000 2.31000 13.54400 13.56400 3057.56180
 11407.00000 1368840.00000 8.48040 0.04020 86.28780 33.91550 0.18140 14.54960 2.31000 12.78810 12.80340 3057.66702
 11407.50000 1368900.00000 8.49950 0.04980 84.57980 34.57280 0.19610 14.53050 2.31000 12.28320 12.09850 3057.77225
 11408.00000 1368960.00000 8.53000 0.05000 82.80770 33.21480 0.18510 14.54000 2.30010 11.65660 12.54500 3057.87748
 11408.50000 1369020.00000 8.47000 0.04990 80.87120 31.02690 0.19080 14.81000 2.29990 11.73310 13.31440 3057.98271
 11409.00000 1369080.00000 8.49920 0.04000 81.57300 30.45920 0.17410 14.81430 2.27980 12.31780 14.11620 3058.08793
 11409.50000 1369140.00000 8.46110 0.04000 83.66160 30.89740 0.19560 15.01410 2.27030 12.68930 13.45900 3058.19316
 11410.00000 1369200.00000 8.47000 0.04990 85.56610 33.25830 0.19250 15.20000 2.27000 13.02560 13.49920 3058.29839
 11410.50000 1369260.00000 8.49000 0.06000 85.50300 33.69000 0.19430 15.22000 2.29000 13.32000 14.05000 3058.40362
 11411.00000 1369320.00000 8.51000 0.06000 84.95940 34.47620 0.17830 15.29900 2.27980 13.53490 14.07350 3058.50885
 11411.50000 1369380.00000 8.51000 0.06000 86.69780 34.26660 0.20520 15.24180 2.27030 13.25870 13.72110 3058.61407
 11412.00000 1369440.00000 8.50020 0.06000 89.33400 33.40390 0.18880 15.46650 2.25030 14.29300 14.61530 3058.71930
 11412.50000 1369500.00000 8.48000 0.06000 89.98510 32.40000 0.21970 15.88000 2.24000 15.04000 15.59000 3058.82453
 11413.00000 1369560.00000 8.47020 0.06020 89.00410 31.86740 0.18430 15.75610 2.25020 15.22820 15.43530 3058.92976
 11413.50000 1369620.00000 8.48000 0.07030 87.64620 31.72440 0.18920 16.12650 2.26000 15.73900 15.75430 3059.03498
 11414.00000 1369680.00000 8.48000 0.07980 85.86450 32.18160 0.20290 16.33620 2.26000 16.02470 15.57330 3059.14021
 11414.50000 1369740.00000 8.50000 0.08000 86.08660 31.78000 0.20140 16.46000 2.25000 16.42000 15.74000 3059.24544
 11415.00000 1369800.00000 8.47000 0.08000 87.27410 32.71480 0.20460 16.44000 2.24000 15.95990 15.76160 3059.35067
 11415.50000 1369860.00000 8.46000 0.08000 87.59590 33.06860 0.20740 16.73230 2.24000 15.94230 15.88160 3059.45113
 11416.00000 1369920.00000 8.46000 0.08000 86.54850 33.02100 0.18530 17.15100 2.24000 15.67560 15.93880 3059.55053
 11416.50000 1369980.00000 8.49000 0.08990 85.32900 32.06510 0.18250 17.66000 2.24990 16.02810 16.80540 3059.64993
 11417.00000 1370040.00000 8.49000 0.09000 86.45040 31.21760 0.19570 17.91000 2.26000 16.67770 17.36120 3059.74932
 11417.50000 1370100.00000 8.49950 0.08980 88.49330 30.95250 0.20870 18.18560 2.25950 17.40020 17.48020 3059.84872
 11418.00000 1370160.00000 8.48040 0.08020 89.95240 29.52380 0.21910 18.78600 2.24040 17.79080 17.87080 3059.94812
 11418.50000 1370220.00000 8.50000 0.08000 89.25150 29.47020 0.20640 18.92000 2.24000 18.74240 18.46530 3060.04751
 11419.00000 1370280.00000 8.52000 0.08000 86.52110 31.07730 0.19290 19.11000 2.23010 19.11240 19.10660 3060.14691
 11419.50000 1370340.00000 8.54000 0.07980 84.67500 33.19750 0.21430 19.53620 2.24020 19.41180 19.92540 3060.24630
 11420.00000 1370400.00000 8.54000 0.07020 85.32850 32.24500 0.20420 19.79320 2.24970 19.48800 20.15400 3060.34570
 11420.50000 1370460.00000 8.52000 0.07000 86.81430 30.11270 0.18040 20.22000 2.26980 20.10340 20.33810 3060.44510
 11421.00000 1370520.00000 8.50000 0.05990 87.36160 29.95680 0.18730 19.98000 2.26990 20.44190 19.55280 3060.54449
 11421.50000 1370580.00000 8.48000 0.04000 86.73520 29.34740 0.19390 20.67980 2.25980 20.78940 20.08560 3060.64389
 11422.00000 1370640.00000 8.48000 0.04000 86.10250 28.74730 0.19850 21.14680 2.25030 20.76080 20.35230 3060.74328
