~Version ---------------------------------------------------
VERS     .                             2.0 : CWLS log ASCII Standard -VERSION 2.0
WRAP     .                              NO : One Line per depth step
PROD     .         CROCKER DATA PROCESSING : LAS Producer
PROG     .                   LAS Viewer v0 : LAS Program name and version
CREA     .                2019/04/03 21-01 : LAS Creation date {YYYY/MM/DD hh-mm}
DLIS_CREA.               2009-Aug-25 10-08 : DLIS Creation date and time {YYYY-MMM-DD hh-mm}
SOURCE   . WLC_PETRO_COMPUTED_INPUT_1.DLIS : DLIS File Name
FILE-ID  .               CPI_INPUT.logdata : File Identification Number
~Well ------------------------------------------------------
STRT .m               2560.0152 : START DEPTH
STOP .m               3222.1932 : STOP DEPTH
STEP .m       0.152400000000398 : STEP
NULL .                  -999.25 : NULL VALUE
COMP .             STATOILHYDRO : COMPANY
WELL .              15/9-F-15 C : WELL
FIELD.                    VOLVE : FIELD
LOC  .                          : LOCATION
CNTY .                          : COUNTY
STAT .                          : STATE
NATI .                          : COUNTRY
API  .                          : API NUMBER
UWI  .                          : UNIQUE WELL ID
SRVC .                          : SERVICE COMPANY
LATI . 058 26' 29.706" N    DMS : LATITUDE
LONG . 001 53' 15.149" E    DMS : LONGITUDE
GDAT .                      MSL : GeoDetic Datum
~Curve Information -----------------------------------------
DEPTH.m      : Measured Depth
CALI .IN     : 
DRHO .G/CC   : 
DRHU .G/CC   : 
DT   .US/FT  : 
GR   .GAPI   : 
NPHI .V/V    : 
RD   .OHMM   : 
RHOB .G/CC   : 
ROBU .G/CC   : 
RS   .OHMM   : 
RT   .OHMM   : 
TVD  .M      : True Vertical Depth from PyLasMech
~Params ----------------------------------------------------
RUN . MWD RUN 12-13 : Run number
PDAT.           MSL : Perm. Datum
~Other -----------------------------------------------------
~ASCII -----------------------------------------------------
# ...
 2910.07800 8.72840 -1.28210 -0.76300 73.92030 8.45920 0.40980 0.23630 1.74720 2.20760 1000.00000 5.70710 2738.78208
 2910.23040 8.58630 -1.16220 -0.85840 73.43630 8.45920 0.41130 0.20610 1.93230 2.09580 1000.00000 1000.00000 2738.93052
 2910.38280 8.77360 -1.08200 -1.02450 73.11680 7.98890 0.36490 0.23160 1.89660 1.94620 1000.00000 4.44880 2739.07897
 2910.53520 8.75010 -1.04400 -1.09550 72.46150 9.44440 0.35770 0.17490 1.95850 1.89350 1000.00000 25.61570 2739.22741
 2910.68760 8.74520 -1.14160 -0.97260 73.03060 9.51290 0.36080 5.72010 1.86600 2.02160 1000.00000 0.13210 2739.37586
 2910.84000 8.75120 -1.29710 -0.79760 74.30570 10.36740 0.40320 0.12490 1.72470 2.18010 1000.00000 1000.00000 2739.52431
 2910.99240 8.73600 -1.41230 -0.68300 74.65720 8.95850 0.41300 0.11630 1.66210 2.29470 1000.00000 1000.00000 2739.67275
 2911.14480 8.73560 -1.42270 -0.66950 73.88050 9.07230 0.37550 0.12560 1.79440 2.40920 1000.00000 911.06812 2739.82120
 2911.29720 8.68700 -1.84970 -0.75000 72.81300 8.56720 0.36400 0.13300 1.54500 2.48970 1000.00000 9.42180 2739.96965
 2911.44960 8.56190 -1.44550 -0.72640 72.85890 8.40200 0.32270 700.00000 2.20330 2.70090 1000.00000 1000.00000 2740.11809
 2911.60200 8.75990 -2.09720 -0.94070 73.72320 7.76780 0.48220 0.18590 1.42950 2.43010 1000.00000 0.21320 2740.26654
 2911.75440 9.01980 -1.32410 -0.73590 72.90680 7.09780 0.30980 0.45030 2.30240 2.72200 1000.00000 1000.00000 2740.41498
 2911.90680 8.87880 -0.72860 -0.33490 73.08350 7.10820 0.28130 0.10000 2.77440 3.03180 3.48770 0.11360 2740.56343
 2912.05920 8.70020 -0.20460 -0.18110 72.70790 9.02180 0.29180 0.10000 2.47990 2.33040 0.55170 0.23740 2740.71188
 2912.21160 8.98010 0.00840 -0.04400 71.38560 12.31870 0.43750 0.19180 2.17820 1.99870 40.49030 6.53100 2740.86032
 2912.36400 9.10660 0.20690 0.01160 71.14640 14.66150 0.47390 0.10000 2.13870 1.82580 1000.00000 1000.00000 2741.00877
 2912.51640 9.10660 0.22660 0.00060 71.61060 15.18700 0.37770 0.10000 2.07770 1.74330 9.40070 1000.00000 2741.15722
 2912.66880 9.10660 0.24370 -0.00130 72.02660 14.06620 0.30370 700.00000 2.10000 1.73270 1000.00000 1000.00000 2741.30566
 2912.82120 9.10660 0.24480 0.00050 72.33250 13.47610 0.28960 700.00000 2.10460 1.73570 1.76320 6.83250 2741.45411
 2912.97360 9.10660 0.24660 0.00030 72.74250 12.62510 0.32030 16.28990 2.11240 1.73540 1.59030 1.93890 2741.60255
 2913.12600 9.10660 0.24670 0.00100 72.65420 12.44020 0.31050 1.56760 2.11460 1.73840 1.63610 1.53830 2741.75100
 2913.27840 9.10660 0.25510 -0.00100 72.70710 13.14530 0.31670 1.65680 2.13000 1.73250 1.71580 1.58960 2741.89945
 2913.43080 9.34990 0.26510 0.00110 74.10220 13.65790 0.28860 1.77350 2.14810 1.73590 1.83000 1.71930 2742.04789
 2913.58320 9.49590 0.26710 0.00870 75.08910 13.96460 0.27310 1.86410 2.16260 1.74420 1.99630 1.89000 2742.19634
 2913.73560 9.49590 0.25270 0.01530 75.16110 12.54120 0.27210 1.90880 2.13930 1.76460 2.07980 1.98010 2742.34479
 2913.88800 9.49590 0.24700 0.01460 74.18510 12.04660 0.28120 1.94260 2.13300 1.76320 2.14700 2.02470 2742.49323
 2914.04040 9.49590 0.24760 0.00220 73.47290 13.08690 0.29160 1.95500 2.12410 1.74910 2.06260 1.99950 2742.64168
 2914.19280 9.49590 0.25450 -0.00470 73.36660 14.31880 0.28320 1.97850 2.14160 1.72260 2.00870 1.85220 2742.79012
 2914.34520 9.49590 0.24720 -0.00490 73.81890 15.71400 0.27260 1.97390 2.12620 1.72530 2.02770 1.86460 2742.93857
 2914.49760 9.49590 0.24210 -0.00300 73.50720 16.23340 0.27200 2.00560 2.11990 1.73090 2.15520 1.99270 2743.08702
 2914.65000 9.49590 0.23880 -0.00110 73.58950 16.94740 0.26900 2.01740 2.11710 1.74180 2.18770 2.09560 2743.23546
 2914.80240 9.49590 0.24040 -0.00180 73.99450 16.04900 0.25930 2.02720 2.12640 1.74450 2.19170 2.12190 2743.38391
 2914.95480 9.49590 0.23210 0.00460 73.90140 13.77640 0.27700 2.02490 2.12270 1.75210 2.22110 2.06450 2743.53236
 2915.10720 9.49590 0.21810 0.00750 71.93010 13.36480 0.28690 2.03500 2.09720 1.75780 2.23780 2.09440 2743.68080
 2915.25960 9.49590 0.22760 0.00220 69.72750 15.18680 0.25680 2.01080 2.09110 1.74880 2.28020 2.11290 2743.82925
 2915.41200 9.49590 0.25790 -0.00450 69.64680 16.23300 0.26360 1.98710 2.12700 1.72560 2.23860 2.10680 2743.97770
 2915.56440 9.49590 0.29690 -0.01260 70.73940 14.92390 0.25830 1.95550 2.18700 1.70700 2.17720 2.08090 2744.12614
 2915.71680 9.49590 0.31230 -0.01210 71.55310 13.91040 0.28940 1.92160 2.21930 1.70290 2.11650 1.99850 2744.27459
 2915.86920 9.49590 0.30840 -0.01350 71.32570 14.77410 0.26640 1.85430 2.21170 1.70330 1.96030 1.90710 2744.42303
 2916.02160 9.49590 0.31360 -0.01380 71.65110 16.16800 0.25510 1.81140 2.21300 1.70080 1.90510 1.81040 2744.57148
 2916.17400 9.49590 0.31230 -0.01530 72.65170 15.07160 0.28420 1.75970 2.21800 1.69540 1.85460 1.74980 2744.71993
 2916.32640 9.49590 0.31640 -0.01010 73.32330 14.54180 0.26820 1.74160 2.23080 1.70470 1.84390 1.73450 2744.86837
 2916.47880 9.49590 0.32040 -0.01010 73.62970 15.26540 0.26130 1.75410 2.24190 1.70780 1.91450 1.75100 2745.01682
 2916.63120 9.49590 0.31110 -0.01280 74.37800 15.60570 0.27410 1.75080 2.23550 1.70520 1.93000 1.83300 2745.16527
 2916.78360 9.51730 0.28130 -0.01790 74.34840 14.45380 0.28770 1.73930 2.18850 1.69690 1.91750 1.83760 2745.31371
 2916.93600 9.58870 0.26380 -0.01720 73.37280 13.55370 0.29710 1.70540 2.14510 1.69460 1.87300 1.78280 2745.46216
 2917.08840 9.67380 0.27410 -0.01750 73.57120 13.20470 0.29290 1.67410 2.14070 1.69290 1.79950 1.68260 2745.61060
 2917.24080 9.67380 0.30510 -0.01800 74.20310 13.49060 0.29100 1.62600 2.18020 1.69460 1.77190 1.63380 2745.75905
 2917.39320 9.67380 0.31400 -0.02110 73.61370 12.83520 0.29160 1.60810 2.20640 1.69160 1.75570 1.60810 2745.90750
 2917.54560 9.67380 0.30350 -0.02180 72.51810 13.35970 0.29610 1.62920 2.19810 1.69320 1.76170 1.63070 2746.05594
 2917.69800 9.67380 0.29060 -0.02170 73.17520 14.56690 0.27050 1.61470 2.18220 1.68920 1.75860 1.68750 2746.20439
 2917.85040 9.67380 0.28500 -0.02210 74.14400 14.45880 0.27960 1.63290 2.17010 1.68760 1.76550 1.64570 2746.35284
 2918.00280 9.67380 0.27940 -0.02250 75.09520 14.22860 0.27760 1.60310 2.16660 1.68310 1.74820 1.61420 2746.50128
 2918.15520 9.67380 0.26660 -0.02340 76.22230 12.61830 0.28190 1.58630 2.15370 1.68240 1.71600 1.59950 2746.64973
 2918.30760 9.67380 0.24960 -0.02210 77.47550 13.15170 0.27600 1.62330 2.13730 1.68600 1.75390 1.61990 2746.79817
 2918.46000 9.67380 0.23770 -0.01980 77.78530 14.54030 0.25800 1.66610 2.11740 1.69220 1.76020 1.62920 2746.94662
 2918.61240 9.67380 0.22620 -0.01620 76.66850 17.25700 0.27950 1.67960 2.10100 1.69930 1.83710 1.69260 2747.09507
 2918.76480 9.67380 0.21700 -0.01250 76.01410 16.55870 0.28330 1.65570 2.08370 1.70270 1.84890 1.73670 2747.24351
 2918.91720 9.67380 0.20240 -0.01020 76.59550 14.90280 0.30350 1.66620 2.06350 1.70740 1.81120 1.71450 2747.39196
 2919.06960 9.67380 0.19530 -0.00670 77.13970 14.21190 0.29700 1.67110 2.04670 1.71360 1.78230 1.69300 2747.54041
 2919.22200 9.67380 0.19690 -0.00330 77.97590 16.29560 0.29270 1.67670 2.04170 1.71940 1.74790 1.64910 2747.68885
 2919.37440 9.67380 0.20600 -0.00340 78.65810 18.26920 0.27670 1.67370 2.05370 1.72750 1.75860 1.66830 2747.83730
 2919.52680 9.67800 0.22600 -0.00250 78.59860 18.49760 0.28360 1.68480 2.08440 1.73090 1.80260 1.71490 2747.98574
 2919.67920 9.69870 0.24320 -0.00110 78.29400 19.60450 0.32200 1.72560 2.11680 1.73390 1.79660 1.71000 2748.13419
 2919.83160 9.69870 0.26760 0.00760 76.65290 20.17500 0.29390 1.78120 2.15040 1.74500 1.80200 1.68630 2748.28264
 2919.98400 9.69870 0.27250 0.02890 75.22380 20.07590 0.26820 1.78070 2.15980 1.77660 1.94380 1.83230 2748.43108
 2920.13640 9.69870 0.26400 0.06080 76.57330 17.87210 0.27630 1.80910 2.14350 1.83230 2.11040 1.99370 2748.57953
 2920.28880 9.69870 0.25080 0.08450 80.95900 17.50680 0.29340 1.85140 2.13140 1.87660 2.08110 1.97740 2748.72798
 2920.44120 9.69870 0.22880 0.10070 81.34620 17.40320 0.27920 1.87500 2.10760 1.90600 1.99450 1.92160 2748.87642
 2920.59360 9.69870 0.21050 0.09970 78.17580 17.34630 0.28190 1.82120 2.08480 1.90860 1.94380 1.84630 2749.02487
