~Version ---------------------------------------------------
VERS. 2.0 : CWLS log ASCII Standard -VERSION 2.0
WRAP.  NO : One line per depth step
~Well ------------------------------------------------------
STRT     .M           239.8776 : START
STOP     .M          4186.7328 : STOP
STEP     .M 0.1524000000000001 : STEP
NULL     .             -999.25 : NULL VALUE
COMP     .        STATOILHYDRO : COMPANY
WELL     .           15/9-F-12 : WELL
FLD      .               VOLVE : FIELD
LOC      .             UNKNOWN : LOCATION
CNTY     .             UNKNOWN : COUNTY
STAT     .             UNKNOWN : STATE
CTRY     .              Norway : COUNTRY
SRVC     .             UNKNOWN : SERVICE COMPANY
DATE     .             UNKNOWN : LOG DATE
UWI      .        NO 15/9-F-12 : UNIQUE WELL ID
XCOORD   .           435050.17 : SURFACE X
YCOORD   .           6478574.7 : SURFACE Y
LAT      .           58.441713 : LATITUDE
LON      .             1.88748 : LONGITUDE
ELEV     .M               54.9 : SURFACE ELEV
ELEV_TYPE.                  KB : ELEV TYPE
~Curve Information -----------------------------------------
DEPTH    .M           UNKNOWN : Measured Depth
CARB_FLAG.UNKNOWN     UNKNOWN : CARB_FLAG:UNKNOWN:rC:NONE:v1
COAL_FLAG.UNKNOWN     UNKNOWN : COAL_FLAG:UNKNOWN:rC:NONE:v1
DT       .us/ft       UNKNOWN : DT:UNKNOWN:rC:NONE:v2
GR       .API         UNKNOWN : GR:UNKNOWN:rC:NONE:v1
NPHI     .v/v_decimal UNKNOWN : NPHI:UNKNOWN:rC:NONE:v1
RD       .UNKNOWN     UNKNOWN : RD:UNKNOWN:rC:NONE:v1
RHOB     .g/cm3       UNKNOWN : RHOB:UNKNOWN:rC:NONE:v1
ROP5_RM  .UNKNOWN     UNKNOWN : ROP5_RM:UNKNOWN:rC:NONE:v1
RS       .UNKNOWN     UNKNOWN : RS:UNKNOWN:rC:NONE:v1
RT       .ohm.m       UNKNOWN : RT:UNKNOWN:rC:NONE:v1
SAND_FLAG.UNKNOWN     UNKNOWN : SAND_FLAG:UNKNOWN:rC:NONE:v1
TVD      .M                   : True Vertical Depth from PyLasMech
~Params ----------------------------------------------------
~Other -----------------------------------------------------
~ASCII -----------------------------------------------------
# ...
 2391.61320 -999.25 -999.25 96.16900 96.69230 0.23540 0.74310 1.85450 8.72240 1.51200 0.65750 -999.25 2310.32203
 2391.76560 -999.25 -999.25 97.89990 94.49160 0.22490 0.74290 1.85780 9.06800 1.32980 0.68060 -999.25 2310.47016
 2391.91800 -999.25 -999.25 99.43550 94.49160 0.20280 0.66920 1.87680 9.20540 1.88530 0.80170 -999.25 2310.61830
 2392.07040 -999.25 -999.25 107.69500 97.90270 0.20150 0.67240 1.86700 9.33080 2.16830 0.76190 -999.25 2310.76643
 2392.22280 -999.25 -999.25 106.37560 101.36870 0.20020 0.68860 1.86140 9.50850 0.98180 0.53730 -999.25 2310.91456
 2392.37520 -999.25 -999.25 106.38540 100.07580 0.21920 0.70050 1.84820 10.00970 1.07040 0.50630 -999.25 2311.06269
 2392.52760 -999.25 -999.25 106.79680 99.05800 0.21440 0.64390 1.83210 10.24240 0.87610 0.58180 -999.25 2311.21083
 2392.68000 -999.25 -999.25 108.08190 97.68260 0.22760 0.68710 1.81400 10.58950 1.10460 0.63850 -999.25 2311.35896
 2392.83240 -999.25 -999.25 106.70840 98.89300 0.21810 0.76230 1.81600 10.95140 0.90190 0.68120 -999.25 2311.50709
 2392.98480 -999.25 -999.25 104.45320 100.35090 0.21760 0.64790 1.82660 11.49060 1.38440 0.63750 -999.25 2311.65523
 2393.13720 -999.25 -999.25 97.57200 100.18590 0.21640 0.69610 1.83380 12.00570 0.90870 0.63530 -999.25 2311.80295
 2393.28960 -999.25 -999.25 101.07000 99.80080 0.22140 0.69350 1.82830 12.17480 1.10300 0.63690 -999.25 2311.95062
 2393.44200 -999.25 -999.25 97.87040 98.61790 0.23530 0.65490 1.83100 12.27810 0.99090 0.59160 -999.25 2312.09830
 2393.59440 -999.25 -999.25 98.06380 95.50940 0.23650 0.74860 1.84960 11.15810 1.10550 0.61950 -999.25 2312.24597
 2393.74680 -999.25 -999.25 98.27690 92.67600 0.21710 0.72450 1.87740 7.17170 0.98820 0.78660 -999.25 2312.39365
 2393.89920 -999.25 -999.25 99.23900 93.03370 0.20020 0.83320 1.89950 6.97160 1.15430 0.81130 -999.25 2312.54132
 2394.05160 -999.25 -999.25 100.11090 94.29900 0.18290 0.81280 1.88800 6.70730 1.21250 0.82560 -999.25 2312.68900
 2394.20400 -999.25 -999.25 104.60050 95.86700 0.20090 0.81450 1.87910 5.93520 1.71530 0.73210 -999.25 2312.83668
 2394.35640 -999.25 -999.25 103.34970 96.49970 0.20530 0.80170 1.87450 5.55860 1.31010 0.62730 -999.25 2312.98435
 2394.50880 -999.25 -999.25 106.21460 103.10180 0.22040 0.81640 1.87370 5.26040 0.96690 0.68550 -999.25 2313.13203
 2394.66120 -999.25 -999.25 114.77760 104.66980 0.21280 0.77140 1.87330 4.96950 1.17320 0.68160 -999.25 2313.27970
 2394.81360 -999.25 -999.25 110.56670 103.29430 0.21350 0.80470 1.86790 4.79600 1.15580 0.78750 -999.25 2313.42738
 2394.96600 -999.25 -999.25 108.07210 98.45280 0.20320 0.82010 1.87690 4.47090 1.21940 0.73020 -999.25 2313.57505
 2395.11840 -999.25 -999.25 106.06130 99.71820 0.22530 0.88590 1.87550 4.39620 1.77220 0.73880 -999.25 2313.72273
 2395.27080 -999.25 -999.25 93.91380 108.54850 0.21030 0.83930 1.87160 5.63850 1.11610 0.68200 -999.25 2313.87041
 2395.42320 -999.25 -999.25 90.71920 117.79140 0.21320 0.88390 1.86740 5.61860 1.32910 0.79360 -999.25 2314.01808
 2395.57560 -999.25 -999.25 91.17960 123.76070 0.20020 0.89640 1.85630 5.57570 1.18100 0.78850 -999.25 2314.16576
 2395.72800 -999.25 -999.25 94.25650 122.55030 0.20740 0.96700 1.84840 5.71750 1.31570 0.81750 -999.25 2314.31343
 2395.88040 -999.25 -999.25 89.29160 120.81730 0.20970 0.96190 1.83770 5.84290 1.95190 0.81450 -999.25 2314.46111
 2396.03280 -999.25 -999.25 86.89520 119.90950 0.21770 1.13800 1.84670 5.85020 1.03620 0.85780 -999.25 2314.60878
 2396.18520 -999.25 -999.25 88.85080 122.22020 0.21650 0.78450 1.84500 5.87420 2.41460 0.91370 -999.25 2314.75646
 2396.33760 -999.25 -999.25 84.26790 120.29460 0.20630 1.00460 1.83030 5.88030 1.58730 0.80430 -999.25 2314.90413
 2396.49000 -999.25 -999.25 82.23670 119.82700 0.19720 0.97540 1.80060 5.87950 1.42210 0.74250 -999.25 2315.05181
 2396.64240 -999.25 -999.25 91.22380 112.28970 0.19860 0.93600 1.78790 5.49200 1.76380 0.82940 -999.25 2315.19949
 2396.79480 -999.25 -999.25 95.81050 107.42060 0.18810 0.96600 1.79240 5.35050 2.04890 0.94050 -999.25 2315.34716
 2396.94720 -999.25 -999.25 83.96270 98.42530 0.18790 1.05470 1.82030 5.21800 1.34580 0.98010 -999.25 2315.49484
 2397.09960 -999.25 -999.25 92.29100 102.55160 0.20410 0.90040 1.82710 5.13230 1.42090 0.76650 -999.25 2315.64251
 2397.25200 -999.25 -999.25 93.54300 110.08900 0.23970 0.79840 1.83740 5.02420 1.19710 0.64500 -999.25 2315.79019
 2397.40440 -999.25 -999.25 90.88360 119.27680 0.24300 0.80870 1.84130 5.04720 1.17910 0.70870 -999.25 2315.93786
 2397.55680 -999.25 -999.25 88.46120 117.81890 0.23040 0.85790 1.87210 5.00470 1.31020 0.80300 -999.25 2316.08554
 2397.70920 -999.25 -999.25 95.31550 116.80100 0.22720 0.83190 1.87350 5.12120 1.57810 0.83590 -999.25 2316.23321
 2397.86160 -999.25 -999.25 109.14430 116.49850 0.21060 0.91400 1.85470 5.13940 1.26400 0.90360 -999.25 2316.38089
 2398.01400 -999.25 -999.25 122.56800 118.50660 0.20850 0.92300 1.79940 5.00090 1.14420 0.87150 -999.25 2316.52857
 2398.16640 -999.25 -999.25 120.49450 114.02270 0.22020 0.95170 1.77580 4.44610 1.13680 0.83590 -999.25 2316.67624
 2398.31880 -999.25 -999.25 120.48960 107.33810 0.26570 0.73160 1.75530 4.27980 1.48980 0.90920 -999.25 2316.82392
 2398.47120 -999.25 -999.25 120.34530 99.08550 0.31240 0.72360 1.76630 4.01360 1.19420 0.65300 -999.25 2316.97159
 2398.62360 -999.25 -999.25 121.84040 99.08550 0.31160 0.66410 1.78120 3.90500 0.91980 0.58800 -999.25 2317.11927
 2398.77600 -999.25 -999.25 114.06780 94.68420 0.28160 0.64990 1.78290 4.01940 0.93160 0.52230 -999.25 2317.26694
 2398.92840 -999.25 -999.25 112.22890 96.52720 0.27790 0.66110 1.77110 4.04610 1.03150 0.56060 -999.25 2317.41462
 2399.08080 -999.25 -999.25 106.67890 96.25220 0.31620 0.61070 1.76390 4.13760 1.00940 0.52970 -999.25 2317.56230
 2399.23320 -999.25 -999.25 103.41550 99.74580 0.35320 0.60810 1.75730 4.02830 1.00880 0.56930 -999.25 2317.70997
 2399.38560 -999.25 -999.25 101.03560 101.83640 0.32760 0.67250 1.76870 4.11570 0.92720 0.57870 -999.25 2317.85765
 2399.53800 -999.25 -999.25 96.49200 100.73610 0.28220 0.66440 1.78590 4.93460 1.12170 0.58730 -999.25 2318.00532
 2399.69040 -999.25 -999.25 95.96390 104.11960 0.27450 0.67200 1.80170 5.48100 0.93840 0.60250 -999.25 2318.15300
 2399.84280 -999.25 -999.25 104.77730 102.19400 0.26360 0.65200 1.81230 5.93120 0.78970 0.59240 -999.25 2318.30067
 2399.99520 -999.25 -999.25 110.08170 100.98360 0.25090 0.65520 1.85030 6.91840 1.30270 0.60930 -999.25 2318.44835
 2400.14760 -999.25 -999.25 103.95450 99.99330 0.23640 0.68830 1.86530 7.68390 0.83580 0.63190 -999.25 2318.59602
 2400.30000 -999.25 -999.25 107.57040 101.83640 0.22200 0.71890 1.87480 8.01900 0.97330 0.63580 -999.25 2318.74370
 2400.45240 -999.25 -999.25 108.95370 105.52260 0.22650 0.73590 1.85320 8.12800 1.38390 0.68830 -999.25 2318.89138
 2400.60480 -999.25 -999.25 111.62030 106.59540 0.21510 0.69600 1.83500 8.60020 0.98460 0.76490 -999.25 2319.03905
 2400.75720 -999.25 -999.25 119.85040 106.51290 0.21060 0.70530 1.81730 8.82100 1.25960 0.67300 -999.25 2319.18673
 2400.90960 -999.25 -999.25 117.30660 107.33810 0.21540 0.68280 1.85610 8.51870 1.26790 0.59380 -999.25 2319.33440
 2401.06200 -999.25 -999.25 113.77430 106.07270 0.21930 0.64550 1.83620 8.02960 1.01360 0.61180 -999.25 2319.48208
 2401.21440 -999.25 -999.25 115.68380 107.36560 0.20780 0.70570 1.88180 7.95090 0.89510 0.59720 -999.25 2319.62975
 2401.36680 -999.25 -999.25 116.70980 108.08080 0.20840 0.69930 1.88830 7.63070 1.15380 0.63790 -999.25 2319.77743
 2401.51920 -999.25 -999.25 119.86030 109.64880 0.20590 0.67530 1.92690 7.39940 0.95550 0.65960 -999.25 2319.92510
 2401.67160 -999.25 -999.25 117.73270 112.83980 0.21860 0.71160 1.89730 7.22480 1.20200 0.59800 -999.25 2320.07278
 2401.82400 -999.25 -999.25 115.63960 111.29930 0.21500 0.70140 1.87080 7.14400 0.97020 0.57300 -999.25 2320.22046
 2401.97640 -999.25 -999.25 114.83160 114.32530 0.21880 0.72280 1.84550 7.07920 1.31830 0.64810 -999.25 2320.36813
 2402.12880 -999.25 -999.25 112.77770 116.08580 0.22020 0.70020 1.83940 6.84960 1.00840 0.61410 -999.25 2320.51581
