~Version ---------------------------------------------------
VERS. 2.0 : CWLS log ASCII Standard -VERSION 2.0
WRAP.  NO : One line per depth step
~Well ------------------------------------------------------
STRT     .M           239.8776 : START
STOP     .M          4186.7328 : STOP
STEP     .M 0.1524000000000001 : STEP
NULL     .             -999.25 : NULL VALUE
COMP     .        STATOILHYDRO : COMPANY
WELL     .           15/9-F-12 : WELL
FLD      .               VOLVE : FIELD
LOC      .             UNKNOWN : LOCATION
CNTY     .             UNKNOWN : COUNTY
STAT     .             UNKNOWN : STATE
CTRY     .              Norway : COUNTRY
SRVC     .             UNKNOWN : SERVICE COMPANY
DATE     .             UNKNOWN : LOG DATE
UWI      .        NO 15/9-F-12 : UNIQUE WELL ID
XCOORD   .           435050.17 : SURFACE X
YCOORD   .           6478574.7 : SURFACE Y
LAT      .           58.441713 : LATITUDE
LON      .             1.88748 : LONGITUDE
ELEV     .M               54.9 : SURFACE ELEV
ELEV_TYPE.                  KB : ELEV TYPE
~Curve Information -----------------------------------------
DEPTH    .M           UNKNOWN : Measured Depth
CARB_FLAG.UNKNOWN     UNKNOWN : CARB_FLAG:UNKNOWN:rC:NONE:v1
COAL_FLAG.UNKNOWN     UNKNOWN : COAL_FLAG:UNKNOWN:rC:NONE:v1
DT       .us/ft       UNKNOWN : DT:UNKNOWN:rC:NONE:v2
GR       .API         UNKNOWN : GR:UNKNOWN:rC:NONE:v1
NPHI     .v/v_decimal UNKNOWN : NPHI:UNKNOWN:rC:NONE:v1
RD       .UNKNOWN     UNKNOWN : RD:UNKNOWN:rC:NONE:v1
RHOB     .g/cm3       UNKNOWN : RHOB:UNKNOWN:rC:NONE:v1
ROP5_RM  .UNKNOWN     UNKNOWN : ROP5_RM:UNKNOWN:rC:NONE:v1
RS       .UNKNOWN     UNKNOWN : RS:UNKNOWN:rC:NONE:v1
RT       .ohm.m       UNKNOWN : RT:UNKNOWN:rC:NONE:v1
SAND_FLAG.UNKNOWN     UNKNOWN : SAND_FLAG:UNKNOWN:rC:NONE:v1
TVD      .M                   : True Vertical Depth from PyLasMech
~Params ----------------------------------------------------
~Other -----------------------------------------------------
~ASCII -----------------------------------------------------
# ...
 3037.48440 -999.25 -999.25 60.78160 30.96570 0.04480 6.12000 2.28800 2.41070 7.45120 7.33410 -999.25 2819.29089
 3037.63680 -999.25 -999.25 60.99170 30.96570 0.04290 6.19000 2.30950 2.18810 7.79000 7.63020 -999.25 2819.37819
 3037.78920 -999.25 -999.25 61.34520 32.86160 0.04210 6.25000 2.33550 1.95240 7.90850 7.69290 -999.25 2819.46550
 3037.94160 -999.25 -999.25 59.88730 30.75510 0.04050 6.32000 2.33320 1.83680 8.03680 7.74980 -999.25 2819.55280
 3038.09400 -999.25 -999.25 61.81780 28.55830 0.04190 6.37000 2.32940 1.48840 8.06010 7.79160 -999.25 2819.64010
 3038.24640 -999.25 -999.25 62.83410 27.26430 0.04440 6.37000 2.30140 1.39390 7.84290 7.80430 -999.25 2819.72741
 3038.39880 -999.25 -999.25 63.07520 28.55830 0.04940 6.24000 2.27920 1.31600 7.58480 7.65210 -999.25 2819.81471
 3038.55120 -999.25 -999.25 62.59430 31.26670 0.05280 6.35000 2.24800 1.31600 7.39090 7.36680 -999.25 2819.90201
 3038.70360 -999.25 -999.25 62.96220 32.04910 0.05330 6.39000 2.25670 1.24210 7.05760 7.04160 -999.25 2819.98932
 3038.85600 -999.25 -999.25 62.91740 31.95880 0.05430 6.31000 2.25200 1.24980 6.62420 6.88930 -999.25 2820.07662
 3039.00840 -999.25 -999.25 66.16470 31.95880 0.05760 6.16000 2.27540 1.26790 6.30650 6.99160 -999.25 2820.16392
 3039.16080 -999.25 -999.25 63.31170 33.28290 0.06240 6.12000 2.29140 1.27830 6.10170 6.52470 -999.25 2820.25123
 3039.31320 -999.25 -999.25 62.10370 36.08160 0.06380 5.98000 2.29990 1.30750 5.86140 6.32100 -999.25 2820.33853
 3039.46560 -999.25 -999.25 60.85080 35.66030 0.06340 6.02000 2.27730 1.33330 5.72980 5.83780 -999.25 2820.42583
 3039.61800 -999.25 -999.25 61.65310 34.54680 0.06320 5.78000 2.27140 1.40360 5.59280 5.82150 -999.25 2820.51314
 3039.77040 -999.25 -999.25 61.98450 31.44720 0.06470 5.67000 2.26700 1.46890 5.41820 5.71680 -999.25 2820.60044
 3039.92280 -999.25 -999.25 64.48760 31.86850 0.07130 5.44000 2.27480 1.59620 5.33460 5.76320 -999.25 2820.68774
 3040.07520 -999.25 -999.25 67.93950 33.97500 0.07690 5.22000 2.26860 1.67570 5.26830 5.69360 -999.25 2820.77505
 3040.22760 -999.25 -999.25 71.04610 36.68340 0.08530 5.21000 2.28420 1.76920 5.14570 5.14400 -999.25 2820.86235
 3040.38000 -999.25 -999.25 72.46130 36.17180 0.08950 5.07000 2.30710 1.79650 5.00030 5.11660 -999.25 2820.94965
 3040.53240 -999.25 -999.25 67.93750 37.88720 0.09610 4.97000 2.34270 1.79590 4.82930 4.97330 -999.25 2821.03696
 3040.68480 -999.25 -999.25 65.52880 39.78300 0.10260 4.88000 2.36700 1.86910 4.60000 4.72080 -999.25 2821.12426
 3040.83720 -999.25 -999.25 65.18150 41.97980 0.10480 4.79000 2.36080 1.98140 4.51610 4.59030 -999.25 2821.21156
 3040.98960 -999.25 -999.25 66.77850 39.78300 0.10650 4.70000 2.29840 2.04850 4.29240 4.31590 -999.25 2821.29887
 3041.14200 -999.25 -999.25 68.95200 37.67650 0.09870 4.71000 2.31980 2.12240 4.26470 4.15170 -999.25 2821.38617
 3041.29440 -999.25 -999.25 63.43290 36.56310 0.08940 4.65000 2.34570 2.13130 4.24570 4.14430 -999.25 2821.47347
 3041.44680 -999.25 -999.25 65.72090 34.33620 0.08430 4.55000 2.42170 2.15870 4.23000 4.26870 -999.25 2821.56078
 3041.59920 -999.25 -999.25 67.38420 32.13940 0.08650 4.45000 2.41340 2.20280 4.22790 4.33910 -999.25 2821.64808
 3041.75160 -999.25 -999.25 68.58780 31.35690 0.09020 4.51000 2.41380 2.26240 4.21140 4.23640 -999.25 2821.73538
 3041.90400 -999.25 -999.25 66.28870 36.59310 0.09250 4.47000 2.45030 2.27710 4.18820 4.34080 -999.25 2821.82269
 3042.05640 -999.25 -999.25 68.71460 39.81310 0.09110 4.67000 2.43940 2.29170 4.07570 4.00170 -999.25 2821.90999
 3042.20880 -999.25 -999.25 72.59500 42.52150 0.09250 4.74000 2.44940 2.34660 4.14760 3.96440 -999.25 2821.99729
 3042.36120 -999.25 -999.25 68.54660 39.00060 0.08970 4.80000 2.42230 2.39080 4.21520 4.12350 -999.25 2822.08460
 3042.51360 -999.25 -999.25 63.51490 36.86400 0.08590 4.83000 2.40090 2.49950 4.30610 4.23700 -999.25 2822.17190
 3042.66600 -999.25 -999.25 62.01560 35.23900 0.07890 4.85000 2.39830 2.51670 4.57360 4.48440 -999.25 2822.25920
 3042.81840 -999.25 -999.25 60.18080 36.14180 0.07720 4.82000 2.42600 2.59870 4.75490 4.70430 -999.25 2822.34651
 3042.97080 -999.25 -999.25 64.11420 35.96120 0.07330 4.85000 2.42860 2.62510 4.96160 4.90610 -999.25 2822.43381
 3043.12320 -999.25 -999.25 64.69610 33.37320 0.07120 4.90000 2.46700 2.61130 5.09460 5.03190 -999.25 2822.52111
 3043.27560 -999.25 -999.25 69.84100 31.05600 0.06540 5.02000 2.40650 2.61320 5.17200 5.09850 -999.25 2822.60842
 3043.42800 -999.25 -999.25 69.89760 29.73190 0.06350 5.17000 2.38040 2.61630 5.25100 5.22770 -999.25 2822.69572
 3043.58040 -999.25 -999.25 64.98170 31.23660 0.06350 5.28000 2.29710 2.56620 5.27120 5.28150 -999.25 2822.78302
 3043.73280 -999.25 -999.25 66.76680 34.24590 0.06370 5.48000 2.32990 2.56620 5.33180 5.25880 -999.25 2822.87033
 3043.88520 -999.25 -999.25 74.90850 35.75050 0.06200 5.59000 2.34860 2.52570 5.50010 5.38670 -999.25 2822.95763
 3044.03760 -999.25 -999.25 67.45110 33.52360 0.06030 5.68000 2.35530 2.43600 5.48570 5.39720 -999.25 2823.04493
 3044.19000 -999.25 -999.25 64.89500 32.01900 0.06240 5.57000 2.39020 2.29460 5.69590 5.89920 -999.25 2823.13224
 3044.34240 -999.25 -999.25 65.96960 33.22270 0.06480 5.63000 2.43670 2.15570 5.80810 5.87830 -999.25 2823.21954
 3044.49480 -999.25 -999.25 64.92550 37.04450 0.06320 5.82000 2.51660 2.11620 5.81970 5.65040 -999.25 2823.30684
 3044.64720 -999.25 -999.25 62.24350 38.33860 0.06250 5.89000 2.48780 2.03730 5.88860 5.75650 -999.25 2823.39415
 3044.79960 -999.25 -999.25 62.99940 36.53300 0.06120 5.90000 2.46660 1.99270 5.88490 5.88710 -999.25 2823.48145
 3044.95200 -999.25 -999.25 64.26110 37.22510 0.06050 5.86000 2.50250 2.00520 6.05870 6.10960 -999.25 2823.56875
 3045.10440 -999.25 -999.25 64.66780 35.32920 0.05770 5.93000 2.47910 1.93250 6.08220 6.06410 -999.25 2823.65606
 3045.25680 -999.25 -999.25 62.55520 36.95430 0.05570 5.86000 2.45040 1.93250 6.12370 6.18150 -999.25 2823.74336
 3045.40920 -999.25 -999.25 63.77310 35.66030 0.05480 5.82000 2.38910 1.82900 6.21540 6.21040 -999.25 2823.83066
 3045.56160 -999.25 -999.25 62.08380 37.76680 0.05470 5.79000 2.37400 1.71610 6.23070 6.20460 -999.25 2823.91797
 3045.71400 -999.25 -999.25 65.05880 36.35240 0.05560 5.85000 2.40110 1.71610 6.25020 6.19060 -999.25 2824.00527
 3045.86640 -999.25 -999.25 69.52210 37.07460 0.05840 5.82000 2.40740 1.62610 6.11390 6.16220 -999.25 2824.09257
 3046.01880 -999.25 -999.25 66.63910 36.29220 0.06320 5.85000 2.43350 1.53860 5.84930 6.05340 -999.25 2824.17988
 3046.17120 -999.25 -999.25 64.43810 34.00510 0.06730 5.85000 2.40150 1.51310 5.81620 5.90240 -999.25 2824.26718
 3046.32360 -999.25 -999.25 66.00000 31.08610 0.06910 6.01000 2.40850 1.49120 5.61580 5.45200 -999.25 2824.35448
 3046.47600 -999.25 -999.25 65.91110 30.66480 0.06660 6.18000 2.42620 1.45540 5.38700 5.12900 -999.25 2824.44179
 3046.62840 -999.25 -999.25 65.51630 35.66030 0.06510 6.00000 2.44380 1.46480 5.43610 5.63890 -999.25 2824.52909
 3046.78080 -999.25 -999.25 66.10230 39.45200 0.06420 5.95000 2.48380 1.50000 5.42220 5.63550 -999.25 2824.61639
 3046.93320 -999.25 -999.25 66.90330 38.75990 0.05990 6.01000 2.47170 1.53420 5.53940 5.40560 -999.25 2824.70370
 3047.08560 -999.25 -999.25 71.02270 34.45650 0.05340 6.15000 2.47190 1.53420 5.60280 5.33860 -999.25 2824.79100
 3047.23800 -999.25 -999.25 64.03580 29.85230 0.04630 6.01000 2.49170 1.60750 5.74960 5.61630 -999.25 2824.87830
 3047.39040 -999.25 -999.25 61.12890 29.55130 0.04490 5.89000 2.52470 1.67730 5.81630 5.95460 -999.25 2824.96561
 3047.54280 -999.25 -999.25 60.01470 30.93560 0.04550 5.82000 2.55140 1.82940 6.14040 6.14320 -999.25 2825.05291
 3047.69520 -999.25 -999.25 68.69520 32.56070 0.04840 5.76000 2.51620 1.85980 6.24020 6.08290 -999.25 2825.14021
 3047.84760 -999.25 -999.25 68.29990 32.95190 0.05530 5.68000 2.48660 1.89120 6.26110 6.20510 -999.25 2825.22752
 3048.00000 -999.25 -999.25 71.20770 34.57690 0.06420 5.63000 2.40270 1.87630 6.05200 6.26740 -999.25 2825.31482
 3048.15240 -999.25 -999.25 72.88990 34.24590 0.07030 5.64000 2.36290 1.81970 5.86060 6.16320 -999.25 2825.40212
