~Version ---------------------------------------------------
VERS     .                             2.0 : CWLS log ASCII Standard -VERSION 2.0
WRAP     .                              NO : One Line per depth step
PROD     .                    Schlumberger : LAS Producer
PROG     .               DLIS to ASCII 2.3 : LAS Program name and version
CREA     .                   2019/04/03 19 : 56                          :LAS Creation date {YYYY/MM/DD hh:mm}
DLIS_CREA.                  2009-Feb-18 14 : 31                          :DLIS Creation date and time {YYYY-MMM-DD hh:mm}
SOURCE   . WLC_PETRO_COMPUTED_INPUT_1.DLIS : DLIS File Name
FILE-ID  .                   INPUT.logdata : File Identification Number
~Well ------------------------------------------------------
STRT.F                  566.0 : START DEPTH
STOP.F                12302.0 : STOP DEPTH
STEP.F                    0.5 : STEP
NULL.                 -999.25 : NULL VALUE
COMP.            STATOILHYDRO : COMPANY
WELL.               15/9-F-14 : WELL
FLD .                   VOLVE : FIELD
LOC .                         : LOCATION
CNTY.         MAERSK INSPIRER : COUNTY
STAT.                         : STATE
CTRY.                         : COUNTRY
API .                         : API NUMBER
UWI .                         : UNIQUE WELL ID
DATE.                         : LOG DATE
SRVC. CROCKER DATA PROCESSING : SERVICE COMPANY
LATI.DEG                      : LATITUDE
LONG.DEG                      : LONGITUDE
GDAT.                         : GeoDetic Datum
~Curve Information -----------------------------------------
DEPTH.F            : DEPTH (BOREHOLE) {F10.1}
DEPTH..1IN         : Measured Depth {I11}
DRHO .G/C3         : DRHO:UNKNOWN:rC:NONE:v1 {F13.4}
DT   .US/F         : DT:UNKNOWN:rC:NONE:v2 {F13.4}
DTS  .US/F         : DTS:UNKNOWN:rC:NONE:v1 {F13.4}
GR   .API          : GR:UNKNOWN:rC:NONE:v1 {F13.4}
NPHI .V/V_DECIMAL  : NPHI:UNKNOWN:rC:NONE:v1 {F13.4}
PEF  .B/ELEC       : PEF:UNKNOWN:rC:NONE:v1 {F13.4}
RD   .UNKNOWN      : RD:UNKNOWN:rC:NONE:v1 {F13.4}
RHOB .G/C3         : RHOB:UNKNOWN:rC:NONE:v1 {F13.4}
RS   .UNKNOWN      : RS:UNKNOWN:rC:NONE:v1 {F13.4}
RT   .OHMM         : RT:UNKNOWN:rC:NONE:v1 {F13.4}
TVD  .M            : True Vertical Depth from PyLasMech
~Params ----------------------------------------------------
CN  .    STATOILHYDRO : Company
WN  .       15/9-F-14 : Well Name
FN  .           VOLVE : Field
CTRY.          NORWAY : Country
COUN. MAERSK INSPIRER : County or Rig name
PDAT.             MSL : Perm. Datum
ELZ .M            0.0 : Elev. Log Zero (wrt EPD)
SRVC.         UNKNOWN : Service company
R2  .           INPUT : R2
RUN .                 : RUN NUMBER
EPD .                 : Elevation of Permanent Datum above Mean Sea Level
LMF .                 : Logging Measured From (Name of Logging Elevation Reference)
APD .                 : Elevation of Depth Reference (LMF) above Permanent Datum
~Other -----------------------------------------------------
~ASCII -----------------------------------------------------
# ...
 9568.50000 1148220.00000 0.04170 73.21620 146.62180 33.94960 0.11170 5.43090 3.30620 2.60920 3.41030 3.48430 -999.25
 9569.00000 1148280.00000 0.04020 73.46940 149.00940 35.33800 0.10780 5.32320 3.50460 2.60640 3.23860 3.33490 -999.25
 9569.50000 1148340.00000 0.03720 72.55060 148.72310 34.55750 0.10810 5.19990 3.45930 2.60670 3.20820 3.34920 -999.25
 9570.00000 1148400.00000 0.03360 71.97660 146.76030 33.92300 0.10740 5.12270 3.33370 2.61210 3.21060 3.52630 -999.25
 9570.50000 1148460.00000 0.03330 72.01820 146.54140 34.37580 0.11010 5.17970 3.21600 2.60950 3.33680 3.42180 -999.25
 9571.00000 1148520.00000 0.04030 72.69930 149.03200 36.07090 0.11030 5.28120 3.23150 2.61050 3.18100 3.22360 -999.25
 9571.50000 1148580.00000 0.03800 73.19080 151.47700 38.24960 0.11520 5.23360 3.18840 2.60410 3.09710 3.04320 -999.25
 9572.00000 1148640.00000 0.03230 73.39740 152.47670 37.96600 0.11490 5.05150 3.36120 2.59740 3.02640 2.99760 -999.25
 9572.50000 1148700.00000 0.01730 74.81620 152.53960 38.93810 0.12320 4.87340 3.14160 2.58350 3.09300 3.19770 -999.25
 9573.00000 1148760.00000 0.01740 75.91690 152.97020 40.68580 0.13810 4.74450 3.03510 2.58390 2.97270 3.17910 -999.25
 9573.50000 1148820.00000 0.01520 77.49850 153.31310 44.15780 0.14470 4.67780 3.10070 2.57860 2.77790 3.05430 -999.25
 9574.00000 1148880.00000 0.02010 77.14600 153.77010 46.05290 0.13860 4.60980 3.19890 2.58840 2.49720 2.47810 -999.25
 9574.50000 1148940.00000 0.01540 76.68550 152.88770 44.96780 0.14580 4.67720 3.19390 2.58650 2.58870 2.35800 -999.25
 9575.00000 1149000.00000 0.01720 75.04390 149.92840 41.58430 0.14000 4.84610 3.01350 2.59490 2.78290 3.02810 -999.25
 9575.50000 1149060.00000 0.01900 73.37130 152.44800 38.08530 0.13220 5.03500 2.83270 2.59130 3.05720 3.18560 -999.25
 9576.00000 1149120.00000 0.03070 73.52860 158.68540 37.60850 0.13970 5.17730 3.07780 2.59810 2.81920 2.93460 -999.25
 9576.50000 1149180.00000 0.03690 75.08760 160.32040 39.78550 0.13140 5.18000 2.99820 2.59530 2.76460 2.69310 -999.25
 9577.00000 1149240.00000 0.04190 76.41610 161.03960 41.89300 0.13780 5.15470 3.04890 2.60090 2.75290 2.74640 -999.25
 9577.50000 1149300.00000 0.03910 76.76020 158.85710 43.36930 0.14120 5.06920 2.98730 2.60030 2.67140 2.59670 -999.25
 9578.00000 1149360.00000 0.03960 76.53040 154.88550 43.66030 0.14460 5.09790 3.17430 2.60510 2.67380 2.67530 -999.25
 9578.50000 1149420.00000 0.03910 76.04590 154.63550 43.44780 0.14270 5.13770 3.25890 2.60220 2.57770 2.60970 -999.25
 9579.00000 1149480.00000 0.03830 75.18420 154.40690 41.69010 0.13380 5.23540 3.14810 2.59640 2.64940 2.69290 -999.25
 9579.50000 1149540.00000 0.03940 74.29010 154.19020 39.90120 0.13730 5.27740 3.21640 2.59510 2.79330 2.98760 -999.25
 9580.00000 1149600.00000 0.03980 73.68300 151.54930 37.69540 0.13100 5.34140 3.32770 2.59300 2.86540 3.02780 -999.25
 9580.50000 1149660.00000 0.04060 72.91930 148.61990 36.33660 0.12350 5.35450 3.32390 2.59650 3.04470 3.06290 -999.25
 9581.00000 1149720.00000 0.03430 71.71350 147.68540 35.52570 0.12000 5.27540 3.39500 2.59470 3.08740 3.11260 -999.25
 9581.50000 1149780.00000 0.02990 70.99990 148.00660 35.48420 0.11540 5.11740 3.54570 2.59930 3.34330 3.46210 -999.25
 9582.00000 1149840.00000 0.01520 70.75490 147.72030 34.36020 0.11020 4.96410 3.50840 2.59000 3.45670 3.66140 -999.25
 9582.50000 1149900.00000 0.01700 70.95510 146.69740 32.16070 0.11320 4.97260 3.60020 2.59390 3.54200 3.76330 -999.25
 9583.00000 1149960.00000 0.01110 70.71810 145.86330 30.67630 0.11050 4.93270 3.74710 2.59100 3.64860 3.73820 -999.25
 9583.50000 1150020.00000 0.01840 69.96960 143.65010 29.88060 0.10310 4.95740 3.86260 2.60320 3.81730 3.81810 -999.25
 9584.00000 1150080.00000 0.01980 68.89910 141.86400 30.17490 0.10070 5.01620 3.84780 2.60930 4.05690 4.04450 -999.25
 9584.50000 1150140.00000 0.02990 67.46390 139.06940 29.17860 0.09900 5.22560 3.88470 2.61920 4.12980 4.20390 -999.25
 9585.00000 1150200.00000 0.03550 66.01460 137.83110 27.96660 0.09250 5.36630 3.92810 2.62130 4.31390 4.35900 -999.25
 9585.50000 1150260.00000 0.03520 64.99330 137.58410 27.20710 0.09160 5.33700 3.93780 2.62230 4.28180 4.31580 -999.25
 9586.00000 1150320.00000 0.03050 65.08520 137.05830 28.32060 0.09020 5.21660 3.97890 2.62170 4.36020 4.41110 -999.25
 9586.50000 1150380.00000 0.02540 66.78460 138.95910 28.82460 0.09190 5.16120 4.04560 2.61840 4.32000 4.37430 -999.25
 9587.00000 1150440.00000 0.02800 69.08130 143.03890 29.93930 0.09790 5.18000 3.99170 2.61720 4.14880 4.13050 -999.25
 9587.50000 1150500.00000 0.03250 70.27860 147.31050 31.09750 0.10020 5.20450 4.06320 2.61620 3.99020 4.14380 -999.25
 9588.00000 1150560.00000 0.03810 70.59800 149.96390 34.45100 0.10030 5.19450 3.98500 2.61900 3.87020 3.89120 -999.25
 9588.50000 1150620.00000 0.03740 70.50000 150.77220 35.77350 0.10330 5.19760 4.04970 2.61410 3.60970 3.53660 -999.25
 9589.00000 1150680.00000 0.03610 70.73760 150.47160 35.53570 0.10410 5.20410 4.13140 2.60890 3.51390 3.60920 -999.25
 9589.50000 1150740.00000 0.02930 70.47460 148.76710 34.49350 0.10600 5.16180 4.03800 2.60290 3.70500 3.70330 -999.25
 9590.00000 1150800.00000 0.02770 69.95000 147.81670 34.34650 0.10490 5.08400 3.98430 2.60800 3.59880 3.57310 -999.25
 9590.50000 1150860.00000 0.02460 70.02400 146.30570 33.22690 0.11000 4.98890 3.91560 2.60760 3.66350 3.61560 -999.25
 9591.00000 1150920.00000 0.02630 70.29480 145.73380 32.07660 0.10560 4.92670 4.03930 2.60960 3.57970 3.50600 -999.25
 9591.50000 1150980.00000 0.02100 70.66430 145.70130 32.55130 0.10380 4.88830 3.94290 2.60210 3.70730 3.53840 -999.25
 9592.00000 1151040.00000 0.01730 71.12330 147.95950 33.68340 0.10970 4.86560 3.94690 2.59940 3.70960 3.75380 -999.25
 9592.50000 1151100.00000 0.01260 71.12330 148.73240 33.07250 0.11600 4.89400 4.03900 2.59230 3.59370 3.62850 -999.25
 9593.00000 1151160.00000 0.01770 70.99990 148.54730 32.47620 0.11240 5.01960 4.07090 2.59830 3.71370 3.69030 -999.25
 9593.50000 1151220.00000 0.02260 70.52400 147.89680 32.12520 0.11120 5.23930 4.24690 2.59770 3.66220 3.68730 -999.25
 9594.00000 1151280.00000 0.03280 70.22920 146.65550 32.71370 0.10970 5.40520 4.18040 2.60750 3.85920 3.73760 -999.25
 9594.50000 1151340.00000 0.03210 70.34350 144.47740 32.27150 0.11090 5.37220 4.30240 2.60600 3.94520 4.05540 -999.25
 9595.00000 1151400.00000 0.03610 69.92530 144.31870 30.16690 0.10520 5.27380 4.15530 2.61430 4.04400 4.01160 -999.25
 9595.50000 1151460.00000 0.03610 69.85970 143.76490 29.47130 0.10970 5.27620 4.16810 2.61160 4.08720 4.10270 -999.25
 9596.00000 1151520.00000 0.03650 70.05720 143.51940 30.13410 0.10930 5.23230 4.03450 2.61760 3.92810 3.80830 -999.25
 9596.50000 1151580.00000 0.03110 70.77920 144.32930 32.50600 0.10570 5.14610 3.92970 2.61560 3.73030 3.59320 -999.25
 9597.00000 1151640.00000 0.02450 71.55070 146.26340 35.61500 0.11050 4.97110 3.88680 2.61380 3.59950 3.45830 -999.25
 9597.50000 1151700.00000 0.03090 72.45320 148.11810 36.83810 0.11730 5.07730 3.79090 2.61230 3.57880 3.52350 -999.25
 9598.00000 1151760.00000 0.03680 73.20770 149.36550 39.79640 0.12620 5.14250 4.05940 2.61050 3.24190 3.36760 -999.25
 9598.50000 1151820.00000 0.03300 73.51940 149.45310 41.59040 0.12290 5.13880 3.90720 2.60290 3.30300 3.10740 -999.25
 9599.00000 1151880.00000 0.01720 73.77400 148.83660 41.43370 0.12550 4.90190 3.99510 2.58640 3.25720 3.19960 -999.25
 9599.50000 1151940.00000 0.00820 73.87980 146.88440 39.30640 0.12550 4.76960 4.14400 2.58210 3.15900 3.23960 -999.25
 9600.00000 1152000.00000 0.01450 73.19080 144.58160 36.65450 0.11990 4.80540 4.13330 2.59230 3.16580 3.29080 -999.25
 9600.50000 1152060.00000 0.02840 72.58300 143.60780 35.62990 0.10890 5.02810 4.21410 2.60780 3.40940 3.39820 -999.25
 9601.00000 1152120.00000 0.04180 71.39340 143.66670 35.74490 0.10810 5.36220 4.16840 2.61730 3.43480 3.46450 -999.25
 9601.50000 1152180.00000 0.04800 70.40060 140.94990 35.01510 0.10580 5.60920 4.16330 2.61760 3.76930 3.91860 -999.25
 9602.00000 1152240.00000 0.04820 69.60520 137.66120 32.83380 0.10520 5.64540 4.21670 2.61510 3.89900 3.89420 -999.25
