~Version ---------------------------------------------------
VERS     .                             2.0 : CWLS log ASCII Standard -VERSION 2.0
WRAP     .                              NO : One Line per depth step
PROD     .         CROCKER DATA PROCESSING : LAS Producer
PROG     .                   LAS Viewer v0 : LAS Program name and version
CREA     .                2019/04/03 21-01 : LAS Creation date {YYYY/MM/DD hh-mm}
DLIS_CREA.               2009-Aug-25 10-08 : DLIS Creation date and time {YYYY-MMM-DD hh-mm}
SOURCE   . WLC_PETRO_COMPUTED_INPUT_1.DLIS : DLIS File Name
FILE-ID  .               CPI_INPUT.logdata : File Identification Number
~Well ------------------------------------------------------
STRT .m               2560.0152 : START DEPTH
STOP .m               3222.1932 : STOP DEPTH
STEP .m       0.152400000000398 : STEP
NULL .                  -999.25 : NULL VALUE
COMP .             STATOILHYDRO : COMPANY
WELL .              15/9-F-15 C : WELL
FIELD.                    VOLVE : FIELD
LOC  .                          : LOCATION
CNTY .                          : COUNTY
STAT .                          : STATE
NATI .                          : COUNTRY
API  .                          : API NUMBER
UWI  .                          : UNIQUE WELL ID
SRVC .                          : SERVICE COMPANY
LATI . 058 26' 29.706" N    DMS : LATITUDE
LONG . 001 53' 15.149" E    DMS : LONGITUDE
GDAT .                      MSL : GeoDetic Datum
~Curve Information -----------------------------------------
DEPTH.m      : Measured Depth
CALI .IN     : 
DRHO .G/CC   : 
DRHU .G/CC   : 
DT   .US/FT  : 
GR   .GAPI   : 
NPHI .V/V    : 
RD   .OHMM   : 
RHOB .G/CC   : 
ROBU .G/CC   : 
RS   .OHMM   : 
RT   .OHMM   : 
TVD  .M      : True Vertical Depth from PyLasMech
~Params ----------------------------------------------------
RUN . MWD RUN 12-13 : Run number
PDAT.           MSL : Perm. Datum
~Other -----------------------------------------------------
~ASCII -----------------------------------------------------
# ...
 3007.46160 8.75950 0.04800 0.16740 84.72320 49.38560 0.18650 1.60220 2.55250 2.53510 1.23150 1.24540 2832.25867
 3007.61400 8.83510 0.05480 0.16930 84.62790 49.63700 0.17810 1.68880 2.55950 2.54120 1.24480 1.20180 2832.40381
 3007.76640 8.80000 0.04450 0.16990 85.03450 46.31830 0.15040 1.84350 2.56730 2.55970 1.42130 1.35480 2832.54895
 3007.91880 8.68640 0.03200 0.16720 87.09620 40.75780 0.13030 2.00250 2.58810 2.58530 2.08440 2.09690 2832.69410
 3008.07120 8.66240 0.01870 0.16300 90.45050 34.67450 0.11220 2.36130 2.59410 2.60790 2.64770 2.73330 2832.83924
 3008.22360 8.62720 0.01930 0.14910 91.88900 31.20250 0.09230 2.65690 2.60660 2.61220 3.00590 3.23410 2832.98438
 3008.37600 8.64780 0.01980 0.13320 88.81150 31.24310 0.08870 2.87170 2.61220 2.61490 3.26450 3.55530 2833.12952
 3008.52840 8.66920 0.02380 0.12030 82.73900 33.33270 0.09880 3.12850 2.61150 2.61390 3.19150 3.33750 2833.27467
 3008.68080 8.69330 0.02490 0.11190 77.29660 33.60380 0.09330 3.45870 2.61340 2.61710 2.97890 2.98580 2833.41981
 3008.83320 8.70110 0.02830 0.10020 73.41920 28.32760 0.08100 3.65620 2.62050 2.61580 3.47340 3.32380 2833.56495
 3008.98560 8.64080 0.02440 0.09320 71.82150 22.59990 0.07610 3.73080 2.62440 2.62730 4.83930 4.73640 2833.71010
 3009.13800 8.62410 0.02080 0.08900 71.37120 18.99920 0.07080 3.97910 2.62650 2.63240 4.78020 4.89610 2833.85524
 3009.29040 8.62630 0.01620 0.09660 70.82100 20.92700 0.06770 4.10920 2.62050 2.64140 4.48930 4.70390 2834.00038
 3009.44280 8.64110 0.01880 0.09020 67.98120 21.70910 0.07360 4.04180 2.62420 2.62870 4.50590 4.59510 2834.14552
 3009.59520 8.63080 0.01800 0.08200 64.64420 22.99470 0.06970 4.04820 2.61600 2.62060 4.27600 4.25390 2834.29067
 3009.74760 8.64500 0.01740 0.07820 62.88930 24.01370 0.06980 3.89530 2.61350 2.61430 3.87940 3.79610 2834.43581
 3009.90000 8.64440 0.01720 0.08550 63.62610 24.78060 0.08580 3.88890 2.61090 2.62530 3.87920 3.84240 2834.58095
 3010.05240 8.63370 0.02010 0.09000 64.86850 25.58700 0.08650 3.88890 2.61660 2.62580 3.87920 3.84240 2834.72610
 3010.20480 8.63770 0.02070 0.09190 66.18090 26.38240 0.07980 3.92490 2.61480 2.61970 3.89140 3.86720 2834.87124
 3010.35720 8.63490 0.01980 0.09640 66.99720 29.09120 0.07610 3.93050 2.60870 2.61080 3.87860 3.81590 2835.01638
 3010.50960 8.64820 0.02020 0.10010 69.23000 29.88630 0.07760 3.90330 2.60290 2.60610 3.88200 3.82210 2835.16152
 3010.66200 8.63020 0.01800 0.09790 70.55230 29.47050 0.08040 3.69580 2.59470 2.60530 3.81260 3.80800 2835.30667
 3010.81440 8.61580 0.01870 0.09230 70.82650 27.51010 0.08450 3.51530 2.59030 2.59710 3.41410 3.49260 2835.45181
 3010.96680 8.61150 0.02630 0.09370 71.50490 28.40350 0.09280 3.42360 2.59260 2.59560 3.12870 3.16400 2835.59695
 3011.11920 8.68020 0.03260 0.10250 72.86480 29.54050 0.09200 3.33400 2.59510 2.59870 2.92520 2.92830 2835.74210
 3011.27160 8.67060 0.03510 0.11250 73.88510 28.91970 0.09410 3.23690 2.59970 2.60930 2.78590 2.79190 2835.88724
 3011.42400 8.67060 0.02730 0.12660 74.46710 25.96200 0.09840 3.07660 2.59310 2.62230 2.76760 2.80800 2836.03238
 3011.57640 8.66370 0.03490 0.12630 74.34810 22.66140 0.10070 2.99740 2.61660 2.60760 2.79650 2.96730 2836.17752
 3011.72880 8.66370 0.03370 0.12060 74.23290 21.50140 0.10050 2.96780 2.62260 2.58910 2.64820 2.72710 2836.32267
 3011.88120 8.66400 0.03390 0.11010 73.45130 22.82690 0.10130 3.09710 2.63010 2.56930 2.47860 2.50410 2836.46781
 3012.03360 8.65770 0.02880 0.11270 72.56340 24.67750 0.09570 3.09990 2.61650 2.57710 2.74100 2.70000 2836.61295
 3012.18600 8.61580 0.02660 0.11830 70.65960 26.73270 0.09180 3.07890 2.60960 2.58660 3.11980 3.10640 2836.75810
 3012.33840 8.61330 0.03280 0.12630 69.35500 26.52580 0.08990 3.21640 2.61120 2.60170 3.34530 3.45270 2836.90324
 3012.49080 8.63090 0.03310 0.13090 69.61870 24.99930 0.08890 3.38590 2.60450 2.61650 3.30560 3.42580 2837.04838
 3012.64320 8.60660 0.04220 0.12990 69.49880 23.33210 0.08630 3.51740 2.61130 2.61690 3.29960 3.38630 2837.19352
 3012.79560 8.62460 0.04100 0.12980 70.03080 21.77230 0.08390 3.61320 2.61180 2.62040 3.32130 3.30560 2837.33867
 3012.94800 8.65310 0.04340 0.12990 70.53610 21.46010 0.08360 3.61920 2.61770 2.61800 3.56110 3.60280 2837.48381
 3013.10040 8.65990 0.04420 0.13730 69.17920 21.14790 0.08530 3.67140 2.61870 2.62740 3.57560 3.65490 2837.62895
 3013.25280 8.72310 0.04800 0.13820 68.19020 21.14790 0.08110 3.74400 2.62080 2.62180 3.46770 3.52080 2837.77410
 3013.40520 8.72270 0.04520 0.14150 68.36780 22.26100 0.07920 3.80740 2.62030 2.62120 3.69220 3.68720 2837.91924
 3013.55760 8.71380 0.03490 0.14090 68.99010 23.33940 0.07570 3.78680 2.61840 2.61760 3.75480 3.74500 2838.06438
 3013.71000 8.68290 0.02640 0.14880 68.44090 23.12710 0.07310 3.87330 2.61920 2.62550 3.83180 3.78150 2838.20952
 3013.86240 8.71320 0.02340 0.15200 67.44080 21.85640 0.07310 3.87790 2.62480 2.63170 4.00070 4.04350 2838.35467
 3014.01480 8.71990 0.02430 0.15470 66.85410 22.03130 0.07440 3.91400 2.62470 2.64030 3.86460 3.96120 2838.49981
 3014.16720 8.69730 0.02200 0.14980 67.57560 22.91910 0.07900 3.85730 2.61470 2.64070 3.65480 3.84640 2838.64495
 3014.31960 8.71810 0.01680 0.14360 68.97700 24.90580 0.08920 3.76280 2.60280 2.63530 3.33420 3.53760 2838.79010
 3014.47200 8.71190 0.02100 0.13540 70.54420 25.72360 0.09070 3.73260 2.60930 2.62480 3.10800 3.15550 2838.93524
 3014.62440 8.72630 0.02360 0.12880 70.66310 27.19930 0.09060 3.62020 2.61260 2.62490 3.18900 3.21180 2839.08038
 3014.77680 8.71850 0.02510 0.11860 70.75770 25.81280 0.08280 3.63420 2.61340 2.61980 3.30090 3.24910 2839.22552
 3014.92920 8.71020 0.02030 0.10480 70.45280 24.12070 0.07940 3.63420 2.60580 2.61720 3.30090 3.24910 2839.37067
 3015.08160 8.69950 0.02070 0.09240 68.57820 20.92520 0.08810 3.61970 2.61330 2.61850 3.28520 3.30450 2839.51581
 3015.23400 8.68550 0.02790 0.08470 65.87750 20.58090 0.08870 3.61970 2.62140 2.62650 3.28520 3.30450 2839.66095
 3015.38640 8.70950 0.03390 0.08320 65.79170 19.38290 0.08500 3.69470 2.62200 2.64070 3.32430 3.20880 2839.80610
 3015.53880 8.71310 0.04420 0.06820 67.08860 21.16910 0.08200 3.66530 2.61810 2.62870 3.73730 3.68800 2839.95124
 3015.69120 8.71820 0.05410 0.05570 67.62460 23.66280 0.08260 3.61510 2.61320 2.61660 3.92070 3.95890 2840.09638
 3015.84360 8.72100 0.05160 0.05160 69.14990 26.94630 0.07780 3.62790 2.61290 2.60360 3.68550 3.78720 2840.24152
 3015.99600 8.69060 0.05030 0.05590 71.84430 28.27480 0.07740 3.47990 2.62250 2.60720 3.65120 3.79630 2840.38667
 3016.14840 8.68920 0.04180 0.05770 72.12790 27.28910 0.08650 3.40030 2.61360 2.61690 3.47330 3.57780 2840.53181
 3016.30080 8.68920 0.04870 0.04730 72.52590 28.39180 0.08760 3.36530 2.61600 2.61230 3.06560 3.02660 2840.67695
 3016.45320 8.72970 0.04430 0.04200 75.70640 30.83100 0.08140 3.25770 2.59990 2.60910 3.34050 3.11420 2840.82210
 3016.60560 8.70540 0.03700 0.04270 78.79360 36.03730 0.08440 3.14000 2.59640 2.60570 3.61880 3.44810 2840.96724
 3016.75800 8.68630 0.03100 0.04080 80.59340 40.46580 0.08860 3.07250 2.59030 2.58860 3.42770 3.54020 2841.11238
 3016.91040 8.67760 0.02210 0.04640 80.41770 42.29590 0.10230 2.94750 2.56840 2.59120 2.93190 3.17300 2841.25752
 3017.06280 8.69920 0.03090 0.04930 79.16590 40.06020 0.10910 2.77750 2.57740 2.58560 2.43860 2.59060 2841.40267
 3017.21520 8.71830 0.03820 0.06600 77.74020 33.06170 0.12070 2.58750 2.57160 2.60940 2.01880 2.13630 2841.54781
 3017.36760 8.75440 0.04760 0.07740 74.69180 27.48740 0.13200 2.47860 2.59140 2.60040 1.90090 1.88960 2841.69295
 3017.52000 8.76970 0.03980 0.09600 72.23070 23.93930 0.12030 2.45940 2.58530 2.60380 1.94960 1.88410 2841.83810
 3017.67240 8.78420 0.03100 0.10320 71.37040 24.17270 0.10920 2.52290 2.58910 2.59090 2.24610 2.20720 2841.98324
 3017.82480 8.76280 0.02290 0.11450 72.78090 22.93750 0.10820 2.55370 2.59590 2.60170 2.68920 2.72260 2842.12838
 3017.97720 8.73750 0.01620 0.11520 75.50060 21.43840 0.09660 2.59890 2.59800 2.60180 2.94670 2.96680 2842.27352
 3018.12960 8.76870 0.01520 0.12070 77.22290 20.30110 0.09070 2.66840 2.59710 2.61370 2.96610 3.01960 2842.41867
