~Version ---------------------------------------------------
VERS     .                             2.0 : CWLS log ASCII Standard -VERSION 2.0
WRAP     .                              NO : One Line per depth step
PROD     .                    Schlumberger : LAS Producer
PROG     .               DLIS to ASCII 2.3 : LAS Program name and version
CREA     .                   2019/04/03 19 : 56                          :LAS Creation date {YYYY/MM/DD hh:mm}
DLIS_CREA.                  2009-Feb-18 14 : 31                          :DLIS Creation date and time {YYYY-MMM-DD hh:mm}
SOURCE   . WLC_PETRO_COMPUTED_INPUT_1.DLIS : DLIS File Name
FILE-ID  .                   INPUT.logdata : File Identification Number
~Well ------------------------------------------------------
STRT.F                  566.0 : START DEPTH
STOP.F                12302.0 : STOP DEPTH
STEP.F                    0.5 : STEP
NULL.                 -999.25 : NULL VALUE
COMP.            STATOILHYDRO : COMPANY
WELL.               15/9-F-14 : WELL
FLD .                   VOLVE : FIELD
LOC .                         : LOCATION
CNTY.         MAERSK INSPIRER : COUNTY
STAT.                         : STATE
CTRY.                         : COUNTRY
API .                         : API NUMBER
UWI .                         : UNIQUE WELL ID
DATE.                         : LOG DATE
SRVC. CROCKER DATA PROCESSING : SERVICE COMPANY
LATI.DEG                      : LATITUDE
LONG.DEG                      : LONGITUDE
GDAT.                         : GeoDetic Datum
~Curve Information -----------------------------------------
DEPTH.F            : DEPTH (BOREHOLE) {F10.1}
DEPTH..1IN         : Measured Depth {I11}
DRHO .G/C3         : DRHO:UNKNOWN:rC:NONE:v1 {F13.4}
DT   .US/F         : DT:UNKNOWN:rC:NONE:v2 {F13.4}
DTS  .US/F         : DTS:UNKNOWN:rC:NONE:v1 {F13.4}
GR   .API          : GR:UNKNOWN:rC:NONE:v1 {F13.4}
NPHI .V/V_DECIMAL  : NPHI:UNKNOWN:rC:NONE:v1 {F13.4}
PEF  .B/ELEC       : PEF:UNKNOWN:rC:NONE:v1 {F13.4}
RD   .UNKNOWN      : RD:UNKNOWN:rC:NONE:v1 {F13.4}
RHOB .G/C3         : RHOB:UNKNOWN:rC:NONE:v1 {F13.4}
RS   .UNKNOWN      : RS:UNKNOWN:rC:NONE:v1 {F13.4}
RT   .OHMM         : RT:UNKNOWN:rC:NONE:v1 {F13.4}
TVD  .M            : True Vertical Depth from PyLasMech
~Params ----------------------------------------------------
CN  .    STATOILHYDRO : Company
WN  .       15/9-F-14 : Well Name
FN  .           VOLVE : Field
CTRY.          NORWAY : Country
COUN. MAERSK INSPIRER : County or Rig name
PDAT.             MSL : Perm. Datum
ELZ .M            0.0 : Elev. Log Zero (wrt EPD)
SRVC.         UNKNOWN : Service company
R2  .           INPUT : R2
RUN .                 : RUN NUMBER
EPD .                 : Elevation of Permanent Datum above Mean Sea Level
LMF .                 : Logging Measured From (Name of Logging Elevation Reference)
APD .                 : Elevation of Depth Reference (LMF) above Permanent Datum
~Other -----------------------------------------------------
~ASCII -----------------------------------------------------
# ...
 11801.00000 1416120.00000 0.02900 87.37900 142.46460 29.27040 0.17210 2.80930 20.64730 2.24550 22.16870 22.39990 3060.19243
 11801.50000 1416180.00000 0.03280 88.36260 141.45930 28.82070 0.16470 2.74760 20.25140 2.23830 22.32720 22.28410 3060.28967
 11802.00000 1416240.00000 0.03490 86.73380 140.74280 28.97150 0.16820 2.70180 20.69930 2.23730 22.08290 22.14090 3060.38690
 11802.50000 1416300.00000 0.04290 82.45500 140.95120 27.72210 0.16740 2.75520 20.43210 2.25020 21.61380 22.18820 3060.48414
 11803.00000 1416360.00000 0.04170 82.26530 141.22530 27.94510 0.15930 2.84000 20.48900 2.26530 21.69070 21.99900 3060.58138
 11803.50000 1416420.00000 0.03940 81.63490 141.39380 28.40920 0.16610 2.93430 20.65070 2.27620 21.79950 21.88630 3060.67861
 11804.00000 1416480.00000 0.03400 82.32380 141.78100 29.76530 0.16590 2.93600 20.96160 2.27210 22.23460 22.22390 3060.77585
 11804.50000 1416540.00000 0.03270 83.30180 142.60370 30.09710 0.16210 2.89210 20.84910 2.26300 22.40350 21.90670 3060.87308
 11805.00000 1416600.00000 0.03870 84.66060 141.42660 29.46570 0.16620 2.89940 20.85500 2.26330 22.80250 22.04640 3060.97032
 11805.50000 1416660.00000 0.03140 84.57530 141.39190 28.99880 0.15960 2.79470 20.98910 2.25680 22.81100 21.95090 3061.06756
 11806.00000 1416720.00000 0.02870 88.45360 141.85800 28.10840 0.16630 2.68250 21.08080 2.25520 22.58660 22.02080 3061.16479
 11806.50000 1416780.00000 0.01960 88.73070 142.40270 29.13890 0.16500 2.51130 20.82850 2.24340 22.63570 22.03730 3061.26203
 11807.00000 1416840.00000 0.02250 86.73590 142.46390 30.18770 0.16130 2.50000 20.65070 2.23910 23.25530 22.08560 3061.35927
 11807.50000 1416900.00000 0.02170 84.29130 142.04160 32.13880 0.17050 2.50950 21.05820 2.23110 23.63140 22.58090 3061.45650
 11808.00000 1416960.00000 0.02480 83.28790 141.18860 31.01650 0.16740 2.54050 20.91750 2.23560 23.77110 22.92570 3061.55374
 11808.50000 1417020.00000 0.02410 82.64730 140.62730 29.17400 0.17120 2.55940 21.03890 2.23670 23.94280 22.93520 3061.65098
 11809.00000 1417080.00000 0.02570 83.21090 141.11000 28.78580 0.17750 2.54110 21.77270 2.23770 24.15060 23.32060 3061.74821
 11809.50000 1417140.00000 0.02420 84.88490 140.95210 30.25850 0.18490 2.51460 21.85070 2.22960 24.63680 23.49000 3061.84545
 11810.00000 1417200.00000 0.02930 86.59130 141.38350 31.97380 0.17830 2.49520 22.41410 2.22980 25.12530 23.56050 3061.94269
 11810.50000 1417260.00000 0.03460 86.94950 142.50020 34.09980 0.17550 2.51630 22.63180 2.23200 25.35360 23.83190 3062.03992
 11811.00000 1417320.00000 0.03360 85.45890 143.57230 34.38510 0.17720 2.55850 22.69510 2.22810 25.84060 24.40980 3062.13716
 11811.50000 1417380.00000 0.03030 86.42630 144.23180 32.69050 0.18060 2.57820 23.13430 2.21990 25.82650 24.64560 3062.23440
 11812.00000 1417440.00000 0.02180 86.50810 145.10220 31.29610 0.18570 2.48920 23.31110 2.21340 26.23440 24.77820 3062.33163
 11812.50000 1417500.00000 0.01890 86.87060 145.84030 29.84870 0.17900 2.42660 23.87170 2.20900 26.47450 24.66580 3062.42887
 11813.00000 1417560.00000 0.01580 87.54040 146.25360 31.49310 0.18910 2.38560 23.87640 2.20430 26.04480 25.02100 3062.52610
 11813.50000 1417620.00000 0.01720 85.97940 146.60490 29.82910 0.18320 2.45420 24.24480 2.19740 26.64390 24.95240 3062.62334
 11814.00000 1417680.00000 0.02360 86.66430 146.60490 29.06470 0.19280 2.49280 24.66350 2.20020 26.64610 26.01550 3062.72058
 11814.50000 1417740.00000 0.02950 87.59680 146.94860 27.47540 0.19430 2.59340 25.52700 2.20490 26.29410 25.55210 3062.81781
 11815.00000 1417800.00000 0.03940 88.07030 147.80910 26.74080 0.19020 2.83260 25.75410 2.21880 26.77820 26.89590 3062.91505
 11815.50000 1417860.00000 0.04440 88.42700 148.38260 26.29770 0.18770 3.09310 26.13920 2.22860 25.80160 25.99270 3063.01229
 11816.00000 1417920.00000 0.04880 88.41160 150.30610 25.74130 0.19230 3.30220 26.25780 2.23610 25.44930 27.46510 3063.10952
 11816.50000 1417980.00000 0.05210 88.13620 150.08550 26.17310 0.18200 3.36130 26.98710 2.24790 24.16460 26.83330 3063.20676
 11817.00000 1418040.00000 0.05320 88.07130 148.98020 26.96990 0.17050 3.49700 27.21320 2.27360 23.74900 27.40030 3063.30400
 11817.50000 1418100.00000 0.05020 87.94720 147.42070 29.10230 0.16110 3.57830 27.51430 2.29910 22.54810 26.14360 3063.40123
 11818.00000 1418160.00000 0.04240 85.14690 145.39730 29.43810 0.17440 3.50500 28.57120 2.30510 22.39620 23.38580 3063.49847
 11818.50000 1418220.00000 0.03380 83.91970 144.70070 29.07770 0.17970 3.27220 28.27300 2.28540 25.19060 26.79260 3063.59571
 11819.00000 1418280.00000 0.02650 82.94080 144.14000 29.62080 0.17700 3.01970 28.42900 2.25830 27.30010 29.52710 3063.69294
 11819.50000 1418340.00000 0.02440 84.81790 143.79280 30.43500 0.17780 2.88380 29.25440 2.23810 27.57400 30.26190 3063.79018
 11820.00000 1418400.00000 0.02480 85.66010 145.00470 31.70040 0.18370 2.85370 28.80700 2.21980 29.23570 30.50710 3063.88742
 11820.50000 1418460.00000 0.03410 87.66010 145.23770 30.20900 0.18450 2.82320 29.41400 2.21540 30.69820 31.76480 3063.98465
 11821.00000 1418520.00000 0.03700 86.42870 146.12460 30.92240 0.17550 2.87350 28.50550 2.20490 32.11430 32.42530 3064.08189
 11821.50000 1418580.00000 0.04100 86.11540 145.94930 29.34760 0.18450 2.91030 28.77220 2.20200 32.55410 33.42860 3064.17912
 11822.00000 1418640.00000 0.03900 85.36970 146.33280 29.36330 0.18600 3.00630 29.02400 2.19390 33.09940 34.20950 3064.27636
 11822.50000 1418700.00000 0.03870 83.53100 146.84280 27.04870 0.19030 3.08490 29.24210 2.19680 34.15930 34.77740 3064.37360
 11823.00000 1418760.00000 0.03480 84.66980 147.87190 27.24920 0.18680 3.02040 29.32870 2.20320 33.71990 34.70780 3064.47083
 11823.50000 1418820.00000 0.03210 84.65500 148.74070 26.96160 0.17820 2.85560 29.48510 2.21390 35.16210 34.48510 3064.56807
 11824.00000 1418880.00000 0.02520 86.20560 147.77290 27.55710 0.17800 2.66850 29.32760 2.21660 35.23410 36.06800 3064.66531
 11824.50000 1418940.00000 0.02600 86.76970 146.34950 28.42730 0.18020 2.63750 29.57790 2.21560 35.34270 38.10330 3064.76254
 11825.00000 1419000.00000 0.02770 85.45750 145.34350 28.04560 0.18130 2.65720 30.01320 2.21230 34.24180 34.72050 3064.85978
 11825.50000 1419060.00000 0.03430 84.21710 144.09280 28.33020 0.17340 2.65540 29.83170 2.22240 34.71410 36.67200 3064.95702
 11826.00000 1419120.00000 0.03590 82.24130 145.11890 27.91780 0.18610 2.61660 29.81970 2.24160 34.84440 36.56540 3065.05425
 11826.50000 1419180.00000 0.03590 81.72370 145.78070 27.02560 0.17620 2.56150 29.91540 2.27340 36.70590 37.61640 3065.15149
 11827.00000 1419240.00000 0.03020 80.57510 146.01810 25.62350 0.16430 2.57340 30.11310 2.29270 38.62120 39.30160 3065.24873
 11827.50000 1419300.00000 0.02750 80.03140 146.00990 24.32280 0.17680 2.65160 29.68860 2.30820 41.37530 40.72630 3065.34596
 11828.00000 1419360.00000 0.01870 81.12360 145.33320 24.29110 0.17330 2.69570 29.44220 2.30740 41.50020 41.92470 3065.44320
 11828.50000 1419420.00000 0.01580 82.90050 143.88020 23.99850 0.17550 2.65890 30.11320 2.30290 44.54990 43.77390 3065.54044
 11829.00000 1419480.00000 0.01370 85.42370 141.48890 24.29680 0.17470 2.60260 30.28960 2.29090 44.23180 43.05220 3065.63767
 11829.50000 1419540.00000 0.01670 87.77340 139.95140 25.16810 0.17460 2.54870 29.97450 2.27060 44.68070 43.58080 3065.73491
 11830.00000 1419600.00000 0.02250 87.41310 139.47670 25.91640 0.17050 2.53370 30.06240 2.26010 45.36440 43.25720 3065.83214
 11830.50000 1419660.00000 0.02410 85.64210 139.71580 26.67330 0.16220 2.50710 29.77150 2.24700 45.73860 43.75790 3065.92938
 11831.00000 1419720.00000 0.03110 80.19000 141.01450 27.27530 0.17810 2.50080 29.95680 2.25490 47.64390 45.61290 3066.02662
 11831.50000 1419780.00000 0.02790 78.87430 141.78050 28.59690 0.17200 2.57620 31.34650 2.25180 45.19530 45.21720 3066.12385
 11832.00000 1419840.00000 0.03850 76.24480 141.70000 28.07370 0.17920 2.80730 30.74130 2.25740 44.14320 44.76370 3066.22109
 11832.50000 1419900.00000 0.04440 79.07800 141.21370 27.40180 0.18220 3.08410 31.50720 2.25080 40.64330 43.11670 3066.31833
