~Version ---------------------------------------------------
VERS     .                             2.0 : CWLS log ASCII Standard -VERSION 2.0
WRAP     .                              NO : One Line per depth step
PROD     .                    Schlumberger : LAS Producer
PROG     .               DLIS to ASCII 2.3 : LAS Program name and version
CREA     .                   2019/04/03 19 : 51                          :LAS Creation date {YYYY/MM/DD hh:mm}
DLIS_CREA.                  2009-Feb-18 14 : 44                          :DLIS Creation date and time {YYYY-MMM-DD hh:mm}
SOURCE   . WLC_PETRO_COMPUTED_INPUT_1.DLIS : DLIS File Name
FILE-ID  .                   INPUT.logdata : File Identification Number
~Well ------------------------------------------------------
STRT.F                 1382.0 : START DEPTH
STOP.F                12441.0 : STOP DEPTH
STEP.F                    0.5 : STEP
NULL.                 -999.25 : NULL VALUE
COMP.                         : COMPANY
WELL.                15/9-F-5 : WELL
FLD .                   VOLVE : FIELD
LOC .                         : LOCATION
CNTY.         MAERSK INSPIRER : COUNTY
STAT.                         : STATE
CTRY.                         : COUNTRY
API .                         : API NUMBER
UWI .                         : UNIQUE WELL ID
DATE.                         : LOG DATE
SRVC. CROCKER DATA PROCESSING : SERVICE COMPANY
LATI.DEG                      : LATITUDE
LONG.DEG                      : LONGITUDE
GDAT.                         : GeoDetic Datum
~Curve Information -----------------------------------------
DEPTH.F            : DEPTH (BOREHOLE) {F10.1}
DEPTH..1IN         : Measured Depth {I11}
CALI .INCHES       : CALI:UNKNOWN:rC:NONE:v1 {F13.4}
DRHO .G/C3         : DRHO:UNKNOWN:rC:NONE:v1 {F13.4}
DT   .US/F         : DT:UNKNOWN:rC:NONE:v1 {F13.4}
GR   .API          : GR:UNKNOWN:rC:NONE:v1 {F13.4}
NPHI .V/V_DECIMAL  : NPHI:UNKNOWN:rC:NONE:v1 {F13.4}
RD   .UNKNOWN      : RD:UNKNOWN:rC:NONE:v1 {F13.4}
RHOB .G/C3         : RHOB:UNKNOWN:rC:NONE:v1 {F13.4}
RS   .UNKNOWN      : RS:UNKNOWN:rC:NONE:v1 {F13.4}
RT   .OHMM         : RT:UNKNOWN:rC:NONE:v1 {F13.4}
TVD  .M            : True Vertical Depth from PyLasMech
~Params ----------------------------------------------------
WN  .        15/9-F-5 : Well Name
FN  .           VOLVE : Field
CTRY.          NORWAY : Country
COUN. MAERSK INSPIRER : County or Rig name
PDAT.             MSL : Perm. Datum
ELZ .M            0.0 : Elev. Log Zero (wrt EPD)
RUN .                 : RUN NUMBER
EPD .                 : Elevation of Permanent Datum above Mean Sea Level
LMF .                 : Logging Measured From (Name of Logging Elevation Reference)
APD .                 : Elevation of Depth Reference (LMF) above Permanent Datum
~Other -----------------------------------------------------
~ASCII -----------------------------------------------------
# ...
 12420.50000 1490460.00000 -999.25 0.05200 -999.25 60.06300 0.13680 -999.25 2.37000 2.27500 2.12500 -999.25
 12421.00000 1490520.00000 -999.25 0.05200 -999.25 60.06300 0.13680 -999.25 2.37000 2.27500 2.12500 -999.25
 12421.50000 1490580.00000 -999.25 0.05200 -999.25 60.06300 0.13680 -999.25 2.37000 2.27500 2.12500 -999.25
 12422.00000 1490640.00000 -999.25 0.05200 -999.25 60.06300 0.13680 -999.25 2.37000 2.27500 2.12500 -999.25
 12422.50000 1490700.00000 -999.25 0.05200 -999.25 60.06300 0.13680 -999.25 2.37000 2.27500 2.12500 -999.25
 12423.00000 1490760.00000 -999.25 0.05200 -999.25 60.06300 0.13680 -999.25 2.37000 2.27500 2.12500 -999.25
 12423.50000 1490820.00000 -999.25 0.05200 -999.25 60.06300 0.13680 -999.25 2.37000 2.27500 2.12500 -999.25
 12424.00000 1490880.00000 -999.25 0.05200 -999.25 60.06300 0.13680 -999.25 2.37000 2.27500 2.12500 -999.25
 12424.50000 1490940.00000 -999.25 0.05200 -999.25 60.06300 0.13680 -999.25 2.37000 2.27500 2.12500 -999.25
 12425.00000 1491000.00000 -999.25 0.05200 -999.25 60.06300 0.13680 -999.25 2.37000 2.27500 2.12500 -999.25
 12425.50000 1491060.00000 -999.25 0.05200 -999.25 60.06300 0.13680 -999.25 2.37000 2.27500 2.12500 -999.25
 12426.00000 1491120.00000 -999.25 0.05200 -999.25 60.06300 0.13680 -999.25 2.37000 2.27500 2.12500 -999.25
 12426.50000 1491180.00000 -999.25 0.05200 -999.25 60.06300 0.13680 -999.25 2.37000 2.27500 2.12500 -999.25
 12427.00000 1491240.00000 -999.25 0.05200 -999.25 60.06300 0.13680 -999.25 2.37000 2.27500 2.12500 -999.25
 12427.50000 1491300.00000 -999.25 0.05200 -999.25 60.06300 0.13680 -999.25 2.37000 2.27500 2.12500 -999.25
 12428.00000 1491360.00000 -999.25 0.05200 -999.25 60.06300 0.13680 -999.25 2.37000 2.27500 2.12500 -999.25
 12428.50000 1491420.00000 -999.25 0.05200 -999.25 60.06300 0.13680 -999.25 2.37000 2.27500 2.12500 -999.25
 12429.00000 1491480.00000 -999.25 0.05200 -999.25 60.06300 0.13680 -999.25 2.37000 2.27500 2.12500 -999.25
 12429.50000 1491540.00000 -999.25 0.05200 -999.25 60.06300 0.13680 -999.25 2.37000 2.27500 2.12500 -999.25
 12430.00000 1491600.00000 -999.25 0.05200 -999.25 60.06300 0.13680 -999.25 2.37000 2.27500 2.12500 -999.25
 12430.50000 1491660.00000 -999.25 0.05200 -999.25 60.06300 0.13680 -999.25 2.37000 2.27500 2.12500 -999.25
 12431.00000 1491720.00000 -999.25 0.05200 -999.25 60.06300 0.13680 -999.25 2.37000 2.27500 2.12500 -999.25
 12431.50000 1491780.00000 -999.25 0.05200 -999.25 60.06300 0.13680 -999.25 2.37000 2.27500 2.12500 -999.25
 12432.00000 1491840.00000 -999.25 0.05200 -999.25 60.06300 0.13680 -999.25 2.37000 2.27500 2.12500 -999.25
 12432.50000 1491900.00000 -999.25 0.05200 -999.25 60.06300 0.13680 -999.25 2.37000 2.27500 2.12500 -999.25
 12433.00000 1491960.00000 -999.25 0.05200 -999.25 60.06300 0.13680 -999.25 2.37000 2.27500 2.12500 -999.25
 12433.50000 1492020.00000 -999.25 0.05200 -999.25 60.06300 0.13680 -999.25 2.37000 2.27500 2.12500 -999.25
 12434.00000 1492080.00000 -999.25 0.05200 -999.25 60.06300 0.13680 -999.25 2.37000 2.27500 2.12500 -999.25
 12434.50000 1492140.00000 -999.25 0.05200 -999.25 60.06300 0.13680 -999.25 2.37000 2.27500 2.12500 -999.25
 12435.00000 1492200.00000 -999.25 0.05200 -999.25 60.06300 0.13680 -999.25 2.37000 2.27500 2.12500 -999.25
 12435.50000 1492260.00000 -999.25 0.05200 -999.25 60.06300 0.13680 -999.25 2.37000 2.27500 2.12500 -999.25
 12436.00000 1492320.00000 -999.25 0.05200 -999.25 60.06300 0.13680 -999.25 2.37000 2.27500 2.12500 -999.25
 12436.50000 1492380.00000 -999.25 0.05200 -999.25 60.06300 0.13680 -999.25 2.37000 2.27500 2.12500 -999.25
 12437.00000 1492440.00000 -999.25 0.05200 -999.25 60.06300 0.13680 -999.25 2.37000 2.27500 2.12500 -999.25
 12437.50000 1492500.00000 -999.25 0.05200 -999.25 60.06300 0.13680 -999.25 2.37000 2.27500 2.12500 -999.25
 12438.00000 1492560.00000 -999.25 0.05200 -999.25 60.06300 0.13680 -999.25 2.37000 2.27500 2.12500 -999.25
 12438.50000 1492620.00000 -999.25 0.05200 -999.25 60.06300 0.13680 -999.25 2.37000 2.27500 2.12500 -999.25
 12439.00000 1492680.00000 -999.25 0.05200 -999.25 60.06300 0.13680 -999.25 2.37000 2.27500 2.12500 -999.25
 12439.50000 1492740.00000 -999.25 0.05200 -999.25 60.06300 0.13680 -999.25 2.37000 2.27500 2.12500 -999.25
 12440.00000 1492800.00000 -999.25 0.05200 -999.25 60.06300 0.13680 -999.25 2.37000 2.27500 2.12500 -999.25
 12440.50000 1492860.00000 -999.25 0.05200 -999.25 60.06300 0.13680 -999.25 2.37000 2.27500 2.12500 -999.25
 12441.00000 1492920.00000 -999.25 0.05200 -999.25 60.06300 0.13680 -999.25 2.37000 2.27500 2.12500 -999.25
