~Version ---------------------------------------------------
VERS. 2.0 : CWLS log ASCII Standard -VERSION 2.0
WRAP.  NO : One line per depth step
~Well ------------------------------------------------------
STRT     .M           239.8776 : START
STOP     .M          4186.7328 : STOP
STEP     .M 0.1524000000000001 : STEP
NULL     .             -999.25 : NULL VALUE
COMP     .        STATOILHYDRO : COMPANY
WELL     .           15/9-F-12 : WELL
FLD      .               VOLVE : FIELD
LOC      .             UNKNOWN : LOCATION
CNTY     .             UNKNOWN : COUNTY
STAT     .             UNKNOWN : STATE
CTRY     .              Norway : COUNTRY
SRVC     .             UNKNOWN : SERVICE COMPANY
DATE     .             UNKNOWN : LOG DATE
UWI      .        NO 15/9-F-12 : UNIQUE WELL ID
XCOORD   .           435050.17 : SURFACE X
YCOORD   .           6478574.7 : SURFACE Y
LAT      .           58.441713 : LATITUDE
LON      .             1.88748 : LONGITUDE
ELEV     .M               54.9 : SURFACE ELEV
ELEV_TYPE.                  KB : ELEV TYPE
~Curve Information -----------------------------------------
DEPTH    .M           UNKNOWN : Measured Depth
CARB_FLAG.UNKNOWN     UNKNOWN : CARB_FLAG:UNKNOWN:rC:NONE:v1
COAL_FLAG.UNKNOWN     UNKNOWN : COAL_FLAG:UNKNOWN:rC:NONE:v1
DT       .us/ft       UNKNOWN : DT:UNKNOWN:rC:NONE:v2
GR       .API         UNKNOWN : GR:UNKNOWN:rC:NONE:v1
NPHI     .v/v_decimal UNKNOWN : NPHI:UNKNOWN:rC:NONE:v1
RD       .UNKNOWN     UNKNOWN : RD:UNKNOWN:rC:NONE:v1
RHOB     .g/cm3       UNKNOWN : RHOB:UNKNOWN:rC:NONE:v1
ROP5_RM  .UNKNOWN     UNKNOWN : ROP5_RM:UNKNOWN:rC:NONE:v1
RS       .UNKNOWN     UNKNOWN : RS:UNKNOWN:rC:NONE:v1
RT       .ohm.m       UNKNOWN : RT:UNKNOWN:rC:NONE:v1
SAND_FLAG.UNKNOWN     UNKNOWN : SAND_FLAG:UNKNOWN:rC:NONE:v1
TVD      .M                   : True Vertical Depth from PyLasMech
~Params ----------------------------------------------------
~Other -----------------------------------------------------
~ASCII -----------------------------------------------------
# ...
 2179.16760 -999.25 -999.25 99.32250 82.03030 0.20910 0.30620 2.01710 48.12860 0.32960 0.27950 -999.25 2101.36125
 2179.32000 -999.25 -999.25 103.19750 79.55460 0.23180 0.30370 2.03560 48.34920 0.30990 0.26220 -999.25 2101.51152
 2179.47240 -999.25 -999.25 100.01270 77.27130 0.21930 0.31600 2.04580 48.29040 0.34840 0.26410 -999.25 2101.66179
 2179.62480 -999.25 -999.25 100.88940 80.95750 0.21290 0.31610 2.06230 48.43590 0.36640 0.26380 -999.25 2101.81205
 2179.77720 -999.25 -999.25 105.42510 84.45110 0.17360 0.31470 2.07490 48.55720 0.33730 0.27730 -999.25 2101.96232
 2179.92960 -999.25 -999.25 98.63920 88.27480 0.17400 0.30420 2.08920 48.55720 0.31330 0.26940 -999.25 2102.11259
 2180.08200 -999.25 -999.25 98.80120 84.69870 0.17170 0.30110 2.09050 48.58080 0.37780 0.26120 -999.25 2102.26285
 2180.23440 -999.25 -999.25 104.80560 81.67270 0.20520 0.31450 2.07560 48.98060 0.31940 0.27390 -999.25 2102.41312
 2180.38680 -999.25 -999.25 96.55580 77.65650 0.21700 0.31700 2.05800 48.98060 0.33500 0.27070 -999.25 2102.56338
 2180.53920 -999.25 -999.25 98.30640 79.30700 0.19120 0.34470 2.03770 48.98060 0.30830 0.27760 -999.25 2102.71365
 2180.69160 -999.25 -999.25 100.36020 81.75520 0.18730 0.30300 2.03540 48.98060 0.34550 0.25470 -999.25 2102.86392
 2180.84400 -999.25 -999.25 99.59640 84.78120 0.18390 0.31820 2.02660 48.98060 0.30980 0.27700 -999.25 2103.01418
 2180.99640 -999.25 -999.25 99.20470 84.50610 0.21180 0.31990 2.03880 49.33740 0.32000 0.25760 -999.25 2103.16445
 2181.14880 -999.25 -999.25 98.67350 83.24070 0.20430 0.31620 2.04490 49.43310 0.34410 0.26980 -999.25 2103.31472
 2181.30120 -999.25 -999.25 99.97340 82.49800 0.20490 0.32360 2.06120 49.42500 0.33800 0.26460 -999.25 2103.46498
 2181.45360 -999.25 -999.25 99.38140 82.03030 0.19430 0.30960 2.05690 48.98060 0.30760 0.27300 -999.25 2103.61525
 2181.60600 -999.25 -999.25 105.61170 81.67270 0.19790 0.31410 2.05180 48.98590 0.30860 0.28500 -999.25 2103.76552
 2181.75840 -999.25 -999.25 105.94450 80.84750 0.19820 0.30680 2.04350 48.99360 0.31810 0.26180 -999.25 2103.91578
 2181.91080 -999.25 -999.25 104.17440 82.03030 0.19480 0.32150 2.04560 49.20690 0.31210 0.25030 -999.25 2104.06605
 2182.06320 -999.25 -999.25 101.32230 84.67120 0.20520 0.30800 2.03150 49.43310 0.31030 0.26540 -999.25 2104.21632
 2182.21560 -999.25 -999.25 100.36020 87.77960 0.18980 0.30700 2.01720 49.41740 0.34460 0.26370 -999.25 2104.36658
 2182.36800 -999.25 -999.25 99.63570 88.71490 0.20960 0.30970 2.01200 49.42770 0.34850 0.25400 -999.25 2104.51685
 2182.52040 -999.25 -999.25 100.83540 87.44950 0.18340 0.30730 2.01430 49.43310 0.31970 0.25950 -999.25 2104.66711
 2182.67280 -999.25 -999.25 103.40570 83.51580 0.20100 0.31900 2.01820 49.43310 0.32860 0.27570 -999.25 2104.81738
 2182.82520 -999.25 -999.25 100.67340 78.81180 0.18470 0.31200 2.01210 49.43310 0.32390 0.25470 -999.25 2104.96765
 2182.97760 -999.25 -999.25 97.13120 73.39270 0.22080 0.29800 2.02980 50.34120 0.32410 0.22740 -999.25 2105.11791
 2183.13000 -999.25 -999.25 98.64410 71.27450 0.22510 0.29460 2.03860 50.33780 0.32850 0.24700 -999.25 2105.26831
 2183.28240 -999.25 -999.25 98.91600 72.09980 0.21600 0.31560 2.04010 50.39820 0.32040 0.28310 -999.25 2105.41873
 2183.43480 -999.25 -999.25 102.15490 76.03350 0.17180 0.32290 2.03340 50.79630 0.31440 0.25720 -999.25 2105.56915
 2183.58720 -999.25 -999.25 103.44990 79.52710 0.16490 0.29870 2.01660 50.79630 0.33220 0.25600 -999.25 2105.71957
 2183.73960 -999.25 -999.25 102.53190 79.99470 0.17590 0.29780 2.03880 50.98570 0.31770 0.26800 -999.25 2105.86999
 2183.89200 -999.25 -999.25 103.48420 79.08690 0.18320 0.32950 2.02500 51.28320 0.31560 0.27350 -999.25 2106.02040
 2184.04440 -999.25 -999.25 103.82690 77.98660 0.19230 0.31350 2.02930 51.28320 0.31240 0.28280 -999.25 2106.17082
 2184.19680 -999.25 -999.25 102.55160 81.56270 0.18700 0.31560 2.00600 51.56160 0.31370 0.25580 -999.25 2106.32124
 2184.34920 -999.25 -999.25 104.22840 82.93810 0.19390 0.31230 2.01370 51.43930 0.31390 0.27470 -999.25 2106.47166
 2184.50160 -999.25 -999.25 103.44000 83.95590 0.18130 0.31120 2.01810 51.25980 0.31680 0.26120 -999.25 2106.62208
 2184.65400 -999.25 -999.25 102.05670 82.77310 0.17640 0.31310 2.02760 51.63170 0.30900 0.24670 -999.25 2106.77250
 2184.80640 -999.25 -999.25 99.65040 85.33140 0.18920 0.31250 2.02690 51.36190 0.32020 0.26840 -999.25 2106.92292
 2184.95880 -999.25 -999.25 101.43040 85.33140 0.20670 0.32830 2.03100 51.28320 0.31620 0.27420 -999.25 2107.07334
 2185.11120 -999.25 -999.25 104.76750 84.14850 0.20920 0.30810 2.02120 51.28320 0.32490 0.25300 -999.25 2107.22375
 2185.26360 -999.25 -999.25 109.80290 81.31510 0.18740 0.31410 2.01810 51.73120 0.31210 0.27810 -999.25 2107.37417
 2185.41600 -999.25 -999.25 107.66070 82.49800 0.17800 0.29680 2.02180 51.28110 0.31770 0.26600 -999.25 2107.52459
 2185.56840 -999.25 -999.25 105.06590 84.58860 0.19630 0.29140 2.02450 51.34240 0.32530 0.25770 -999.25 2107.67501
 2185.72080 -999.25 -999.25 106.80660 85.68900 0.20160 0.31410 2.02430 51.63170 0.31520 0.27040 -999.25 2107.82543
 2185.87320 -999.25 -999.25 108.42940 83.21320 0.20540 0.29410 2.01670 51.26630 0.31400 0.26160 -999.25 2107.97585
 2186.02560 -999.25 -999.25 105.59700 79.99470 0.21760 0.32260 2.02720 51.46040 0.31700 0.25490 -999.25 2108.12627
 2186.17800 -999.25 -999.25 105.44290 78.81180 0.24790 0.29630 2.03680 51.55200 0.33430 0.24760 -999.25 2108.27669
 2186.33040 -999.25 -999.25 106.75260 79.99470 0.24580 0.31240 2.04050 51.28320 0.31750 0.24900 -999.25 2108.42710
 2186.48280 -999.25 -999.25 106.25770 79.27950 0.22690 0.28280 2.03650 51.56160 0.32390 0.26050 -999.25 2108.57752
 2186.63520 -999.25 -999.25 101.71900 78.53680 0.21500 0.30770 2.03990 51.45420 0.32690 0.26080 -999.25 2108.72794
 2186.78760 -999.25 -999.25 101.13380 80.48990 0.22260 0.31190 2.03900 51.26630 0.33350 0.25980 -999.25 2108.87836
 2186.94000 -999.25 -999.25 100.38970 84.69870 0.21180 0.30980 2.05180 51.64960 0.30820 0.26600 -999.25 2109.02878
 2187.09240 -999.25 -999.25 100.87470 86.81680 0.19530 0.28670 2.04660 51.34640 0.33180 0.26230 -999.25 2109.17920
 2187.24480 -999.25 -999.25 105.05610 83.87340 0.18640 0.29720 2.04750 51.25980 0.33330 0.26180 -999.25 2109.32962
 2187.39720 -999.25 -999.25 106.40990 81.67270 0.18390 0.32640 2.02140 51.28200 0.31070 0.28060 -999.25 2109.48004
 2187.54960 -999.25 -999.25 107.71960 82.03030 0.18390 0.31450 2.00970 51.73120 0.31890 0.27130 -999.25 2109.63046
 2187.70200 -999.25 -999.25 107.33770 84.97380 0.19090 0.31420 1.99650 51.28320 0.34590 0.25730 -999.25 2109.78087
 2187.85440 -999.25 -999.25 107.12960 85.99160 0.20180 0.30710 2.01070 51.36190 0.33420 0.26660 -999.25 2109.93129
 2188.00680 -999.25 -999.25 106.41980 82.14040 0.23620 0.30090 2.01470 51.63750 0.31470 0.28470 -999.25 2110.08171
 2188.15920 -999.25 -999.25 108.07210 78.17910 0.21940 0.31570 2.02080 51.27670 0.35780 0.25310 -999.25 2110.23213
 2188.31160 -999.25 -999.25 106.34120 76.52860 0.21580 0.30400 2.00050 51.45470 0.34730 0.25210 -999.25 2110.38255
 2188.46400 -999.25 -999.25 105.01190 80.73740 0.20170 0.30440 1.98860 51.55550 0.35460 0.27170 -999.25 2110.53297
 2188.61640 -999.25 -999.25 104.62500 85.24880 0.21300 0.31390 1.98030 51.27150 0.29970 0.26000 -999.25 2110.68339
 2188.76880 -999.25 -999.25 104.31190 89.54020 0.23530 0.31380 1.97780 51.54300 0.33140 0.25360 -999.25 2110.83381
 2188.92120 -999.25 -999.25 106.67890 90.09040 0.24030 0.30100 1.97180 51.46690 0.30440 0.25840 -999.25 2110.98422
 2189.07360 -999.25 -999.25 103.44990 89.43010 0.23080 0.30340 1.93390 51.28320 0.30960 0.26210 -999.25 2111.13464
 2189.22600 -999.25 -999.25 102.55160 87.22950 0.19650 0.29070 1.92620 51.63750 0.40370 0.30620 -999.25 2111.28506
 2189.37840 -999.25 -999.25 104.24800 85.66150 0.19070 0.29020 1.91000 51.36190 0.41120 0.31040 -999.25 2111.43548
 2189.53080 -999.25 -999.25 104.28240 86.12910 0.19250 0.31440 1.95330 51.69860 0.32520 0.27070 -999.25 2111.58590
 2189.68320 -999.25 -999.25 105.58720 88.24730 0.20340 0.31780 1.98030 51.75560 0.33820 0.27490 -999.25 2111.73632
