~Version ---------------------------------------------------
VERS. 2.0 : CWLS log ASCII Standard -VERSION 2.0
WRAP.  NO : One line per depth step
~Well ------------------------------------------------------
STRT     .M           239.8776 : START
STOP     .M          4186.7328 : STOP
STEP     .M 0.1524000000000001 : STEP
NULL     .             -999.25 : NULL VALUE
COMP     .        STATOILHYDRO : COMPANY
WELL     .           15/9-F-12 : WELL
FLD      .               VOLVE : FIELD
LOC      .             UNKNOWN : LOCATION
CNTY     .             UNKNOWN : COUNTY
STAT     .             UNKNOWN : STATE
CTRY     .              Norway : COUNTRY
SRVC     .             UNKNOWN : SERVICE COMPANY
DATE     .             UNKNOWN : LOG DATE
UWI      .        NO 15/9-F-12 : UNIQUE WELL ID
XCOORD   .           435050.17 : SURFACE X
YCOORD   .           6478574.7 : SURFACE Y
LAT      .           58.441713 : LATITUDE
LON      .             1.88748 : LONGITUDE
ELEV     .M               54.9 : SURFACE ELEV
ELEV_TYPE.                  KB : ELEV TYPE
~Curve Information -----------------------------------------
DEPTH    .M           UNKNOWN : Measured Depth
CARB_FLAG.UNKNOWN     UNKNOWN : CARB_FLAG:UNKNOWN:rC:NONE:v1
COAL_FLAG.UNKNOWN     UNKNOWN : COAL_FLAG:UNKNOWN:rC:NONE:v1
DT       .us/ft       UNKNOWN : DT:UNKNOWN:rC:NONE:v2
GR       .API         UNKNOWN : GR:UNKNOWN:rC:NONE:v1
NPHI     .v/v_decimal UNKNOWN : NPHI:UNKNOWN:rC:NONE:v1
RD       .UNKNOWN     UNKNOWN : RD:UNKNOWN:rC:NONE:v1
RHOB     .g/cm3       UNKNOWN : RHOB:UNKNOWN:rC:NONE:v1
ROP5_RM  .UNKNOWN     UNKNOWN : ROP5_RM:UNKNOWN:rC:NONE:v1
RS       .UNKNOWN     UNKNOWN : RS:UNKNOWN:rC:NONE:v1
RT       .ohm.m       UNKNOWN : RT:UNKNOWN:rC:NONE:v1
SAND_FLAG.UNKNOWN     UNKNOWN : SAND_FLAG:UNKNOWN:rC:NONE:v1
TVD      .M                   : True Vertical Depth from PyLasMech
~Params ----------------------------------------------------
~Other -----------------------------------------------------
~ASCII -----------------------------------------------------
# ...
 1344.16800 -999.25 -999.25 -999.25 67.78740 0.90970 1.35600 -999.25 30.71230 14.26260 1.33330 -999.25 1320.64179
 1344.32040 -999.25 -999.25 -999.25 71.83500 0.90970 1.38460 -999.25 21.20770 31.35030 1.34980 -999.25 1320.78947
 1344.47280 -999.25 -999.25 -999.25 76.15770 0.90970 1.42070 -999.25 17.81250 22.29060 1.39030 -999.25 1320.93714
 1344.62520 -999.25 -999.25 -999.25 71.99220 0.90970 1.47880 -999.25 17.81250 19.30720 1.30840 -999.25 1321.08482
 1344.77760 -999.25 -999.25 -999.25 69.79150 0.90970 1.42850 -999.25 17.53350 15.52860 1.30310 -999.25 1321.23249
 1344.93000 -999.25 -999.25 -999.25 63.77900 0.90970 1.45000 -999.25 16.94420 21.70690 1.32480 -999.25 1321.38017
 1345.08240 -999.25 -999.25 -999.25 67.31580 0.90970 1.43380 -999.25 17.14570 28.59460 1.35750 -999.25 1321.52785
 1345.23480 -999.25 -999.25 -999.25 67.55160 0.90970 1.43800 -999.25 17.27970 39.47170 1.33940 -999.25 1321.67552
 1345.38720 -999.25 -999.25 -999.25 72.62090 0.90970 1.40450 -999.25 18.03520 22.02720 1.33520 -999.25 1321.82320
 1345.53960 -999.25 -999.25 -999.25 73.91770 0.90970 1.39450 -999.25 17.90480 64.70170 1.33490 -999.25 1321.97087
 1345.69200 -999.25 -999.25 -999.25 67.51230 0.90970 1.37670 -999.25 17.90900 22.43670 1.28620 -999.25 1322.11855
 1345.84440 -999.25 -999.25 -999.25 64.52570 0.90970 1.28880 -999.25 18.08560 2.70850 1.09190 -999.25 1322.26622
 1345.99680 -999.25 -999.25 -999.25 65.97970 0.90970 1.32770 -999.25 18.46790 7.28000 1.26080 -999.25 1322.41390
 1346.14920 -999.25 -999.25 -999.25 73.72130 0.90970 1.27310 -999.25 18.59960 14.53760 1.16340 -999.25 1322.56157
 1346.30160 -999.25 -999.25 -999.25 76.35420 0.90980 1.25200 -999.25 19.06600 12.18670 1.16430 -999.25 1322.70925
 1346.45400 -999.25 -999.25 -999.25 75.29320 0.90980 1.29700 -999.25 20.46550 14.05520 1.19440 -999.25 1322.85693
 1346.60640 -999.25 -999.25 -999.25 73.56410 0.90980 1.27730 -999.25 21.12930 14.84240 1.19720 -999.25 1323.00460
 1346.75880 -999.25 -999.25 -999.25 70.65610 0.90980 1.27230 -999.25 22.36670 11.49480 1.17810 -999.25 1323.15228
 1346.91120 -999.25 -999.25 -999.25 69.35930 0.90980 1.28840 -999.25 22.77420 15.63500 1.20140 -999.25 1323.29995
 1347.06360 -999.25 -999.25 -999.25 70.81330 0.90980 1.32710 -999.25 24.73500 16.26000 1.25000 -999.25 1323.44763
 1347.21600 -999.25 -999.25 -999.25 71.20620 0.90980 1.36190 -999.25 25.51640 16.17540 1.23720 -999.25 1323.59530
 1347.36840 -999.25 -999.25 -999.25 72.11010 0.90980 1.38490 -999.25 27.52060 14.47120 1.26810 -999.25 1323.74298
 1347.52080 -999.25 -999.25 -999.25 73.28900 0.90980 1.37920 -999.25 28.20050 16.74470 1.26270 -999.25 1323.89066
 1347.67320 -999.25 -999.25 -999.25 78.27970 0.90980 1.43340 -999.25 28.79530 18.59330 1.29800 -999.25 1324.03833
 1347.82560 -999.25 -999.25 -999.25 81.42350 0.90980 1.49740 -999.25 29.18440 16.66750 1.38520 -999.25 1324.18601
 1347.97800 -999.25 -999.25 -999.25 82.20950 0.90980 1.53690 -999.25 30.07490 20.06900 1.41040 -999.25 1324.33368
 1348.13040 -999.25 -999.25 -999.25 77.49380 0.90980 1.62030 -999.25 30.27030 27.24860 1.49550 -999.25 1324.48136
 1348.28280 -999.25 -999.25 -999.25 75.13600 0.90980 1.73370 -999.25 30.50760 80.28040 1.60760 -999.25 1324.62903
 1348.43520 -999.25 -999.25 -999.25 73.17110 0.90980 1.89100 -999.25 30.39990 1000.00000 1.93460 -999.25 1324.77671
 1348.58760 -999.25 -999.25 -999.25 75.92190 0.90980 1.90450 -999.25 30.31060 1000.00000 2.37200 -999.25 1324.92438
 1348.74000 -999.25 -999.25 -999.25 73.72130 0.90980 1.94430 -999.25 30.04660 1000.00000 3.34420 -999.25 1325.07206
 1348.89240 -999.25 -999.25 -999.25 71.87430 0.90990 1.92680 -999.25 28.97360 1000.00000 3.18990 -999.25 1325.21974
 1349.04480 -999.25 -999.25 -999.25 71.36340 0.90990 1.86360 -999.25 16.52500 1000.00000 2.65690 -999.25 1325.36741
 1349.19720 -999.25 -999.25 -999.25 71.36340 0.90990 1.82070 -999.25 16.52500 1000.00000 1.87930 -999.25 1325.51509
 1349.34960 -999.25 -999.25 -999.25 74.11420 0.78080 1.64510 -999.25 16.52500 18.95300 1.48610 -999.25 1325.66276
 1349.50200 -999.25 -999.25 -999.25 70.69540 0.68200 1.55160 -999.25 10.05670 11.23150 1.39010 -999.25 1325.81044
 1349.65440 -999.25 -999.25 -999.25 72.66020 0.60410 1.50640 -999.25 6.53370 8.91670 1.36640 -999.25 1325.95811
 1349.80680 -999.25 -999.25 -999.25 72.93530 0.61480 1.49930 -999.25 7.70280 11.97580 1.38070 -999.25 1326.10579
 1349.95920 -999.25 -999.25 -999.25 76.19700 0.62570 1.45110 2.23250 8.81270 9.69920 1.33460 -999.25 1326.25346
 1350.11160 -999.25 -999.25 -999.25 78.79060 0.62570 1.43140 2.31000 8.81270 11.46120 1.25400 -999.25 1326.40114
 1350.26400 -999.25 -999.25 -999.25 78.79060 0.62570 1.39150 2.16690 9.21940 0.34940 0.45570 -999.25 1326.54882
 1350.41640 -999.25 -999.25 -999.25 79.30150 0.39420 1.37100 1.84030 9.67470 0.11410 0.39800 -999.25 1326.69649
 1350.56880 -999.25 -999.25 -999.25 78.27970 0.45900 1.32180 1.68230 9.83350 0.18970 0.49600 -999.25 1326.84417
 1350.72120 -999.25 -999.25 -999.25 75.64680 0.45550 1.30780 1.48770 10.48970 0.20940 0.41350 -999.25 1326.99184
 1350.87360 -999.25 -999.25 -999.25 78.67270 0.50550 1.31950 1.73910 10.94880 0.18650 0.38140 -999.25 1327.13952
 1351.02600 -999.25 -999.25 -999.25 82.17020 0.45750 1.33510 2.03430 11.34990 0.22870 0.47690 -999.25 1327.28719
 1351.17840 -999.25 -999.25 -999.25 84.68520 0.46230 1.31450 2.36310 11.48560 0.27840 0.39810 -999.25 1327.43487
 1351.33080 -999.25 -999.25 -999.25 81.93440 0.44060 1.35910 2.31680 11.64020 0.37600 0.38320 -999.25 1327.58255
 1351.48320 -999.25 -999.25 -999.25 79.45870 0.60360 1.41880 2.33510 11.83670 0.53900 0.41880 -999.25 1327.73022
 1351.63560 -999.25 -999.25 -999.25 78.12260 0.51120 1.45230 2.28990 12.05290 0.39240 0.38640 -999.25 1327.87790
 1351.78800 -999.25 -999.25 -999.25 77.49380 0.52380 1.48300 2.28220 12.71520 0.38680 0.34830 -999.25 1328.02557
 1351.94040 -999.25 -999.25 -999.25 78.55480 0.54440 1.52710 2.30490 13.11070 0.35950 0.34070 -999.25 1328.17325
 1352.09280 -999.25 -999.25 -999.25 80.24460 0.48220 1.56600 2.39600 13.13400 0.33820 0.30760 -999.25 1328.32092
 1352.24520 -999.25 -999.25 -999.25 81.42350 0.53170 1.60830 2.31520 13.14900 0.37940 0.31010 -999.25 1328.46860
 1352.39760 -999.25 -999.25 -999.25 77.88680 0.48920 1.64310 1.91710 13.15710 0.36290 0.32490 -999.25 1328.61627
 1352.55000 -999.25 -999.25 -999.25 76.74720 0.47690 0.18640 1.66310 13.12560 0.33630 0.32160 -999.25 1328.76395
 1352.70240 -999.25 -999.25 -999.25 -999.25 0.42690 0.18820 1.65130 12.84860 0.37460 0.31230 -999.25 1328.91163
 1352.85480 -999.25 -999.25 -999.25 81.52240 0.41480 0.19540 1.64250 12.79750 0.33990 0.28680 -999.25 1329.05930
 1353.00720 -999.25 -999.25 -999.25 81.52240 0.39260 0.18580 1.52830 12.72960 0.29360 0.31560 -999.25 1329.20698
 1353.15960 -999.25 -999.25 -999.25 81.52240 0.33290 0.17780 1.84920 12.73000 0.37830 0.31560 -999.25 1329.35465
 1353.31200 -999.25 -999.25 -999.25 81.52240 0.34330 0.18000 2.03780 12.96010 0.32490 0.32200 -999.25 1329.50233
 1353.46440 -999.25 -999.25 -999.25 81.52240 0.36750 0.17670 2.29830 13.09470 0.31890 0.32160 -999.25 1329.65000
 1353.61680 -999.25 -999.25 -999.25 81.52240 0.32910 0.17650 1.95450 13.37240 0.33860 0.32590 -999.25 1329.79768
 1353.76920 -999.25 -999.25 -999.25 81.52240 0.34950 0.17740 1.71910 13.25290 0.31590 0.32010 -999.25 1329.94535
 1353.92160 -999.25 -999.25 -999.25 81.52240 0.42220 0.18220 1.56860 13.19300 0.35610 0.31770 -999.25 1330.09303
 1354.07400 -999.25 -999.25 -999.25 81.52240 0.43250 0.18480 1.51890 13.37710 0.36860 0.29130 -999.25 1330.24071
 1354.22640 -999.25 -999.25 -999.25 81.52240 0.43180 0.17950 1.53280 13.39240 0.34030 0.31680 -999.25 1330.38838
 1354.37880 -999.25 -999.25 -999.25 81.52240 0.33250 0.17650 1.80570 13.28460 0.37510 0.30700 -999.25 1330.53606
 1354.53120 -999.25 -999.25 -999.25 81.52240 0.37290 0.17250 1.68810 13.28460 0.33520 0.32160 -999.25 1330.68373
 1354.68360 -999.25 -999.25 -999.25 81.52240 0.41910 0.17690 1.70360 13.29480 0.37960 0.31380 -999.25 1330.83141
 1354.83600 -999.25 -999.25 -999.25 81.52240 0.43380 0.17830 1.61860 13.28600 0.38600 0.32020 -999.25 1330.97908
