~Version ---------------------------------------------------
VERS     .                             2.0 : CWLS log ASCII Standard -VERSION 2.0
WRAP     .                              NO : One Line per depth step
PROD     .                    Schlumberger : LAS Producer
PROG     .               DLIS to ASCII 2.3 : LAS Program name and version
CREA     .                   2019/04/03 19 : 51                          :LAS Creation date {YYYY/MM/DD hh:mm}
DLIS_CREA.                  2009-Feb-18 14 : 44                          :DLIS Creation date and time {YYYY-MMM-DD hh:mm}
SOURCE   . WLC_PETRO_COMPUTED_INPUT_1.DLIS : DLIS File Name
FILE-ID  .                   INPUT.logdata : File Identification Number
~Well ------------------------------------------------------
STRT.F                 1382.0 : START DEPTH
STOP.F                12441.0 : STOP DEPTH
STEP.F                    0.5 : STEP
NULL.                 -999.25 : NULL VALUE
COMP.                         : COMPANY
WELL.                15/9-F-5 : WELL
FLD .                   VOLVE : FIELD
LOC .                         : LOCATION
CNTY.         MAERSK INSPIRER : COUNTY
STAT.                         : STATE
CTRY.                         : COUNTRY
API .                         : API NUMBER
UWI .                         : UNIQUE WELL ID
DATE.                         : LOG DATE
SRVC. CROCKER DATA PROCESSING : SERVICE COMPANY
LATI.DEG                      : LATITUDE
LONG.DEG                      : LONGITUDE
GDAT.                         : GeoDetic Datum
~Curve Information -----------------------------------------
DEPTH.F            : DEPTH (BOREHOLE) {F10.1}
DEPTH..1IN         : Measured Depth {I11}
CALI .INCHES       : CALI:UNKNOWN:rC:NONE:v1 {F13.4}
DRHO .G/C3         : DRHO:UNKNOWN:rC:NONE:v1 {F13.4}
DT   .US/F         : DT:UNKNOWN:rC:NONE:v1 {F13.4}
GR   .API          : GR:UNKNOWN:rC:NONE:v1 {F13.4}
NPHI .V/V_DECIMAL  : NPHI:UNKNOWN:rC:NONE:v1 {F13.4}
RD   .UNKNOWN      : RD:UNKNOWN:rC:NONE:v1 {F13.4}
RHOB .G/C3         : RHOB:UNKNOWN:rC:NONE:v1 {F13.4}
RS   .UNKNOWN      : RS:UNKNOWN:rC:NONE:v1 {F13.4}
RT   .OHMM         : RT:UNKNOWN:rC:NONE:v1 {F13.4}
TVD  .M            : True Vertical Depth from PyLasMech
~Params ----------------------------------------------------
WN  .        15/9-F-5 : Well Name
FN  .           VOLVE : Field
CTRY.          NORWAY : Country
COUN. MAERSK INSPIRER : County or Rig name
PDAT.             MSL : Perm. Datum
ELZ .M            0.0 : Elev. Log Zero (wrt EPD)
RUN .                 : RUN NUMBER
EPD .                 : Elevation of Permanent Datum above Mean Sea Level
LMF .                 : Logging Measured From (Name of Logging Elevation Reference)
APD .                 : Elevation of Depth Reference (LMF) above Permanent Datum
~Other -----------------------------------------------------
~ASCII -----------------------------------------------------
# ...
 9260.50000 1111260.00000 -999.25 -999.25 -999.25 32.04800 -999.25 -999.25 -999.25 0.29200 0.29200 2524.27261
 9261.00000 1111320.00000 -999.25 -999.25 -999.25 32.61400 -999.25 -999.25 -999.25 0.28550 0.28550 2524.40354
 9261.50000 1111380.00000 -999.25 -999.25 -999.25 33.18000 -999.25 -999.25 -999.25 0.27900 0.27900 2524.53446
 9262.00000 1111440.00000 -999.25 -999.25 -999.25 33.18000 -999.25 -999.25 -999.25 0.27000 0.25000 2524.66538
 9262.50000 1111500.00000 -999.25 -999.25 -999.25 37.69300 -999.25 -999.25 -999.25 0.26250 0.25250 2524.79630
 9263.00000 1111560.00000 -999.25 -999.25 -999.25 42.20600 -999.25 -999.25 -999.25 0.25500 0.25500 2524.92723
 9263.50000 1111620.00000 -999.25 -999.25 -999.25 38.48800 -999.25 -999.25 -999.25 0.25500 0.27350 2525.05815
 9264.00000 1111680.00000 -999.25 -999.25 -999.25 40.32900 -999.25 -999.25 -999.25 0.29200 0.29200 2525.18907
 9264.50000 1111740.00000 -999.25 -999.25 -999.25 42.20600 -999.25 -999.25 -999.25 0.29200 0.27900 2525.31999
 9265.00000 1111800.00000 -999.25 -999.25 -999.25 36.68300 -999.25 -999.25 -999.25 0.26600 0.25500 2525.45092
 9265.50000 1111860.00000 -999.25 -999.25 -999.25 40.32900 -999.25 -999.25 -999.25 0.27900 0.30500 2525.58184
 9266.00000 1111920.00000 -999.25 -999.25 -999.25 38.48800 -999.25 -999.25 -999.25 0.27900 0.29850 2525.71276
 9266.50000 1111980.00000 -999.25 -999.25 -999.25 39.40850 -999.25 -999.25 -999.25 0.27900 0.29200 2525.84368
 9267.00000 1112040.00000 -999.25 -999.25 -999.25 40.32900 -999.25 -999.25 -999.25 0.23300 0.26600 2525.97461
 9267.50000 1112100.00000 -999.25 -999.25 -999.25 40.32900 -999.25 -999.25 -999.25 0.23300 0.25450 2526.10553
 9268.00000 1112160.00000 -999.25 -999.25 -999.25 37.62100 -999.25 -999.25 -999.25 0.23300 0.24300 2526.23645
 9268.50000 1112220.00000 -999.25 -999.25 -999.25 34.91300 -999.25 -999.25 -999.25 0.24300 0.27900 2526.36737
 9269.00000 1112280.00000 -999.25 -999.25 -999.25 34.91300 -999.25 -999.25 -999.25 0.24300 0.27900 2526.49830
 9269.50000 1112340.00000 -999.25 -999.25 -999.25 35.79800 -999.25 -999.25 -999.25 0.24300 0.27900 2526.62922
 9270.00000 1112400.00000 -999.25 -999.25 -999.25 36.68300 -999.25 -999.25 -999.25 0.25500 0.29200 2526.76014
 9270.50000 1112460.00000 -999.25 -999.25 -999.25 34.91300 -999.25 -999.25 -999.25 0.26700 0.30550 2526.89106
 9271.00000 1112520.00000 -999.25 -999.25 -999.25 34.91300 -999.25 -999.25 -999.25 0.27900 0.31900 2527.02199
 9271.50000 1112580.00000 -999.25 -999.25 -999.25 34.91300 -999.25 -999.25 -999.25 0.26600 0.25500 2527.15291
 9272.00000 1112640.00000 -999.25 -999.25 -999.25 40.32900 -999.25 -999.25 -999.25 0.24400 0.24900 2527.28383
 9272.50000 1112700.00000 -999.25 -999.25 -999.25 41.26750 -999.25 -999.25 -999.25 0.22200 0.24300 2527.41475
 9273.00000 1112760.00000 -999.25 -999.25 -999.25 42.20600 -999.25 -999.25 -999.25 0.20300 0.26600 2527.54568
 9273.50000 1112820.00000 -999.25 -999.25 -999.25 48.05000 -999.25 -999.25 -999.25 0.22300 0.26600 2527.67660
 9274.00000 1112880.00000 -999.25 -999.25 -999.25 45.12800 -999.25 -999.25 -999.25 0.24300 0.26600 2527.80752
 9274.50000 1112940.00000 -999.25 -999.25 -999.25 42.20600 -999.25 -999.25 -999.25 0.26600 0.27900 2527.93844
 9275.00000 1113000.00000 -999.25 -999.25 -999.25 44.11800 -999.25 -999.25 -999.25 0.26600 0.27250 2528.06937
 9275.50000 1113060.00000 -999.25 -999.25 -999.25 39.51550 -999.25 -999.25 -999.25 0.26600 0.26600 2528.20029
 9276.00000 1113120.00000 -999.25 -999.25 -999.25 34.91300 -999.25 -999.25 -999.25 0.26600 0.27900 2528.33121
 9276.50000 1113180.00000 -999.25 -999.25 -999.25 33.18000 -999.25 -999.25 -999.25 0.27900 0.29200 2528.46214
 9277.00000 1113240.00000 -999.25 -999.25 -999.25 34.04650 -999.25 -999.25 -999.25 0.29200 0.30500 2528.59306
 9277.50000 1113300.00000 -999.25 -999.25 -999.25 34.91300 -999.25 -999.25 -999.25 0.29200 0.29200 2528.72398
 9278.00000 1113360.00000 -999.25 -999.25 -999.25 36.68300 -999.25 -999.25 -999.25 0.29200 0.28550 2528.85490
 9278.50000 1113420.00000 -999.25 -999.25 -999.25 34.93150 -999.25 -999.25 -999.25 0.29200 0.27900 2528.98583
 9279.00000 1113480.00000 -999.25 -999.25 -999.25 33.18000 -999.25 -999.25 -999.25 0.27900 0.29200 2529.11675
 9279.50000 1113540.00000 -999.25 -999.25 -999.25 38.48800 -999.25 -999.25 -999.25 0.31400 0.33700 2529.24767
 9280.00000 1113600.00000 -999.25 -999.25 -999.25 43.26900 -999.25 -999.25 -999.25 0.34900 0.38200 2529.37859
 9280.50000 1113660.00000 -999.25 -999.25 -999.25 48.05000 -999.25 -999.25 -999.25 0.33400 0.34900 2529.50952
 9281.00000 1113720.00000 -999.25 -999.25 -999.25 46.06600 -999.25 -999.25 -999.25 0.32650 0.33400 2529.64044
 9281.50000 1113780.00000 -999.25 -999.25 -999.25 53.38500 -999.25 -999.25 -999.25 0.31900 0.31900 2529.77136
 9282.00000 1113840.00000 -999.25 -999.25 -999.25 60.70400 -999.25 -999.25 -999.25 0.36500 0.40000 2529.90228
 9282.50000 1113900.00000 -999.25 -999.25 -999.25 56.34300 -999.25 -999.25 -999.25 0.36500 0.37450 2530.03321
 9283.00000 1113960.00000 -999.25 -4486.75130 -999.25 50.23050 -4486.53540 -999.25 -4492.29770 0.36500 0.34900 2530.16413
 9283.50000 1114020.00000 -999.25 0.52000 -999.25 44.11800 0.45810 -999.25 2.11000 0.40000 0.40000 2530.29502
 9284.00000 1114080.00000 -999.25 0.52000 -999.25 38.48800 0.45810 -999.25 2.11000 0.42900 0.43950 2530.42581
 9284.50000 1114140.00000 -999.25 0.52000 -999.25 35.83400 0.45810 -999.25 2.11000 0.45800 0.47900 2530.55660
 9285.00000 1114200.00000 -999.25 0.52000 -999.25 33.18000 0.45810 -999.25 2.11000 0.47900 0.47900 2530.68739
 9285.50000 1114260.00000 -999.25 0.52000 -999.25 34.91300 0.45810 -999.25 2.11000 0.47900 0.46850 2530.81818
 9286.00000 1114320.00000 -999.25 0.52000 -999.25 34.91300 0.45810 -999.25 2.11000 0.47900 0.45800 2530.94897
 9286.50000 1114380.00000 -999.25 0.52000 -999.25 34.91300 0.45810 -999.25 2.11000 0.43800 0.36500 2531.07977
 9287.00000 1114440.00000 -999.25 0.52000 -999.25 36.68300 0.45810 -999.25 2.11000 0.38600 0.34200 2531.21056
 9287.50000 1114500.00000 -999.25 0.52000 -999.25 42.36650 0.45810 -999.25 2.11000 0.33400 0.31900 2531.34135
 9288.00000 1114560.00000 -999.25 0.52000 -999.25 48.05000 0.45810 -999.25 2.11000 0.30500 0.29200 2531.47214
 9288.50000 1114620.00000 -999.25 0.52000 -999.25 48.05000 0.45810 -999.25 2.11000 0.28550 0.28550 2531.60293
 9289.00000 1114680.00000 -999.25 0.52000 -999.25 45.12800 0.45810 -999.25 2.11000 0.26600 0.27900 2531.73373
 9289.50000 1114740.00000 -999.25 0.52000 -999.25 42.20600 0.45810 -999.25 2.11000 0.27900 0.27900 2531.86452
 9290.00000 1114800.00000 -999.25 0.52000 -999.25 40.36500 0.45810 -999.25 2.11000 0.27900 0.25600 2531.99531
 9290.50000 1114860.00000 -999.25 0.52000 -999.25 38.52400 0.45810 -999.25 2.11000 0.27900 0.23300 2532.12610
 9291.00000 1114920.00000 -999.25 0.52000 -999.25 36.68300 0.45810 -999.25 2.11000 0.26600 0.26600 2532.25689
 9291.50000 1114980.00000 -999.25 0.52000 -999.25 34.91300 0.45810 -999.25 2.11000 0.27250 0.27900 2532.38769
 9292.00000 1115040.00000 -999.25 0.52000 -999.25 38.55950 0.45810 -999.25 2.11000 0.27900 0.29200 2532.51848
 9292.50000 1115100.00000 -999.25 0.52000 -999.25 42.20600 0.45810 -999.25 2.11000 0.29200 0.25500 2532.64927
 9293.00000 1115160.00000 -999.25 0.52000 -999.25 38.48800 0.45810 -999.25 2.11000 0.27900 0.26050 2532.78006
 9293.50000 1115220.00000 -999.25 0.52000 -999.25 41.30300 0.45810 -999.25 2.11000 0.26600 0.26600 2532.91085
 9294.00000 1115280.00000 -999.25 0.52000 -999.25 44.11800 0.45810 -999.25 2.11000 0.29200 0.27900 2533.04165
 9294.50000 1115340.00000 -999.25 0.52000 -999.25 42.20600 0.45810 -999.25 2.11000 0.29200 0.28550 2533.17244
 9295.00000 1115400.00000 -999.25 0.52000 -999.25 41.26750 0.45810 -999.25 2.11000 0.29200 0.29200 2533.30323
 9295.50000 1115460.00000 -999.25 0.52000 -999.25 40.32900 0.45810 -999.25 2.11000 0.29200 0.30500 2533.43402
 9296.00000 1115520.00000 -999.25 0.52000 -999.25 38.48800 0.45810 -999.25 2.11000 0.29850 0.31200 2533.56481
 9296.50000 1115580.00000 -999.25 0.52000 -999.25 38.48800 0.45810 -999.25 2.11000 0.30500 0.31900 2533.69561
