~Version ---------------------------------------------------
VERS     .                             2.0 : CWLS log ASCII Standard -VERSION 2.0
WRAP     .                              NO : One Line per depth step
PROD     .                    Schlumberger : LAS Producer
PROG     .               DLIS to ASCII 2.3 : LAS Program name and version
CREA     .                   2019/04/03 19 : 50                          :LAS Creation date {YYYY/MM/DD hh:mm}
DLIS_CREA.                  2009-Feb-18 14 : 26                          :DLIS Creation date and time {YYYY-MMM-DD hh:mm}
SOURCE   . WLC_PETRO_COMPUTED_INPUT_1.DLIS : DLIS File Name
FILE-ID  .                   INPUT.logdata : File Identification Number
~Well ------------------------------------------------------
STRT.F                  657.0 : START DEPTH
STOP.F                11567.5 : STOP DEPTH
STEP.F                    0.5 : STEP
NULL.                 -999.25 : NULL VALUE
COMP.            STATOILHYDRO : COMPANY
WELL.                15/9-F-4 : WELL
FLD .                   VOLVE : FIELD
LOC .                         : LOCATION
CNTY.         MAERSK INSPIRER : COUNTY
STAT.                         : STATE
CTRY.                         : COUNTRY
API .                         : API NUMBER
UWI .                         : UNIQUE WELL ID
DATE.                         : LOG DATE
SRVC. CROCKER DATA PROCESSING : SERVICE COMPANY
LATI.DEG                      : LATITUDE
LONG.DEG                      : LONGITUDE
GDAT.                         : GeoDetic Datum
~Curve Information -----------------------------------------
DEPTH.F            : DEPTH (BOREHOLE) {F10.1}
DEPTH..1IN         : {I11}
DT   .US/F         : {F13.4}
DTS  .US/F         : {F13.4}
GR   .API          : {F13.4}
NPHI .V/V_DECIMAL  : {F13.4}
RD   .UNKNOWN      : {F13.4}
RHOB .G/C3         : {F13.4}
RS   .UNKNOWN      : {F13.4}
RT   .OHMM         : {F13.4}
TVD  .M            : True Vertical Depth from PyLasMech
~Params ----------------------------------------------------
CN  .    STATOILHYDRO : Company
WN  .        15/9-F-4 : Well Name
FN  .           VOLVE : Field
CTRY.          NORWAY : Country
COUN. MAERSK INSPIRER : County or Rig name
PDAT.             MSL : Perm. Datum
ELZ .M            0.0 : Elev. Log Zero (wrt EPD)
RUN .                 : RUN NUMBER
EPD .                 : Elevation of Permanent Datum above Mean Sea Level
LMF .                 : Logging Measured From (Name of Logging Elevation Reference)
APD .                 : Elevation of Depth Reference (LMF) above Permanent Datum
~Other -----------------------------------------------------
~ASCII -----------------------------------------------------
# ...
 10785.50000 1294260.00000 57.57270 122.81600 39.31330 0.10920 7.29430 2.65580 6.05140 5.38640 -999.25
 10786.00000 1294320.00000 53.35800 124.32940 36.77490 0.10110 6.41780 2.65150 5.81160 5.15560 -999.25
 10786.50000 1294380.00000 54.56240 126.98830 34.98890 0.10260 4.99800 2.64500 5.31620 4.81440 -999.25
 10787.00000 1294440.00000 58.62260 129.64730 34.18690 0.09830 4.40310 2.62410 4.69000 4.31850 -999.25
 10787.50000 1294500.00000 56.59740 132.30630 37.69670 0.10500 3.93120 2.57450 4.42410 4.28150 -999.25
 10788.00000 1294560.00000 62.63980 135.46340 39.99010 0.11610 3.58870 2.51630 4.00840 4.27260 -999.25
 10788.50000 1294620.00000 67.92690 141.37490 45.07080 0.15010 3.33510 2.47010 3.60710 4.32470 -999.25
 10789.00000 1294680.00000 80.70060 148.79200 49.63020 0.16330 3.13810 2.51070 2.99120 4.44570 -999.25
 10789.50000 1294740.00000 83.26940 150.10740 54.25280 0.19330 2.77970 2.54480 2.27370 4.68510 -999.25
 10790.00000 1294800.00000 84.92300 151.42280 56.76550 0.20540 2.50860 2.56610 1.85010 3.67520 -999.25
 10790.50000 1294860.00000 82.57620 152.10970 54.31260 0.22030 2.47930 2.51640 1.51510 2.50930 -999.25
 10791.00000 1294920.00000 79.29170 150.89220 51.23270 0.22040 2.43690 2.48910 1.43140 2.13600 -999.25
 10791.50000 1294980.00000 74.55170 148.61770 48.40320 0.21410 2.25340 2.50170 1.37870 1.62790 -999.25
 10792.00000 1295040.00000 74.09620 144.81690 48.19350 0.20140 2.28740 2.51260 1.32660 1.51040 -999.25
 10792.50000 1295100.00000 76.69470 140.02890 48.93610 0.19600 1.73290 2.50860 1.21420 2.31790 -999.25
 10793.00000 1295160.00000 76.80180 136.76680 45.53650 0.18110 2.01850 2.48630 1.16250 1.58360 -999.25
 10793.50000 1295220.00000 78.05070 138.15020 44.62020 0.19000 2.38190 2.47870 1.15010 1.28280 -999.25
 10794.00000 1295280.00000 80.49470 140.54780 45.13830 0.19610 2.60800 2.48190 1.23460 1.18770 -999.25
 10794.50000 1295340.00000 79.14220 141.46940 48.04490 0.19630 2.46390 2.48680 1.37230 1.50790 -999.25
 10795.00000 1295400.00000 72.26990 142.55700 46.17990 0.17660 2.79700 2.50150 1.78120 2.55460 -999.25
 10795.50000 1295460.00000 69.49730 141.73970 42.19860 0.15530 3.46920 2.53390 2.52420 3.29820 -999.25
 10796.00000 1295520.00000 66.64780 133.94110 35.91230 0.12290 3.80350 2.57960 5.01700 4.99180 -999.25
 10796.50000 1295580.00000 61.77460 124.52850 30.39390 0.10970 4.26770 2.60900 8.52220 9.69970 -999.25
 10797.00000 1295640.00000 57.47460 119.76010 25.45760 0.08680 4.28710 2.62680 8.98560 13.37660 -999.25
 10797.50000 1295700.00000 55.38890 122.33540 22.65840 0.07310 4.72120 2.62580 7.41870 16.26190 -999.25
 10798.00000 1295760.00000 58.11590 118.65230 21.91990 0.07330 4.84370 2.59060 6.60650 11.54020 -999.25
 10798.50000 1295820.00000 56.66540 115.38510 22.94690 0.07880 4.95420 2.54180 7.61060 9.55740 -999.25
 10799.00000 1295880.00000 59.40330 114.24570 26.31310 0.07020 5.62650 2.55380 7.18550 9.93450 -999.25
 10799.50000 1295940.00000 63.41480 115.82420 31.02530 0.08960 6.14060 2.37390 6.30440 10.22850 -999.25
 10800.00000 1296000.00000 65.99430 117.40880 33.56350 0.11980 6.69740 2.39180 5.06740 6.50910 -999.25
 10800.50000 1296060.00000 63.65930 119.17550 35.17970 0.12960 10.68870 2.38040 4.09840 3.22100 -999.25
 10801.00000 1296120.00000 65.04730 121.38380 34.85010 0.11360 5.92400 2.58400 3.67370 5.08460 -999.25
 10801.50000 1296180.00000 67.22820 123.71260 34.37440 0.12250 5.82200 2.60400 3.58500 4.85890 -999.25
 10802.00000 1296240.00000 71.65820 126.64440 33.18450 0.13250 6.83910 2.60760 3.07050 5.25740 -999.25
 10802.50000 1296300.00000 77.08600 130.32760 33.00550 0.15290 7.91710 2.50590 3.04480 3.87180 -999.25
 10803.00000 1296360.00000 81.43530 134.86340 31.91710 0.16830 19.14190 2.37710 3.05050 1.32140 -999.25
 10803.50000 1296420.00000 80.34870 142.98660 29.33660 0.18490 13.24240 2.24580 6.20030 6.65740 -999.25
 10804.00000 1296480.00000 83.80250 152.12760 24.80340 0.20530 14.99680 2.18650 8.57890 13.75860 -999.25
 10804.50000 1296540.00000 85.31710 154.43040 21.98510 0.20510 18.20690 2.14470 11.52610 61.70060 -999.25
 10805.00000 1296600.00000 84.53230 156.17110 20.38820 0.22180 17.85800 2.12460 21.49650 95.29890 -999.25
 10805.50000 1296660.00000 88.03120 157.64740 19.30200 0.22270 18.14890 2.12280 48.49860 78.57240 -999.25
 10806.00000 1296720.00000 93.22040 158.36810 17.62740 0.22110 28.22360 2.11340 68.11370 178.55160 -999.25
 10806.50000 1296780.00000 91.98560 158.71040 16.55670 0.22020 36.51850 2.14530 76.97370 152.05800 -999.25
 10807.00000 1296840.00000 88.08340 158.42030 16.47490 0.22060 34.77330 2.15000 54.22190 110.95820 -999.25
 10807.50000 1296900.00000 88.11720 156.72870 17.14950 0.22260 28.83480 2.16870 45.71020 86.63340 -999.25
 10808.00000 1296960.00000 88.53400 152.79400 17.47900 0.22890 26.44770 2.14030 44.50650 68.71300 -999.25
 10808.50000 1297020.00000 87.27880 152.89970 18.10860 0.21710 24.96500 2.14240 43.85270 59.92000 -999.25
 10809.00000 1297080.00000 86.65620 153.07500 19.43710 0.21190 24.60630 2.13230 45.44800 54.87760 -999.25
 10809.50000 1297140.00000 86.81980 153.37570 20.00420 0.21710 24.91860 2.12930 47.48910 52.52390 -999.25
 10810.00000 1297200.00000 86.82890 155.89990 20.30000 0.20210 25.86790 2.12700 49.88430 51.61220 -999.25
 10810.50000 1297260.00000 88.04390 158.73760 19.49420 0.20810 26.54940 2.13450 50.57570 51.64270 -999.25
 10811.00000 1297320.00000 89.89840 159.02620 19.47290 0.20840 27.06930 2.14710 51.17740 51.35700 -999.25
 10811.50000 1297380.00000 91.48920 158.16560 19.83280 0.21230 27.71310 2.15440 51.04300 52.64180 -999.25
 10812.00000 1297440.00000 91.66060 158.59700 18.94070 0.20970 28.61660 2.16320 51.65790 52.42010 -999.25
 10812.50000 1297500.00000 91.36650 159.47570 18.86920 0.21650 29.37040 2.15890 48.52110 50.65160 -999.25
 10813.00000 1297560.00000 92.67180 159.99470 18.25480 0.22190 30.25310 2.15640 48.54890 50.34120 -999.25
 10813.50000 1297620.00000 93.99950 160.28330 18.51230 0.22620 31.63130 2.15250 49.49790 51.15540 -999.25
 10814.00000 1297680.00000 94.11520 159.21130 18.36370 0.21180 31.80990 2.16200 48.12860 51.36520 -999.25
 10814.50000 1297740.00000 94.32670 157.73200 18.42090 0.20460 33.36710 2.15960 47.97920 50.42700 -999.25
 10815.00000 1297800.00000 93.24500 157.46000 19.14430 0.21780 34.78320 2.16160 46.12770 49.33900 -999.25
 10815.50000 1297860.00000 93.55670 163.62340 18.88960 0.22110 35.13640 2.15370 46.08260 48.94520 -999.25
 10816.00000 1297920.00000 93.78660 161.68100 18.53220 0.21280 36.07160 2.16080 43.76440 48.33130 -999.25
 10816.50000 1297980.00000 93.45660 160.15110 19.59000 0.19860 36.32500 2.18570 42.10400 47.62990 -999.25
 10817.00000 1298040.00000 91.83330 158.78060 19.75600 0.19680 36.22810 2.20350 40.70650 46.65020 -999.25
 10817.50000 1298100.00000 91.25790 158.52600 20.27990 0.20710 35.97220 2.21490 39.84160 40.90740 -999.25
 10818.00000 1298160.00000 90.05290 158.38480 17.00310 0.21490 38.57320 2.18680 34.95780 37.07830 -999.25
 10818.50000 1298220.00000 90.55490 158.14000 17.61590 0.21230 35.22510 2.16430 35.07390 38.14940 -999.25
 10819.00000 1298280.00000 92.68020 159.67060 17.12960 0.21550 34.04320 2.14000 30.13740 34.43670 -999.25
 10819.50000 1298340.00000 94.86260 161.68250 17.87980 0.22520 34.65490 2.13190 29.70140 35.98050 -999.25
 10820.00000 1298400.00000 96.47810 162.54460 18.21080 0.22990 32.86540 2.12770 32.19630 37.23390 -999.25
 10820.50000 1298460.00000 97.38140 163.44890 18.01730 0.22100 31.37800 2.12260 34.27730 36.93370 -999.25
 10821.00000 1298520.00000 98.26560 162.86790 19.93060 0.21600 31.30620 2.11810 35.83830 37.79590 -999.25
 10821.50000 1298580.00000 97.25660 161.67270 19.68230 0.22500 29.85940 2.12030 33.88870 37.26620 -999.25
 10822.00000 1298640.00000 96.24680 160.79330 19.72370 0.22000 29.16830 2.13930 31.86910 42.46520 -999.25
 10822.50000 1298700.00000 94.86050 159.73860 18.59200 0.23000 28.73950 2.16630 23.25990 35.68600 -999.25
 10823.00000 1298760.00000 94.31190 159.28230 18.83930 0.23170 29.02900 2.17560 25.64440 33.63110 -999.25
 10823.50000 1298820.00000 94.69690 159.61620 19.25780 0.21750 27.45550 2.16900 24.12530 31.24840 -999.25
