~Version ---------------------------------------------------
VERS     .                             2.0 : CWLS log ASCII Standard -VERSION 2.0
WRAP     .                              NO : One Line per depth step
PROD     .                    Schlumberger : LAS Producer
PROG     .               DLIS to ASCII 2.3 : LAS Program name and version
CREA     .                   2019/04/03 19 : 50                          :LAS Creation date {YYYY/MM/DD hh:mm}
DLIS_CREA.                  2009-Feb-18 14 : 26                          :DLIS Creation date and time {YYYY-MMM-DD hh:mm}
SOURCE   . WLC_PETRO_COMPUTED_INPUT_1.DLIS : DLIS File Name
FILE-ID  .                   INPUT.logdata : File Identification Number
~Well ------------------------------------------------------
STRT.F                  657.0 : START DEPTH
STOP.F                11567.5 : STOP DEPTH
STEP.F                    0.5 : STEP
NULL.                 -999.25 : NULL VALUE
COMP.            STATOILHYDRO : COMPANY
WELL.                15/9-F-4 : WELL
FLD .                   VOLVE : FIELD
LOC .                         : LOCATION
CNTY.         MAERSK INSPIRER : COUNTY
STAT.                         : STATE
CTRY.                         : COUNTRY
API .                         : API NUMBER
UWI .                         : UNIQUE WELL ID
DATE.                         : LOG DATE
SRVC. CROCKER DATA PROCESSING : SERVICE COMPANY
LATI.DEG                      : LATITUDE
LONG.DEG                      : LONGITUDE
GDAT.                         : GeoDetic Datum
~Curve Information -----------------------------------------
DEPTH.F            : DEPTH (BOREHOLE) {F10.1}
DEPTH..1IN         : {I11}
DT   .US/F         : {F13.4}
DTS  .US/F         : {F13.4}
GR   .API          : {F13.4}
NPHI .V/V_DECIMAL  : {F13.4}
RD   .UNKNOWN      : {F13.4}
RHOB .G/C3         : {F13.4}
RS   .UNKNOWN      : {F13.4}
RT   .OHMM         : {F13.4}
TVD  .M            : True Vertical Depth from PyLasMech
~Params ----------------------------------------------------
CN  .    STATOILHYDRO : Company
WN  .        15/9-F-4 : Well Name
FN  .           VOLVE : Field
CTRY.          NORWAY : Country
COUN. MAERSK INSPIRER : County or Rig name
PDAT.             MSL : Perm. Datum
ELZ .M            0.0 : Elev. Log Zero (wrt EPD)
RUN .                 : RUN NUMBER
EPD .                 : Elevation of Permanent Datum above Mean Sea Level
LMF .                 : Logging Measured From (Name of Logging Elevation Reference)
APD .                 : Elevation of Depth Reference (LMF) above Permanent Datum
~Other -----------------------------------------------------
~ASCII -----------------------------------------------------
# ...
 10328.50000 1239420.00000 94.20470 160.16170 120.02840 0.32150 1.88880 2.46890 1.35370 1.46870 3006.40819
 10329.00000 1239480.00000 94.13910 163.05080 122.82600 0.33740 1.86880 2.46900 1.39740 1.54650 3006.54455
 10329.50000 1239540.00000 94.46000 170.92620 127.43730 0.36470 1.93740 2.45140 1.48080 1.56430 3006.68091
 10330.00000 1239600.00000 95.18910 176.53360 131.66150 0.36810 1.91470 2.43710 1.60860 1.73140 3006.81726
 10330.50000 1239660.00000 95.10800 177.89800 135.67470 0.34340 1.89420 2.41270 1.76470 1.98680 3006.95362
 10331.00000 1239720.00000 96.45480 175.26880 140.41850 0.37500 2.12450 2.40700 1.71720 1.80960 3007.08998
 10331.50000 1239780.00000 98.48850 176.86670 144.31480 0.38200 2.12260 2.41150 1.72760 1.89220 3007.24120
 10332.00000 1239840.00000 98.49480 167.29270 144.36490 0.38350 1.99110 2.42080 1.78420 2.04030 3007.39360
 10332.50000 1239900.00000 96.99430 161.07720 143.25560 0.37620 2.03910 2.42300 1.74590 1.86510 3007.53680
 10333.00000 1239960.00000 96.83910 163.94380 144.95970 0.34550 2.13730 2.41970 1.74370 1.84290 3007.65872
 10333.50000 1240020.00000 97.32290 164.79900 143.70770 0.36390 2.24330 2.41690 1.82940 1.94900 3007.78064
 10334.00000 1240080.00000 97.41310 161.39670 143.26560 0.36870 2.34070 2.41660 1.96090 2.16960 3007.90320
 10334.50000 1240140.00000 97.57740 163.52050 143.24290 0.35570 2.45930 2.41360 1.94200 2.18780 3008.05560
 10335.00000 1240200.00000 97.79040 164.74810 145.73110 0.34390 2.44970 2.40890 2.14240 2.41780 3008.20800
 10335.50000 1240260.00000 98.17750 165.83680 145.21350 0.35920 2.50040 2.40370 1.84750 1.87730 3008.35369
 10336.00000 1240320.00000 99.25850 166.35950 144.16190 0.35210 2.43580 2.39230 1.78620 1.98260 3008.48916
 10336.50000 1240380.00000 98.42220 166.45790 144.06400 0.40080 2.42710 2.38370 1.76650 1.95470 3008.62462
 10337.00000 1240440.00000 98.06890 168.14740 145.22640 0.37680 2.41240 2.37460 1.80090 2.05180 3008.76009
 10337.50000 1240500.00000 98.02170 171.25410 145.11670 0.40480 2.38430 2.37230 1.94070 2.15420 3008.89556
 10338.00000 1240560.00000 99.78520 168.95130 143.42620 0.40270 2.48740 2.37810 1.93610 2.12720 3009.03102
 10338.50000 1240620.00000 100.58840 168.58560 139.67830 0.34500 2.44630 2.39010 1.98860 2.13860 3009.16649
 10339.00000 1240680.00000 100.30910 171.45050 137.16730 0.38130 2.32460 2.41120 2.04330 2.21750 3009.30196
 10339.50000 1240740.00000 100.11310 173.77290 132.20330 0.40750 2.21400 2.42350 1.97870 2.23040 3009.43742
 10340.00000 1240800.00000 100.04540 176.37190 132.49380 0.38790 2.25950 2.42520 1.78660 1.85560 3009.57289
 10340.50000 1240860.00000 98.17540 175.06940 128.44240 0.36120 2.32500 2.41290 1.66570 1.58760 3009.70836
 10341.00000 1240920.00000 97.58590 174.90020 130.02720 0.37270 2.21370 2.40810 1.60140 1.60770 3009.84382
 10341.50000 1240980.00000 98.38200 179.62510 128.57050 0.37110 2.00030 2.40540 1.71710 1.93400 3009.98424
 10342.00000 1241040.00000 98.75780 179.27300 128.76720 0.34990 2.00860 2.40970 1.69380 1.88820 3010.12818
 10342.50000 1241100.00000 97.96310 178.71090 129.62550 0.35820 1.93000 2.41850 1.70880 1.91560 3010.27211
 10343.00000 1241160.00000 98.43910 178.23500 129.58140 0.37090 1.92860 2.43430 1.73710 1.87700 3010.41604
 10343.50000 1241220.00000 98.75850 176.97030 132.58140 0.36440 1.89900 2.44450 1.76390 1.93400 3010.55998
 10344.00000 1241280.00000 98.43840 176.28270 132.76230 0.37480 1.86490 2.44440 1.77350 2.03350 3010.70391
 10344.50000 1241340.00000 98.15990 173.98000 133.17730 0.34410 1.82430 2.45060 1.87970 2.16670 3010.84784
 10345.00000 1241400.00000 98.14290 172.23930 128.61750 0.35730 1.84080 2.46820 1.89210 2.14660 3010.99178
 10345.50000 1241460.00000 98.04560 171.45050 123.51800 0.33860 1.83290 2.46850 1.82420 2.11710 3011.13571
 10346.00000 1241520.00000 98.53640 172.60950 118.92600 0.36070 1.80110 2.46350 1.81250 2.02790 3011.27964
 10346.50000 1241580.00000 97.70010 171.64090 119.15380 0.36200 1.88030 2.45050 1.66510 1.77850 3011.42358
 10347.00000 1241640.00000 96.68050 171.77080 122.19470 0.33110 1.88330 2.45610 1.60780 1.73770 3011.56751
 10347.50000 1241700.00000 94.41840 175.48950 122.53710 0.34830 1.82740 2.44660 1.59940 1.79730 3011.70489
 10348.00000 1241760.00000 94.43390 170.49710 120.51190 0.32570 1.82030 2.44530 1.56740 1.64200 3011.84036
 10348.50000 1241820.00000 93.43260 167.68660 118.46250 0.35600 1.88110 2.44160 1.51870 1.51370 3011.97582
 10349.00000 1241880.00000 92.14430 166.73460 117.03310 0.34990 1.80270 2.45580 1.55280 1.59880 3012.11129
 10349.50000 1241940.00000 91.60490 164.09940 117.48570 0.34490 1.76920 2.46040 1.54040 1.63420 3012.24676
 10350.00000 1242000.00000 92.61250 163.34240 115.11110 0.30650 1.77750 2.46490 1.56200 1.57430 3012.38222
 10350.50000 1242060.00000 92.20280 162.07770 115.66820 0.33680 1.72160 2.46260 1.57880 1.66630 3012.51769
 10351.00000 1242120.00000 92.28460 161.28440 118.48270 0.31920 1.72380 2.45320 1.57070 1.69090 3012.65316
 10351.50000 1242180.00000 92.20280 163.56600 120.48010 0.33520 1.80560 2.44530 1.55760 1.59030 3012.78862
 10352.00000 1242240.00000 92.67950 176.18150 122.27900 0.32290 1.88620 2.43660 1.56700 1.54750 3012.92409
 10352.50000 1242300.00000 93.79500 178.71090 121.58890 0.36080 1.84880 2.44080 1.67990 1.75990 3013.05956
 10353.00000 1242360.00000 94.36900 178.34070 122.57410 0.34850 1.78680 2.44040 1.75080 1.99570 3013.19502
 10353.50000 1242420.00000 94.45080 175.98200 122.39290 0.31780 1.78690 2.44440 1.75420 2.10580 3013.32233
 10354.00000 1242480.00000 94.31970 172.32840 121.51970 0.32850 1.81290 2.44640 1.72790 2.08720 3013.44933
 10354.50000 1242540.00000 94.14690 171.64090 122.65340 0.35350 1.88440 2.45270 1.69780 1.92400 3013.57633
 10355.00000 1242600.00000 93.58910 170.13140 120.62130 0.33880 1.86880 2.45390 1.77680 2.01080 3013.70333
 10355.50000 1242660.00000 93.22810 170.49860 118.75030 0.34260 1.88750 2.45450 1.76440 2.06070 3013.83033
 10356.00000 1242720.00000 92.79300 170.34440 115.56470 0.28020 1.86540 2.45930 1.77510 2.07170 3013.95733
 10356.50000 1242780.00000 92.01310 172.23770 114.96990 0.30250 1.79040 2.46330 1.76060 2.09560 3014.08433
 10357.00000 1242840.00000 91.01260 169.86800 116.32140 0.31240 1.80210 2.45450 1.68110 1.93720 3014.21236
 10357.50000 1242900.00000 90.71780 171.47980 118.96050 0.31580 1.81950 2.44960 1.62600 1.81550 3014.35091
 10358.00000 1242960.00000 91.12820 173.09160 120.17010 0.32290 1.85060 2.45340 1.60680 1.68980 3014.48945
 10358.50000 1243020.00000 91.47230 174.70340 121.18230 0.30220 1.77700 2.46400 1.63030 1.75010 3014.62800
 10359.00000 1243080.00000 91.24240 176.31510 119.46110 0.32050 1.74460 2.46700 1.60360 1.70690 3014.76655
 10359.50000 1243140.00000 90.65930 177.92680 117.39660 0.31070 1.74800 2.46480 1.58190 1.67110 3014.90509
 10360.00000 1243200.00000 89.65870 178.41030 113.97070 0.28330 1.75210 2.46340 1.53120 1.55560 3015.04364
 10360.50000 1243260.00000 89.33920 175.71080 113.72930 0.29610 1.75300 2.47010 1.47770 1.48960 3015.18218
 10361.00000 1243320.00000 89.48660 173.73590 116.64960 0.28650 1.65460 2.46650 1.47630 1.53760 3015.32173
 10361.50000 1243380.00000 89.35550 174.59650 119.53340 0.28180 1.66210 2.46370 1.43330 1.52120 3015.46143
 10362.00000 1243440.00000 89.77500 174.90550 120.27910 0.28970 1.63280 2.45700 1.43080 1.54640 3015.60113
 10362.50000 1243500.00000 91.38350 175.62390 120.75570 0.29860 1.72660 2.44560 1.36490 1.39720 3015.74083
 10363.00000 1243560.00000 92.81840 175.02030 120.61830 0.31500 1.71660 2.44120 1.39530 1.53730 3015.88053
 10363.50000 1243620.00000 92.92420 176.30090 119.31920 0.32830 1.69970 2.42640 1.51650 1.64430 3016.02023
 10364.00000 1243680.00000 92.65480 174.58660 122.34800 0.33280 1.70550 2.42890 1.57470 1.73620 3016.15993
 10364.50000 1243740.00000 93.82820 173.63020 122.91780 0.32390 1.66600 2.44130 1.75940 2.14500 3016.29963
 10365.00000 1243800.00000 94.80410 174.07740 127.69980 0.32500 1.72190 2.44430 1.78110 2.13710 3016.43571
 10365.50000 1243860.00000 94.98390 174.06150 128.82820 0.31830 1.74990 2.45040 1.77820 2.15540 3016.57179
