~Version ---------------------------------------------------
VERS     .                             2.0 : CWLS log ASCII Standard -VERSION 2.0
WRAP     .                              NO : One Line per depth step
PROD     .                    Schlumberger : LAS Producer
PROG     .               DLIS to ASCII 2.3 : LAS Program name and version
CREA     .                   2019/04/03 19 : 56                          :LAS Creation date {YYYY/MM/DD hh:mm}
DLIS_CREA.                  2009-Feb-18 14 : 31                          :DLIS Creation date and time {YYYY-MMM-DD hh:mm}
SOURCE   . WLC_PETRO_COMPUTED_INPUT_1.DLIS : DLIS File Name
FILE-ID  .                   INPUT.logdata : File Identification Number
~Well ------------------------------------------------------
STRT.F                  566.0 : START DEPTH
STOP.F                12302.0 : STOP DEPTH
STEP.F                    0.5 : STEP
NULL.                 -999.25 : NULL VALUE
COMP.            STATOILHYDRO : COMPANY
WELL.               15/9-F-14 : WELL
FLD .                   VOLVE : FIELD
LOC .                         : LOCATION
CNTY.         MAERSK INSPIRER : COUNTY
STAT.                         : STATE
CTRY.                         : COUNTRY
API .                         : API NUMBER
UWI .                         : UNIQUE WELL ID
DATE.                         : LOG DATE
SRVC. CROCKER DATA PROCESSING : SERVICE COMPANY
LATI.DEG                      : LATITUDE
LONG.DEG                      : LONGITUDE
GDAT.                         : GeoDetic Datum
~Curve Information -----------------------------------------
DEPTH.F            : DEPTH (BOREHOLE) {F10.1}
DEPTH..1IN         : Measured Depth {I11}
DRHO .G/C3         : DRHO:UNKNOWN:rC:NONE:v1 {F13.4}
DT   .US/F         : DT:UNKNOWN:rC:NONE:v2 {F13.4}
DTS  .US/F         : DTS:UNKNOWN:rC:NONE:v1 {F13.4}
GR   .API          : GR:UNKNOWN:rC:NONE:v1 {F13.4}
NPHI .V/V_DECIMAL  : NPHI:UNKNOWN:rC:NONE:v1 {F13.4}
PEF  .B/ELEC       : PEF:UNKNOWN:rC:NONE:v1 {F13.4}
RD   .UNKNOWN      : RD:UNKNOWN:rC:NONE:v1 {F13.4}
RHOB .G/C3         : RHOB:UNKNOWN:rC:NONE:v1 {F13.4}
RS   .UNKNOWN      : RS:UNKNOWN:rC:NONE:v1 {F13.4}
RT   .OHMM         : RT:UNKNOWN:rC:NONE:v1 {F13.4}
TVD  .M            : True Vertical Depth from PyLasMech
~Params ----------------------------------------------------
CN  .    STATOILHYDRO : Company
WN  .       15/9-F-14 : Well Name
FN  .           VOLVE : Field
CTRY.          NORWAY : Country
COUN. MAERSK INSPIRER : County or Rig name
PDAT.             MSL : Perm. Datum
ELZ .M            0.0 : Elev. Log Zero (wrt EPD)
SRVC.         UNKNOWN : Service company
R2  .           INPUT : R2
RUN .                 : RUN NUMBER
EPD .                 : Elevation of Permanent Datum above Mean Sea Level
LMF .                 : Logging Measured From (Name of Logging Elevation Reference)
APD .                 : Elevation of Depth Reference (LMF) above Permanent Datum
~Other -----------------------------------------------------
~ASCII -----------------------------------------------------
# ...
 9772.50000 1172700.00000 0.01990 80.13930 172.41030 167.53390 0.25430 6.06290 0.55720 2.54900 0.39880 0.16270 -999.25
 9773.00000 1172760.00000 0.04910 88.65460 172.41030 196.73390 0.26950 5.50760 0.95550 2.52630 0.59510 0.70760 -999.25
 9773.50000 1172820.00000 0.05440 94.09970 172.41030 203.54420 0.29500 5.31720 1.29560 2.50960 0.99950 2.00820 -999.25
 9774.00000 1172880.00000 0.05630 95.35270 172.41030 193.78250 0.32650 5.03800 1.27040 2.49600 1.16530 1.80980 -999.25
 9774.50000 1172940.00000 0.05080 93.95720 172.41030 181.91840 0.31480 4.66050 1.63600 2.49860 1.48410 1.33210 -999.25
 9775.00000 1173000.00000 0.03090 92.04560 172.41030 174.51450 0.29680 4.34390 2.54240 2.48990 2.36690 1.25420 -999.25
 9775.50000 1173060.00000 0.00450 90.99700 172.41030 167.95560 0.31140 4.24440 1.51940 2.47170 1.95220 2.37390 -999.25
 9776.00000 1173120.00000 0.00340 91.20080 172.41030 162.31720 0.30550 4.07970 1.80400 2.46300 1.82090 2.44540 -999.25
 9776.50000 1173180.00000 0.00830 90.24960 171.81090 154.60330 0.30830 4.03420 1.91860 2.45710 1.91440 2.25800 -999.25
 9777.00000 1173240.00000 0.02390 89.83920 171.25870 148.37750 0.32110 3.95490 1.91790 2.47470 1.96130 2.24190 -999.25
 9777.50000 1173300.00000 0.02100 89.42100 171.07120 143.17150 0.32260 4.05640 1.92960 2.48800 1.95140 2.27620 -999.25
 9778.00000 1173360.00000 0.01760 89.38010 171.52090 136.26640 0.30180 4.20050 2.01720 2.50000 1.94460 2.19140 -999.25
 9778.50000 1173420.00000 0.00660 89.42100 171.97050 133.70730 0.31950 4.35360 1.98430 2.49240 1.93250 2.09740 -999.25
 9779.00000 1173480.00000 0.00450 89.03460 172.04800 130.48460 0.29380 4.53990 1.99060 2.48060 1.93840 2.27750 -999.25
 9779.50000 1173540.00000 0.01500 88.45360 170.89380 127.98790 0.30790 4.51450 2.16530 2.49490 1.90210 2.02110 -999.25
 9780.00000 1173600.00000 0.02770 89.49580 169.26970 123.11890 0.28880 4.40540 2.03400 2.51070 1.99530 2.17300 -999.25
 9780.50000 1173660.00000 0.02440 89.85470 168.65820 118.65340 0.29610 4.23830 2.08590 2.50980 1.97540 2.08940 -999.25
 9781.00000 1173720.00000 0.01840 88.04960 169.27440 116.39090 0.28990 4.15160 2.06940 2.50510 1.97230 2.13560 -999.25
 9781.50000 1173780.00000 0.01980 86.73800 169.27440 114.61410 0.27370 4.10160 2.06690 2.51550 1.93040 2.30690 -999.25
 9782.00000 1173840.00000 0.02670 86.17030 169.27440 113.81340 0.28790 4.02910 2.08120 2.53120 2.00940 2.23950 -999.25
 9782.50000 1173900.00000 0.03250 84.71140 169.27440 111.08650 0.25730 4.12090 2.13560 2.54320 2.00480 2.14930 -999.25
 9783.00000 1173960.00000 0.03350 84.22560 169.27440 109.02260 0.26340 4.26150 1.99270 2.56600 1.99520 2.37980 -999.25
 9783.50000 1174020.00000 0.02250 82.31460 169.08910 105.56180 0.25380 4.62260 1.96650 2.57560 1.96910 2.39450 -999.25
 9784.00000 1174080.00000 0.01760 81.91410 168.33440 103.33920 0.26140 4.64010 1.95720 2.57090 1.92880 2.20970 -999.25
 9784.50000 1174140.00000 0.01410 82.66790 167.37560 99.57710 0.25570 4.38800 1.95930 2.54830 1.90590 2.17310 -999.25
 9785.00000 1174200.00000 0.01720 82.57840 166.51360 97.23170 0.26320 4.16730 1.96210 2.53760 1.86060 2.05260 -999.25
 9785.50000 1174260.00000 0.00160 82.98800 166.07420 97.89710 0.25620 4.27430 1.94520 2.53390 1.88260 1.99330 -999.25
 9786.00000 1174320.00000 0.00350 83.37520 166.07420 100.32200 0.24330 4.48780 1.99030 2.55250 1.88810 2.13430 -999.25
 9786.50000 1174380.00000 0.01100 84.99910 166.07420 99.86500 0.25450 4.52940 1.94190 2.55800 1.98050 2.30220 -999.25
 9787.00000 1174440.00000 0.02720 85.40810 166.07420 101.28310 0.23450 4.55490 1.91390 2.56090 1.97950 2.18980 -999.25
 9787.50000 1174500.00000 0.02780 84.60420 166.07420 99.54100 0.23680 4.78970 1.97630 2.54730 1.77560 1.87000 -999.25
 9788.00000 1174560.00000 0.04040 84.21080 166.07420 99.87790 0.26360 5.01680 2.09870 2.56600 1.69630 1.80440 -999.25
 9788.50000 1174620.00000 0.04530 84.30950 166.07420 98.64520 0.28980 5.08210 1.99890 2.57670 1.68500 1.81000 -999.25
 9789.00000 1174680.00000 0.04010 84.89260 166.07420 100.50390 0.26680 5.11280 1.95700 2.57520 1.72310 1.83160 -999.25
 9789.50000 1174740.00000 0.02650 85.81920 166.07420 101.34550 0.27300 5.16350 1.97820 2.56090 1.68980 1.86760 -999.25
 9790.00000 1174800.00000 0.02540 85.62100 166.07420 98.10010 0.27580 5.20060 1.91160 2.55760 1.77500 1.89160 -999.25
 9790.50000 1174860.00000 0.03780 84.79390 166.07420 95.08710 0.26210 5.16010 1.96740 2.57270 1.73880 1.83870 -999.25
 9791.00000 1174920.00000 0.05500 85.33470 166.07420 92.86950 0.26360 5.20040 1.97020 2.59420 1.83830 1.88780 -999.25
 9791.50000 1174980.00000 0.06440 85.62320 166.07420 93.29520 0.23350 5.42870 1.97830 2.63440 1.84510 2.02340 -999.25
 9792.00000 1175040.00000 0.05560 86.78740 166.07420 91.28540 0.24090 5.98170 1.89410 2.64360 1.88220 2.08520 -999.25
 9792.50000 1175100.00000 0.05150 86.72110 166.07420 90.68200 0.25330 6.29610 1.90790 2.64310 1.81330 2.15320 -999.25
 9793.00000 1175160.00000 0.02270 85.92500 166.07420 87.09140 0.24120 6.59480 1.87710 2.61330 1.88960 2.17390 -999.25
 9793.50000 1175220.00000 0.00910 84.56190 166.07420 85.66290 0.22570 5.95330 1.87960 2.60980 1.87320 2.26480 -999.25
 9794.00000 1175280.00000 -0.00340 82.93090 166.07420 83.04390 0.21900 5.05580 1.92670 2.61360 1.93550 2.37560 -999.25
 9794.50000 1175340.00000 0.00420 82.93020 166.07420 84.73080 0.23460 4.39140 1.88430 2.61080 1.91890 2.42650 -999.25
 9795.00000 1175400.00000 0.00530 82.83120 166.07420 85.80090 0.21980 4.41720 1.89490 2.59840 1.92760 2.32660 -999.25
 9795.50000 1175460.00000 0.00030 83.59430 166.07420 84.62700 0.21200 4.38450 1.83980 2.58050 2.02300 2.42870 -999.25
 9796.00000 1175520.00000 0.00770 82.32320 166.07420 83.30810 0.24310 4.45520 1.91070 2.56500 1.93690 2.29270 -999.25
 9796.50000 1175580.00000 0.01180 81.70270 166.07420 84.13320 0.24150 4.82440 1.83970 2.55640 1.95130 2.37380 -999.25
 9797.00000 1175640.00000 0.02660 81.86630 166.07420 86.66590 0.25650 5.20900 2.15440 2.56260 1.80160 1.88720 -999.25
 9797.50000 1175700.00000 0.04170 81.09060 166.07420 87.02130 0.26970 5.40770 1.90500 2.56470 1.89610 2.08700 -999.25
 9798.00000 1175760.00000 0.05040 80.87180 166.07420 85.02940 0.25100 4.98630 1.94530 2.56430 1.92460 2.21500 -999.25
 9798.50000 1175820.00000 0.04090 80.95090 166.07420 84.35390 0.26320 4.71220 1.99500 2.55290 1.74130 2.14120 -999.25
 9799.00000 1175880.00000 0.03170 80.72090 166.07420 85.69990 0.25210 4.46280 2.05340 2.56100 1.62410 1.91450 -999.25
 9799.50000 1175940.00000 0.02660 78.87480 166.07420 84.86210 0.24330 4.47450 2.20060 2.59160 1.65930 1.80830 -999.25
 9800.00000 1176000.00000 0.02760 77.62270 166.07420 85.88180 0.24130 4.64190 2.12160 2.61410 1.57770 1.86450 -999.25
 9800.50000 1176060.00000 -0.00090 78.55900 166.07420 85.78940 0.26350 5.53440 1.69230 2.59160 1.74660 2.49840 -999.25
 9801.00000 1176120.00000 0.00050 80.56380 166.07420 88.03770 0.25440 5.98920 1.83270 2.60270 1.69370 2.04990 -999.25
 9801.50000 1176180.00000 0.02260 82.57840 166.07420 88.27310 0.25620 6.72570 1.84870 2.59140 1.67370 2.08180 -999.25
 9802.00000 1176240.00000 0.11020 83.21020 166.07420 86.52560 0.23340 6.34400 1.89550 2.63830 1.73170 2.07780 -999.25
 9802.50000 1176300.00000 0.09540 83.27430 166.07420 84.59320 0.25710 6.84900 1.83120 2.65970 1.63040 2.06170 -999.25
 9803.00000 1176360.00000 0.03500 82.80750 166.07420 84.92680 0.25630 7.45550 1.84240 2.66710 1.58710 1.98790 -999.25
 9803.50000 1176420.00000 -0.00360 85.12480 166.07420 91.12790 0.28750 7.75330 1.69000 2.64650 1.63080 2.13570 -999.25
 9804.00000 1176480.00000 -0.00270 87.65360 166.07420 99.46900 0.30010 6.77090 1.55590 2.57660 1.68170 2.56380 -999.25
 9804.50000 1176540.00000 0.01910 89.06930 166.07420 105.58940 0.30890 5.50150 1.49860 2.54800 1.59900 2.64970 -999.25
 9805.00000 1176600.00000 0.04400 89.51780 175.31870 105.52760 0.28540 4.77530 1.63210 2.57950 1.57380 2.16240 -999.25
 9805.50000 1176660.00000 0.01560 89.56550 177.27100 101.24360 0.30130 5.09680 1.66930 2.58310 1.58010 1.98070 -999.25
 9806.00000 1176720.00000 0.01380 88.55330 178.30450 93.08130 0.29570 5.44460 1.61760 2.63630 1.69260 2.00710 -999.25
