~Version ---------------------------------------------------
VERS     .                             2.0 : CWLS log ASCII Standard -VERSION 2.0
WRAP     .                              NO : One Line per depth step
PROD     .                    Schlumberger : LAS Producer
PROG     .               DLIS to ASCII 2.3 : LAS Program name and version
CREA     .                   2019/04/03 19 : 51                          :LAS Creation date {YYYY/MM/DD hh:mm}
DLIS_CREA.                  2009-Feb-18 14 : 44                          :DLIS Creation date and time {YYYY-MMM-DD hh:mm}
SOURCE   . WLC_PETRO_COMPUTED_INPUT_1.DLIS : DLIS File Name
FILE-ID  .                   INPUT.logdata : File Identification Number
~Well ------------------------------------------------------
STRT.F                 1382.0 : START DEPTH
STOP.F                12441.0 : STOP DEPTH
STEP.F                    0.5 : STEP
NULL.                 -999.25 : NULL VALUE
COMP.                         : COMPANY
WELL.                15/9-F-5 : WELL
FLD .                   VOLVE : FIELD
LOC .                         : LOCATION
CNTY.         MAERSK INSPIRER : COUNTY
STAT.                         : STATE
CTRY.                         : COUNTRY
API .                         : API NUMBER
UWI .                         : UNIQUE WELL ID
DATE.                         : LOG DATE
SRVC. CROCKER DATA PROCESSING : SERVICE COMPANY
LATI.DEG                      : LATITUDE
LONG.DEG                      : LONGITUDE
GDAT.                         : GeoDetic Datum
~Curve Information -----------------------------------------
DEPTH.F            : DEPTH (BOREHOLE) {F10.1}
DEPTH..1IN         : Measured Depth {I11}
CALI .INCHES       : CALI:UNKNOWN:rC:NONE:v1 {F13.4}
DRHO .G/C3         : DRHO:UNKNOWN:rC:NONE:v1 {F13.4}
DT   .US/F         : DT:UNKNOWN:rC:NONE:v1 {F13.4}
GR   .API          : GR:UNKNOWN:rC:NONE:v1 {F13.4}
NPHI .V/V_DECIMAL  : NPHI:UNKNOWN:rC:NONE:v1 {F13.4}
RD   .UNKNOWN      : RD:UNKNOWN:rC:NONE:v1 {F13.4}
RHOB .G/C3         : RHOB:UNKNOWN:rC:NONE:v1 {F13.4}
RS   .UNKNOWN      : RS:UNKNOWN:rC:NONE:v1 {F13.4}
RT   .OHMM         : RT:UNKNOWN:rC:NONE:v1 {F13.4}
TVD  .M            : True Vertical Depth from PyLasMech
~Params ----------------------------------------------------
WN  .        15/9-F-5 : Well Name
FN  .           VOLVE : Field
CTRY.          NORWAY : Country
COUN. MAERSK INSPIRER : County or Rig name
PDAT.             MSL : Perm. Datum
ELZ .M            0.0 : Elev. Log Zero (wrt EPD)
RUN .                 : RUN NUMBER
EPD .                 : Elevation of Permanent Datum above Mean Sea Level
LMF .                 : Logging Measured From (Name of Logging Elevation Reference)
APD .                 : Elevation of Depth Reference (LMF) above Permanent Datum
~Other -----------------------------------------------------
~ASCII -----------------------------------------------------
# ...
 10958.50000 1315020.00000 8.45000 0.09000 109.47460 134.75120 0.37070 2.46000 2.39010 2.41910 2.51940 2954.61050
 10959.00000 1315080.00000 8.52000 0.09020 112.91430 140.49400 0.31070 2.50100 2.41020 2.25380 2.39960 2954.73844
 10959.50000 1315140.00000 8.52000 0.09970 113.26960 136.87450 0.33540 2.54860 2.41970 1.95850 1.90430 2954.86637
 10960.00000 1315200.00000 8.50030 0.09010 110.12760 139.84840 0.34990 2.53030 2.42990 1.95990 1.84070 2954.99431
 10960.50000 1315260.00000 8.46000 0.09000 107.50790 138.56000 0.31550 2.48000 2.45000 2.11000 2.14000 2955.12224
 10961.00000 1315320.00000 8.45020 0.09000 101.14070 140.36580 0.30990 2.45160 2.46050 2.09700 2.22600 2955.25017
 10961.50000 1315380.00000 8.45970 0.09000 100.86770 140.68010 0.31000 2.53730 2.48910 1.93510 2.00690 2955.37811
 10962.00000 1315440.00000 8.46000 0.08020 100.94340 139.92250 0.28600 2.39240 2.49980 1.84140 1.87210 2955.50604
 10962.50000 1315500.00000 8.44000 0.08000 99.55130 138.82000 0.29040 2.41000 2.51000 1.78000 1.74000 2955.63398
 10963.00000 1315560.00000 8.45030 0.06980 99.02590 140.70150 0.28750 2.28060 2.51000 1.80130 1.79140 2955.76191
 10963.50000 1315620.00000 8.46940 0.06000 100.41010 136.41620 0.29090 2.32060 2.51000 1.88360 1.88360 2955.88984
 10964.00000 1315680.00000 8.45040 0.06000 101.23810 134.07300 0.26440 2.33960 2.51000 1.99790 1.99790 2956.01778
 10964.50000 1315740.00000 8.45000 0.06000 100.20310 131.62000 0.27210 2.33000 2.51000 2.25000 2.42000 2956.14571
 10965.00000 1315800.00000 8.44030 0.06010 99.82120 136.08290 0.28560 2.45130 2.50000 2.09830 2.11670 2956.27365
 10965.50000 1315860.00000 8.46030 0.07000 98.86590 141.43770 0.30650 2.53590 2.50030 1.97520 1.87830 2956.40158
 10966.00000 1315920.00000 8.46980 0.07000 99.22210 139.97080 0.26920 2.39290 2.50980 2.15620 2.16400 2956.52952
 10966.50000 1315980.00000 8.48000 0.07000 95.13340 143.66000 0.31940 2.23000 2.51990 2.19980 2.35900 2956.65745
 10967.00000 1316040.00000 8.46000 0.07000 95.67000 149.29440 0.28990 2.23000 2.52010 2.04680 2.20580 2956.78538
 10967.50000 1316100.00000 8.46050 0.07020 97.37810 157.11200 0.29090 2.08950 2.52980 1.74700 1.81400 2956.91332
 10968.00000 1316160.00000 8.47950 0.07980 97.79550 156.80720 0.30200 2.07050 2.52020 1.63270 1.58540 2957.04125
 10968.50000 1316220.00000 8.47000 0.08000 101.55700 154.13150 0.31360 1.91000 2.51010 1.58040 1.58000 2957.16919
 10969.00000 1316280.00000 8.47000 0.10010 104.55960 152.58090 0.31950 1.81000 2.51020 1.66950 1.73910 2957.29712
 10969.50000 1316340.00000 8.47020 0.11000 102.43800 148.81340 0.30300 1.83430 2.53050 1.60730 1.62550 2957.42505
 10970.00000 1316400.00000 8.47980 0.11000 101.27960 142.18400 0.27890 2.01540 2.54950 1.49300 1.43500 2957.55299
 10970.50000 1316460.00000 8.46000 0.08030 102.42580 131.66160 0.26670 1.72000 2.53020 1.56910 1.66740 2957.68092
 10971.00000 1316520.00000 8.44000 0.06990 99.77340 128.15990 0.28810 1.79000 2.51990 1.52910 1.54890 2957.80886
 10971.50000 1316580.00000 8.47060 0.06000 98.08300 130.20420 0.31530 1.89650 2.50000 1.37480 1.34860 2957.93679
 10972.00000 1316640.00000 8.49920 0.06000 97.99290 139.45300 0.30130 1.72500 2.50000 1.60340 1.75820 2958.06473
 10972.50000 1316700.00000 8.50000 0.06000 97.65850 146.14320 0.28650 1.91000 2.50000 1.59030 1.66150 2958.19266
 10973.00000 1316760.00000 8.49000 0.04000 100.72620 148.40000 0.33180 2.00000 2.49000 1.52000 1.58000 2958.32059
 10973.50000 1316820.00000 8.48960 0.05000 103.26310 146.44000 0.32070 1.83020 2.49000 1.60930 1.72860 2958.44853
 10974.00000 1316880.00000 8.47060 0.05000 102.06070 142.63000 0.30170 1.83970 2.49000 1.57120 1.65240 2958.57646
 10974.50000 1316940.00000 8.47980 0.05980 100.47340 142.22460 0.31290 1.74160 2.49980 1.52080 1.62050 2958.70440
 10975.00000 1317000.00000 8.45000 0.07000 100.41310 141.98000 0.29570 1.76000 2.50000 1.52000 1.60000 2958.83233
 10975.50000 1317060.00000 8.48980 0.07000 98.42330 139.11880 0.29320 1.81880 2.49970 1.44210 1.44450 2958.96027
 10976.00000 1317120.00000 8.48090 0.07000 98.23810 135.94660 0.29670 1.74300 2.47970 1.56760 1.71550 2959.08820
 10976.50000 1317180.00000 8.50950 0.07000 100.25200 135.20370 0.31390 1.83830 2.47020 1.49140 1.57260 2959.21613
 10977.00000 1317240.00000 8.53000 0.06000 104.30930 134.12000 0.31630 1.69000 2.45000 1.50000 1.54000 2959.34407
 10977.50000 1317300.00000 8.51000 0.06000 105.47700 135.50560 0.31530 1.62000 2.44000 1.48880 1.54870 2959.47200
 10978.00000 1317360.00000 8.53950 0.06000 99.34270 134.44410 0.33860 1.68890 2.44000 1.40000 1.45000 2959.59994
 10978.50000 1317420.00000 8.52040 0.06000 94.35670 134.58700 0.31870 1.65080 2.44000 1.40000 1.45000 2959.72787
 10979.00000 1317480.00000 8.50000 0.05010 93.78210 130.92960 0.30090 1.69000 2.45990 1.35030 1.33060 2959.85580
 10979.50000 1317540.00000 8.48000 0.04000 98.12920 125.08300 0.31510 1.54000 2.47020 1.38960 1.42950 2959.98374
 10980.00000 1317600.00000 8.48030 0.04020 101.84630 124.38530 0.31220 1.61000 2.49050 1.34870 1.37830 2960.11167
 10980.50000 1317660.00000 8.48980 0.04980 103.68590 122.68030 0.32200 1.61000 2.50960 1.30110 1.31160 2960.23961
 10981.00000 1317720.00000 8.47000 0.04010 101.80380 125.50690 0.30100 1.53000 2.50010 1.34960 1.40920 2960.36754
 10981.50000 1317780.00000 8.44000 0.04000 99.29210 127.63170 0.29960 1.58000 2.49000 1.31060 1.30060 2960.49548
 10982.00000 1317840.00000 8.44980 0.04000 96.91620 132.83400 0.31700 1.59020 2.49000 1.37980 1.37950 2960.62341
 10982.50000 1317900.00000 8.44020 0.04000 96.88630 134.27220 0.31090 1.59980 2.49000 1.37020 1.36050 2960.75134
 10983.00000 1317960.00000 8.47000 0.03010 99.55280 135.77420 0.31030 1.62000 2.47020 1.46890 1.48860 2960.87928
 10983.50000 1318020.00000 8.46000 0.02010 100.37750 134.42300 0.29310 1.60000 2.46010 1.45020 1.48010 2961.00721
 10984.00000 1318080.00000 8.47960 0.03020 98.24030 134.97500 0.32250 1.65820 2.48000 1.48060 1.49100 2961.13515
 10984.50000 1318140.00000 8.46060 0.03970 96.75860 134.26060 0.31920 1.57250 2.48000 1.50920 1.53860 2961.26308
 10985.00000 1318200.00000 8.49000 0.04990 100.79890 135.12800 0.32350 1.61000 2.48000 1.40150 1.40190 2961.39101
 10985.50000 1318260.00000 8.49000 0.05000 101.61820 138.12000 0.32150 1.64000 2.46000 1.34000 1.37000 2961.51895
 10986.00000 1318320.00000 8.48020 0.06000 103.02310 144.31440 0.34210 1.60910 2.47020 1.37020 1.42980 2961.64688
 10986.50000 1318380.00000 8.48970 0.06000 104.29300 140.19960 0.32210 1.56150 2.47970 1.37970 1.42030 2961.77482
 10987.00000 1318440.00000 8.50970 0.06980 102.89290 136.38980 0.28640 1.67800 2.48980 1.28160 1.22320 2961.90275
 10987.50000 1318500.00000 8.51000 0.07000 102.48970 128.16000 0.29480 1.61000 2.49000 1.36000 1.40000 2962.03069
 10988.00000 1318560.00000 8.49000 0.07020 99.07330 130.93960 0.30800 1.51120 2.49020 1.41870 1.52700 2962.15862
 10988.50000 1318620.00000 8.48970 0.08000 96.98010 131.48170 0.30450 1.58390 2.50000 1.34000 1.33910 2962.28655
 10989.00000 1318680.00000 8.48020 0.08000 100.88110 129.94820 0.34120 1.70780 2.50000 1.34000 1.31050 2962.41449
 10989.50000 1318740.00000 8.51000 0.07000 101.45820 132.39000 0.32980 1.66000 2.49000 1.38000 1.36000 2962.54242
 10990.00000 1318800.00000 8.47000 0.07010 99.69360 136.70240 0.30610 1.66000 2.48010 1.47000 1.50040 2962.67036
 10990.50000 1318860.00000 8.45970 0.08000 97.27290 139.82620 0.31970 1.74830 2.49000 1.47330 1.53410 2962.79829
 10991.00000 1318920.00000 8.45020 0.08000 99.08820 139.35000 0.30450 1.69120 2.49000 1.58760 1.67700 2962.92623
 10991.50000 1318980.00000 8.48000 0.08000 98.51690 136.07750 0.32800 1.80000 2.49990 1.55020 1.52090 2963.05416
 10992.00000 1319040.00000 8.48000 0.08020 95.43260 134.75980 0.30470 1.72000 2.49020 1.68020 1.73970 2963.18209
 10992.50000 1319100.00000 8.50900 0.10050 94.28880 132.80130 0.32130 1.78280 2.51050 1.69970 1.70950 2963.31003
 10993.00000 1319160.00000 8.47090 0.11950 95.36170 129.41990 0.29810 1.88760 2.52960 1.69020 1.69040 2963.43796
 10993.50000 1319220.00000 8.46000 0.12990 95.87380 127.68340 0.28230 1.81000 2.53000 1.83880 1.95780 2963.56590
