~Version ---------------------------------------------------
VERS     .                             2.0 : CWLS log ASCII Standard -VERSION 2.0
WRAP     .                              NO : One Line per depth step
PROD     .         CROCKER DATA PROCESSING : LAS Producer
PROG     .                   LAS Viewer v0 : LAS Program name and version
CREA     .                2019/04/03 21-01 : LAS Creation date {YYYY/MM/DD hh-mm}
DLIS_CREA.               2009-Aug-25 10-08 : DLIS Creation date and time {YYYY-MMM-DD hh-mm}
SOURCE   . WLC_PETRO_COMPUTED_INPUT_1.DLIS : DLIS File Name
FILE-ID  .               CPI_INPUT.logdata : File Identification Number
~Well ------------------------------------------------------
STRT .m               2560.0152 : START DEPTH
STOP .m               3222.1932 : STOP DEPTH
STEP .m       0.152400000000398 : STEP
NULL .                  -999.25 : NULL VALUE
COMP .             STATOILHYDRO : COMPANY
WELL .              15/9-F-15 C : WELL
FIELD.                    VOLVE : FIELD
LOC  .                          : LOCATION
CNTY .                          : COUNTY
STAT .                          : STATE
NATI .                          : COUNTRY
API  .                          : API NUMBER
UWI  .                          : UNIQUE WELL ID
SRVC .                          : SERVICE COMPANY
LATI . 058 26' 29.706" N    DMS : LATITUDE
LONG . 001 53' 15.149" E    DMS : LONGITUDE
GDAT .                      MSL : GeoDetic Datum
~Curve Information -----------------------------------------
DEPTH.m      : Measured Depth
CALI .IN     : 
DRHO .G/CC   : 
DRHU .G/CC   : 
DT   .US/FT  : 
GR   .GAPI   : 
NPHI .V/V    : 
RD   .OHMM   : 
RHOB .G/CC   : 
ROBU .G/CC   : 
RS   .OHMM   : 
RT   .OHMM   : 
TVD  .M      : True Vertical Depth from PyLasMech
~Params ----------------------------------------------------
RUN . MWD RUN 12-13 : Run number
PDAT.           MSL : Perm. Datum
~Other -----------------------------------------------------
~ASCII -----------------------------------------------------
# ...
 2855.82360 -999.25 -999.25 -999.25 71.24730 25.55650 -999.25 3.32300 -999.25 -999.25 2.99570 2.89200 2685.93520
 2855.97600 -999.25 -999.25 -999.25 71.72910 25.07960 -999.25 3.67500 -999.25 -999.25 3.28040 3.15410 2686.08365
 2856.12840 -999.25 -999.25 -999.25 72.06230 22.19010 -999.25 3.57060 -999.25 -999.25 3.81460 3.75360 2686.23210
 2856.28080 -999.25 -999.25 -999.25 72.68370 20.05810 -999.25 3.83770 -999.25 -999.25 3.96650 3.81850 2686.38054
 2856.43320 -999.25 -999.25 -999.25 73.29100 20.14220 -999.25 3.96400 -999.25 -999.25 4.27830 4.08750 2686.52899
 2856.58560 -999.25 -999.25 -999.25 73.07640 20.70330 -999.25 3.93230 -999.25 -999.25 4.59400 4.42520 2686.67744
 2856.73800 -999.25 -999.25 -999.25 71.24180 21.34850 -999.25 3.84990 -999.25 -999.25 4.46930 4.17580 2686.82588
 2856.89040 -999.25 -999.25 -999.25 69.18080 23.70500 -999.25 3.96350 -999.25 -999.25 4.10050 3.86320 2686.97433
 2857.04280 -999.25 -999.25 -999.25 67.42880 27.07140 -999.25 4.20580 -999.25 -999.25 3.70250 3.54540 2687.12277
 2857.19520 -999.25 -999.25 -999.25 65.96040 28.02520 -999.25 4.26610 -999.25 -999.25 3.72560 3.73730 2687.27122
 2857.34760 -999.25 -999.25 -999.25 65.64320 26.22980 -999.25 4.32590 -999.25 -999.25 3.85040 3.89900 2687.41967
 2857.50000 -999.25 -999.25 -999.25 66.83800 22.58290 -999.25 4.30240 -999.25 -999.25 4.12090 4.28990 2687.56811
 2857.65240 -999.25 -999.25 -999.25 68.28450 20.22640 -999.25 4.57190 -999.25 -999.25 4.16490 4.12410 2687.71656
 2857.80480 -999.25 -999.25 -999.25 68.60870 18.26260 -999.25 4.56650 -999.25 -999.25 4.51150 4.48700 2687.86501
 2857.95720 -999.25 -999.25 -999.25 67.68610 17.14050 -999.25 4.72040 -999.25 -999.25 4.53990 4.33970 2688.01345
 2858.10960 -999.25 -999.25 -999.25 66.67970 17.89800 -999.25 4.74140 -999.25 -999.25 4.67980 4.55740 2688.16190
 2858.26200 -999.25 -999.25 -999.25 66.10320 18.37490 -999.25 4.82330 -999.25 -999.25 4.73050 4.61630 2688.31034
 2858.41440 -999.25 -999.25 -999.25 65.75320 18.29070 -999.25 4.90160 -999.25 -999.25 4.86470 4.78450 2688.45879
 2858.56680 -999.25 -999.25 -999.25 65.24750 17.16860 -999.25 4.95820 -999.25 -999.25 5.12200 5.05690 2688.60724
 2858.71920 -999.25 -999.25 -999.25 64.88460 17.08440 -999.25 4.96700 -999.25 -999.25 5.22000 5.14160 2688.75568
 2858.87160 -999.25 -999.25 -999.25 64.82680 18.40290 -999.25 4.97160 -999.25 -999.25 5.26410 5.06960 2688.90413
 2859.02400 -999.25 -999.25 -999.25 64.56480 18.68340 -999.25 4.85170 -999.25 -999.25 5.20770 5.04960 2689.05258
 2859.17640 -999.25 -999.25 -999.25 64.19550 18.85180 -999.25 4.82130 -999.25 -999.25 4.99280 4.86800 2689.20102
 2859.32880 -999.25 -999.25 -999.25 63.72000 19.02010 -999.25 4.67740 -999.25 -999.25 5.05350 4.95810 2689.34947
 2859.48120 -999.25 -999.25 -999.25 63.62080 19.74950 -999.25 4.50170 -999.25 -999.25 4.97500 4.92430 2689.49791
 2859.63360 -999.25 -999.25 -999.25 63.94350 22.38650 -999.25 4.29210 -999.25 -999.25 4.75550 4.65740 2689.64636
 2859.78600 -999.25 -999.25 -999.25 64.12080 23.14390 -999.25 4.08120 -999.25 -999.25 4.30460 4.14740 2689.79481
 2859.93840 -999.25 -999.25 -999.25 64.02030 25.21990 -999.25 3.87600 -999.25 -999.25 3.75620 3.63730 2689.94325
 2860.09080 -999.25 -999.25 -999.25 63.81880 23.34030 -999.25 3.68470 -999.25 -999.25 3.34770 3.28780 2690.09170
 2860.24320 -999.25 -999.25 -999.25 63.75620 23.90140 -999.25 3.64150 -999.25 -999.25 3.12510 3.09370 2690.24015
 2860.39560 -999.25 -999.25 -999.25 64.66840 23.90140 -999.25 3.46600 -999.25 -999.25 3.13170 3.25080 2690.38859
 2860.54800 -999.25 -999.25 -999.25 66.26660 23.45250 -999.25 3.36450 -999.25 -999.25 3.15740 3.22160 2690.53704
 2860.70040 -999.25 -999.25 -999.25 68.02490 22.89140 -999.25 3.11730 -999.25 -999.25 3.26090 3.33670 2690.68548
 2860.85280 -999.25 -999.25 -999.25 69.34740 21.96570 -999.25 3.01110 -999.25 -999.25 3.09130 3.01690 2690.83393
 2861.00520 -999.25 -999.25 -999.25 69.65150 22.49870 -999.25 2.98930 -999.25 -999.25 2.87150 2.73100 2690.98238
 2861.15760 -999.25 -999.25 -999.25 68.96920 22.30230 -999.25 2.94840 -999.25 -999.25 2.84450 2.74590 2691.13082
 2861.31000 -999.25 -999.25 -999.25 68.15340 22.47060 -999.25 2.80920 -999.25 -999.25 2.84090 2.79760 2691.27927
 2861.46240 -999.25 -999.25 -999.25 68.32640 24.06970 -999.25 2.72360 -999.25 -999.25 2.70190 2.62800 2691.42772
 2861.61480 -999.25 -999.25 -999.25 69.14900 25.27600 -999.25 2.66780 -999.25 -999.25 2.52600 2.43430 2691.57616
 2861.76720 -999.25 -999.25 -999.25 69.85780 25.36010 -999.25 2.68820 -999.25 -999.25 2.42320 2.31960 2691.72461
 2861.91960 -999.25 -999.25 -999.25 70.20760 24.23800 -999.25 2.69530 -999.25 -999.25 2.43650 2.35520 2691.87305
 2862.07200 -999.25 -999.25 -999.25 70.75840 22.66700 -999.25 2.64060 -999.25 -999.25 2.52870 2.51900 2692.02150
 2862.22440 -999.25 -999.25 -999.25 72.03520 23.14390 -999.25 2.64000 -999.25 -999.25 2.61250 2.59630 2692.16995
 2862.37680 -999.25 -999.25 -999.25 73.37940 21.57290 -999.25 2.63630 -999.25 -999.25 2.66120 2.59120 2692.31839
 2862.52920 -999.25 -999.25 -999.25 73.32880 22.69510 -999.25 2.61800 -999.25 -999.25 2.60990 2.48340 2692.46684
 2862.68160 -999.25 -999.25 -999.25 72.06030 22.69510 -999.25 2.73750 -999.25 -999.25 2.59400 2.46740 2692.61529
 2862.83400 -999.25 -999.25 -999.25 70.92890 23.78920 -999.25 2.66270 -999.25 -999.25 2.61640 2.53290 2692.76373
 2862.98640 -999.25 -999.25 -999.25 69.83500 21.74130 -999.25 2.74810 -999.25 -999.25 2.66830 2.59710 2692.91218
 2863.13880 -999.25 -999.25 -999.25 69.87020 20.17030 -999.25 2.74470 -999.25 -999.25 2.78010 2.72560 2693.06063
 2863.29120 -999.25 -999.25 -999.25 70.94230 20.28250 -999.25 2.77470 -999.25 -999.25 2.81900 2.74290 2693.20907
 2863.44360 -999.25 -999.25 -999.25 71.51250 20.17030 -999.25 2.78270 -999.25 -999.25 2.85730 2.75800 2693.35752
 2863.59600 -999.25 -999.25 -999.25 71.12560 19.86170 -999.25 2.74890 -999.25 -999.25 2.90000 2.78150 2693.50596
 2863.74840 -999.25 -999.25 -999.25 70.07850 19.66530 -999.25 2.73370 -999.25 -999.25 2.89820 2.79430 2693.65441
 2863.90080 -999.25 -999.25 -999.25 69.40890 20.98380 -999.25 2.69970 -999.25 -999.25 2.90200 2.79740 2693.80286
 2864.05320 -999.25 -999.25 -999.25 69.29150 21.29240 -999.25 2.60650 -999.25 -999.25 2.88570 2.79510 2693.95130
 2864.20560 -999.25 -999.25 -999.25 69.53700 21.48880 -999.25 2.51640 -999.25 -999.25 2.79720 2.68790 2694.09975
 2864.35800 -999.25 -999.25 -999.25 69.63630 21.57290 -999.25 2.35820 -999.25 -999.25 2.57130 2.46700 2694.24820
 2864.51040 -999.25 -999.25 -999.25 69.47400 20.25440 -999.25 2.33400 -999.25 -999.25 2.28740 2.14930 2694.39664
 2864.66280 -999.25 -999.25 -999.25 69.34180 19.77750 -999.25 2.32920 -999.25 -999.25 2.06590 1.96230 2694.54509
 2864.81520 -999.25 -999.25 -999.25 69.23910 18.93590 -999.25 2.37200 -999.25 -999.25 2.01060 1.95470 2694.69353
 2864.96760 -999.25 -999.25 -999.25 69.26520 19.94580 -999.25 2.45150 -999.25 -999.25 2.07430 2.08680 2694.84198
 2865.12000 -999.25 -999.25 -999.25 69.72860 18.17850 -999.25 2.51020 -999.25 -999.25 2.25880 2.27340 2694.99043
 2865.27240 -999.25 -999.25 -999.25 70.52130 16.32700 -999.25 2.62050 -999.25 -999.25 2.43650 2.41770 2695.13887
 2865.42480 -999.25 -999.25 -999.25 70.77550 15.40120 -999.25 2.71800 -999.25 -999.25 2.56850 2.46370 2695.28732
 2865.57720 -999.25 -999.25 -999.25 70.44920 17.16860 -999.25 3.03630 -999.25 -999.25 2.78880 2.66010 2695.43577
 2865.72960 -999.25 -999.25 -999.25 69.81290 17.53330 -999.25 3.05660 -999.25 -999.25 3.13710 3.03920 2695.58421
 2865.88200 -999.25 -999.25 -999.25 68.90000 19.30060 -999.25 3.07870 -999.25 -999.25 3.51340 3.40600 2695.73266
 2866.03440 -999.25 -999.25 -999.25 68.27900 19.49700 -999.25 3.28580 -999.25 -999.25 3.69600 3.57400 2695.88110
 2866.18680 -999.25 -999.25 -999.25 67.81320 21.46070 -999.25 3.25780 -999.25 -999.25 3.72430 3.56020 2696.02955
 2866.33920 -999.25 -999.25 -999.25 67.29780 20.45080 -999.25 3.24300 -999.25 -999.25 3.60900 3.40030 2696.17800
 2866.49160 -999.25 -999.25 -999.25 66.68730 18.96400 -999.25 3.28690 -999.25 -999.25 3.21950 3.03860 2696.32644
