~Version ---------------------------------------------------
VERS. 2.0 : CWLS log ASCII Standard -VERSION 2.0
WRAP.  NO : One line per depth step
~Well ------------------------------------------------------
STRT     .M           239.8776 : START
STOP     .M          4186.7328 : STOP
STEP     .M 0.1524000000000001 : STEP
NULL     .             -999.25 : NULL VALUE
COMP     .        STATOILHYDRO : COMPANY
WELL     .           15/9-F-12 : WELL
FLD      .               VOLVE : FIELD
LOC      .             UNKNOWN : LOCATION
CNTY     .             UNKNOWN : COUNTY
STAT     .             UNKNOWN : STATE
CTRY     .              Norway : COUNTRY
SRVC     .             UNKNOWN : SERVICE COMPANY
DATE     .             UNKNOWN : LOG DATE
UWI      .        NO 15/9-F-12 : UNIQUE WELL ID
XCOORD   .           435050.17 : SURFACE X
YCOORD   .           6478574.7 : SURFACE Y
LAT      .           58.441713 : LATITUDE
LON      .             1.88748 : LONGITUDE
ELEV     .M               54.9 : SURFACE ELEV
ELEV_TYPE.                  KB : ELEV TYPE
~Curve Information -----------------------------------------
DEPTH    .M           UNKNOWN : Measured Depth
CARB_FLAG.UNKNOWN     UNKNOWN : CARB_FLAG:UNKNOWN:rC:NONE:v1
COAL_FLAG.UNKNOWN     UNKNOWN : COAL_FLAG:UNKNOWN:rC:NONE:v1
DT       .us/ft       UNKNOWN : DT:UNKNOWN:rC:NONE:v2
GR       .API         UNKNOWN : GR:UNKNOWN:rC:NONE:v1
NPHI     .v/v_decimal UNKNOWN : NPHI:UNKNOWN:rC:NONE:v1
RD       .UNKNOWN     UNKNOWN : RD:UNKNOWN:rC:NONE:v1
RHOB     .g/cm3       UNKNOWN : RHOB:UNKNOWN:rC:NONE:v1
ROP5_RM  .UNKNOWN     UNKNOWN : ROP5_RM:UNKNOWN:rC:NONE:v1
RS       .UNKNOWN     UNKNOWN : RS:UNKNOWN:rC:NONE:v1
RT       .ohm.m       UNKNOWN : RT:UNKNOWN:rC:NONE:v1
SAND_FLAG.UNKNOWN     UNKNOWN : SAND_FLAG:UNKNOWN:rC:NONE:v1
TVD      .M                   : True Vertical Depth from PyLasMech
~Params ----------------------------------------------------
~Other -----------------------------------------------------
~ASCII -----------------------------------------------------
# ...
 910.89480 -999.25 -999.25 -999.25 21.10230 0.52100 1.08830 -999.25 161.40030 1.64760 1.02550 -999.25 905.45006
 911.04720 -999.25 -999.25 -999.25 23.22430 0.52100 1.08830 -999.25 157.97470 1.64760 1.02550 -999.25 905.59774
 911.19960 -999.25 -999.25 -999.25 25.34640 0.52100 1.35210 -999.25 141.85120 298.34479 1.89610 -999.25 905.74541
 911.35200 -999.25 -999.25 -999.25 27.46850 0.52100 1.35210 -999.25 105.29290 298.34479 1.89610 -999.25 905.89309
 911.50440 -999.25 -999.25 -999.25 30.33720 0.52100 1.35210 -999.25 64.69620 298.34479 1.89610 -999.25 906.04076
 911.65680 -999.25 -999.25 -999.25 33.20590 0.52100 1.35210 -999.25 54.01140 298.34479 1.89610 -999.25 906.18844
 911.80920 -999.25 -999.25 -999.25 36.07460 0.52100 1.10090 -999.25 51.80220 6.19790 1.06550 -999.25 906.33611
 911.96160 -999.25 -999.25 -999.25 36.07460 0.52100 1.10090 -999.25 45.51010 6.19790 1.06550 -999.25 906.48379
 912.11400 -999.25 -999.25 -999.25 37.41070 0.52100 1.10090 -999.25 43.17500 6.19790 1.06550 -999.25 906.63147
 912.26640 -999.25 -999.25 -999.25 38.74680 0.50340 0.80530 -999.25 40.88590 1.98000 0.81110 -999.25 906.77914
 912.41880 -999.25 -999.25 -999.25 40.08290 0.48700 0.80530 -999.25 40.68550 1.98000 0.81110 -999.25 906.92682
 912.57120 -999.25 -999.25 -999.25 40.08290 0.47170 0.80530 -999.25 40.94060 1.98000 0.81110 -999.25 907.07449
 912.72360 -999.25 -999.25 -999.25 38.11800 0.48330 0.80530 -999.25 42.40830 1.98000 0.81110 -999.25 907.22217
 912.87600 -999.25 -999.25 -999.25 36.15310 0.49520 0.74490 -999.25 47.82280 2.42150 0.88550 -999.25 907.36984
 913.02840 -999.25 -999.25 -999.25 34.18830 0.49520 0.74490 -999.25 59.13550 2.42150 0.88550 -999.25 907.51758
 913.18080 -999.25 -999.25 -999.25 31.79110 0.49520 0.74490 -999.25 66.11440 2.42150 0.88550 -999.25 907.66556
 913.33320 -999.25 -999.25 -999.25 29.39400 0.49520 0.74490 -999.25 77.27750 2.42150 0.88550 -999.25 907.81354
 913.48560 -999.25 -999.25 -999.25 26.99690 0.49520 0.78090 -999.25 92.97600 2.19900 0.81080 -999.25 907.96152
 913.63800 -999.25 -999.25 -999.25 26.99690 0.49520 0.78090 -999.25 114.84300 2.19900 0.81080 -999.25 908.10950
 913.79040 -999.25 -999.25 -999.25 24.79620 0.49520 0.78090 -999.25 119.26700 2.19900 0.81080 -999.25 908.25748
 913.94280 -999.25 -999.25 -999.25 22.59560 0.49520 0.77620 -999.25 119.27970 1.96960 0.83720 -999.25 908.40546
 914.09520 -999.25 -999.25 -999.25 20.39490 0.49520 0.77620 -999.25 119.27970 1.96960 0.83720 -999.25 908.55344
 914.24760 -999.25 -999.25 -999.25 19.88410 0.49520 0.77620 -999.25 120.47370 1.96960 0.83720 -999.25 908.70142
 914.40000 -999.25 -999.25 -999.25 19.37320 0.49520 0.77620 -999.25 120.71240 1.96960 0.83720 -999.25 908.84940
 914.55240 -999.25 -999.25 -999.25 18.86230 0.49520 0.77200 -999.25 119.27970 2.27950 0.87100 -999.25 908.99738
 914.70480 -999.25 -999.25 -999.25 18.86230 0.49520 0.77200 -999.25 119.27970 2.27950 0.87100 -999.25 909.14536
 914.85720 -999.25 -999.25 -999.25 19.49110 0.49520 0.77200 -999.25 119.27970 2.27950 0.87100 -999.25 909.29334
 915.00960 -999.25 -999.25 -999.25 20.11990 0.49520 0.80750 -999.25 119.27970 1.98780 0.81210 -999.25 909.44132
 915.16200 -999.25 -999.25 -999.25 20.74860 0.49520 0.80750 -999.25 121.93320 1.98780 0.81210 -999.25 909.58930
 915.31440 -999.25 -999.25 -999.25 21.14160 0.49520 0.80750 -999.25 119.27970 1.98780 0.81210 -999.25 909.73728
 915.46680 -999.25 -999.25 -999.25 21.53460 0.49520 0.81960 -999.25 119.27970 1.75890 0.79050 -999.25 909.88526
 915.61920 -999.25 -999.25 -999.25 21.92750 0.49520 0.81960 -999.25 119.27970 1.75890 0.79050 -999.25 910.03324
 915.77160 -999.25 -999.25 -999.25 23.10640 0.49520 0.81960 -999.25 119.42140 1.75890 0.79050 -999.25 910.18122
 915.92400 -999.25 -999.25 -999.25 24.28540 0.49520 0.84870 -999.25 119.36470 1.98370 0.83260 -999.25 910.32920
 916.07640 -999.25 -999.25 -999.25 25.46430 0.49520 0.84870 -999.25 120.44140 1.98370 0.83260 -999.25 910.47718
 916.22880 -999.25 -999.25 -999.25 25.07130 0.49520 0.84870 -999.25 120.67370 1.98370 0.83260 -999.25 910.62516
 916.38120 -999.25 -999.25 -999.25 24.67830 0.49520 0.87570 -999.25 119.27970 2.70530 0.85680 -999.25 910.77315
 916.53360 -999.25 -999.25 -999.25 24.28540 0.49520 0.87570 -999.25 119.27970 2.70530 0.85680 -999.25 910.92113
 916.68600 -999.25 -999.25 -999.25 24.67830 0.49520 0.87570 -999.25 119.27970 2.70530 0.85680 -999.25 911.06911
 916.83840 -999.25 -999.25 -999.25 25.07130 0.49530 0.88270 -999.25 119.27970 2.55670 0.82740 -999.25 911.21709
 916.99080 -999.25 -999.25 -999.25 25.46430 0.49530 0.88270 -999.25 121.93320 2.55670 0.82740 -999.25 911.36507
 917.14320 -999.25 -999.25 -999.25 25.85730 0.49530 0.88270 -999.25 119.21640 2.55670 0.82740 -999.25 911.51305
 917.29560 -999.25 -999.25 -999.25 26.25020 0.49530 0.88710 -999.25 119.26910 3.67980 0.87690 -999.25 911.66103
 917.44800 -999.25 -999.25 -999.25 26.64320 0.49530 0.88710 -999.25 119.27970 3.67980 0.87690 -999.25 911.80901
 917.60040 -999.25 -999.25 -999.25 27.03620 0.49530 0.88710 -999.25 119.42140 3.67980 0.87690 -999.25 911.95699
 917.75280 -999.25 -999.25 -999.25 27.42910 0.49530 0.90510 -999.25 119.32670 5.03630 0.89920 -999.25 912.10497
 917.90520 -999.25 -999.25 -999.25 27.82210 0.49530 0.90510 -999.25 120.44200 5.03630 0.89920 -999.25 912.25295
 918.05760 -999.25 -999.25 -999.25 28.09720 0.49530 0.90510 -999.25 120.71240 5.03630 0.89920 -999.25 912.40093
 918.21000 -999.25 -999.25 -999.25 28.37230 0.52270 0.89580 -999.25 119.27970 7.77980 0.92870 -999.25 912.54891
 918.36240 -999.25 -999.25 -999.25 28.64740 0.55300 0.89580 -999.25 119.27970 7.77980 0.92870 -999.25 912.69689
 918.51480 -999.25 -999.25 -999.25 27.86140 0.58690 0.90020 -999.25 119.27970 9.04010 0.93150 -999.25 912.84487
 918.66720 -999.25 -999.25 -999.25 27.07550 0.57830 0.90250 -999.25 123.86800 30.92590 0.99210 -999.25 912.99285
 918.81960 -999.25 -999.25 -999.25 26.28950 0.56990 0.90250 -999.25 129.00270 30.92590 0.99210 -999.25 913.14083
 918.97200 -999.25 -999.25 -999.25 25.11060 0.56990 0.90250 -999.25 136.32330 30.92590 0.99210 -999.25 913.28881
 919.12440 -999.25 -999.25 -999.25 23.93170 0.56990 0.92260 -999.25 143.65120 41.42620 0.99810 -999.25 913.43679
 919.27680 -999.25 -999.25 -999.25 22.75280 0.56990 0.92260 -999.25 150.99010 41.42620 0.99810 -999.25 913.58477
 919.42920 -999.25 -999.25 -999.25 23.26360 0.56990 0.92260 -999.25 153.20151 41.42620 0.99810 -999.25 913.73275
 919.58160 -999.25 -999.25 -999.25 23.77450 0.56990 1.02790 -999.25 155.14191 1000.00000 1.14950 -999.25 913.88073
 919.73400 -999.25 -999.25 -999.25 24.28540 0.56990 1.02790 -999.25 158.38780 1000.00000 1.14950 -999.25 914.02871
 919.88640 -999.25 -999.25 -999.25 25.18920 0.56990 1.02790 -999.25 158.36800 1000.00000 1.14950 -999.25 914.17669
 920.03880 -999.25 -999.25 -999.25 26.09300 0.56990 0.98960 -999.25 150.80749 1000.00000 1.10370 -999.25 914.32467
 920.19120 -999.25 -999.25 -999.25 28.96170 0.56990 0.98960 -999.25 145.79320 1000.00000 1.10370 -999.25 914.47266
 920.34360 -999.25 -999.25 -999.25 30.92660 0.56990 0.98960 -999.25 139.82010 1000.00000 1.10370 -999.25 914.62064
 920.49600 -999.25 -999.25 -999.25 32.89150 0.55250 0.94810 -999.25 135.34250 1000.00000 1.10570 -999.25 914.76862
 920.64840 -999.25 -999.25 -999.25 32.89150 0.48510 0.94810 -999.25 131.86700 1000.00000 1.10570 -999.25 914.91660
 920.80080 -999.25 -999.25 -999.25 32.89150 0.48270 0.94810 -999.25 129.30580 1000.00000 1.10570 -999.25 915.06458
 920.95320 -999.25 -999.25 -999.25 32.89150 0.48530 0.92750 -999.25 128.04550 1000.00000 1.10940 -999.25 915.21256
 921.10560 -999.25 -999.25 -999.25 32.26270 0.48630 0.92750 -999.25 130.21831 1000.00000 1.10940 -999.25 915.36054
 921.25800 -999.25 -999.25 -999.25 31.63400 0.48630 0.92750 -999.25 130.65289 1000.00000 1.10940 -999.25 915.50852
 921.41040 -999.25 -999.25 -999.25 31.00520 0.48630 0.89260 -999.25 133.28200 1000.00000 1.08790 -999.25 915.65650
 921.56280 -999.25 -999.25 -999.25 28.88320 0.48630 0.89260 -999.25 139.85470 1000.00000 1.08790 -999.25 915.80448
 921.71520 -999.25 -999.25 -999.25 26.76110 0.48630 0.88830 -999.25 145.84000 1000.00000 1.09830 -999.25 915.95246
