~Version ---------------------------------------------------
VERS     .                             2.0 : CWLS log ASCII Standard -VERSION 2.0
WRAP     .                              NO : One Line per depth step
PROD     .                    Schlumberger : LAS Producer
PROG     .               DLIS to ASCII 2.3 : LAS Program name and version
CREA     .                   2019/04/03 19 : 51                          :LAS Creation date {YYYY/MM/DD hh:mm}
DLIS_CREA.                  2009-Feb-18 14 : 44                          :DLIS Creation date and time {YYYY-MMM-DD hh:mm}
SOURCE   . WLC_PETRO_COMPUTED_INPUT_1.DLIS : DLIS File Name
FILE-ID  .                   INPUT.logdata : File Identification Number
~Well ------------------------------------------------------
STRT.F                 1382.0 : START DEPTH
STOP.F                12441.0 : STOP DEPTH
STEP.F                    0.5 : STEP
NULL.                 -999.25 : NULL VALUE
COMP.                         : COMPANY
WELL.                15/9-F-5 : WELL
FLD .                   VOLVE : FIELD
LOC .                         : LOCATION
CNTY.         MAERSK INSPIRER : COUNTY
STAT.                         : STATE
CTRY.                         : COUNTRY
API .                         : API NUMBER
UWI .                         : UNIQUE WELL ID
DATE.                         : LOG DATE
SRVC. CROCKER DATA PROCESSING : SERVICE COMPANY
LATI.DEG                      : LATITUDE
LONG.DEG                      : LONGITUDE
GDAT.                         : GeoDetic Datum
~Curve Information -----------------------------------------
DEPTH.F            : DEPTH (BOREHOLE) {F10.1}
DEPTH..1IN         : Measured Depth {I11}
CALI .INCHES       : CALI:UNKNOWN:rC:NONE:v1 {F13.4}
DRHO .G/C3         : DRHO:UNKNOWN:rC:NONE:v1 {F13.4}
DT   .US/F         : DT:UNKNOWN:rC:NONE:v1 {F13.4}
GR   .API          : GR:UNKNOWN:rC:NONE:v1 {F13.4}
NPHI .V/V_DECIMAL  : NPHI:UNKNOWN:rC:NONE:v1 {F13.4}
RD   .UNKNOWN      : RD:UNKNOWN:rC:NONE:v1 {F13.4}
RHOB .G/C3         : RHOB:UNKNOWN:rC:NONE:v1 {F13.4}
RS   .UNKNOWN      : RS:UNKNOWN:rC:NONE:v1 {F13.4}
RT   .OHMM         : RT:UNKNOWN:rC:NONE:v1 {F13.4}
TVD  .M            : True Vertical Depth from PyLasMech
~Params ----------------------------------------------------
WN  .        15/9-F-5 : Well Name
FN  .           VOLVE : Field
CTRY.          NORWAY : Country
COUN. MAERSK INSPIRER : County or Rig name
PDAT.             MSL : Perm. Datum
ELZ .M            0.0 : Elev. Log Zero (wrt EPD)
RUN .                 : RUN NUMBER
EPD .                 : Elevation of Permanent Datum above Mean Sea Level
LMF .                 : Logging Measured From (Name of Logging Elevation Reference)
APD .                 : Elevation of Depth Reference (LMF) above Permanent Datum
~Other -----------------------------------------------------
~ASCII -----------------------------------------------------
# ...
 11171.50000 1340580.00000 8.47980 0.04000 83.53410 99.12100 0.23330 1.97940 2.53000 1.76020 1.74000 3006.53078
 11172.00000 1340640.00000 8.47030 0.04000 83.02690 100.12110 0.22120 1.95080 2.53000 1.76970 1.74000 3006.64296
 11172.50000 1340700.00000 8.48000 0.04000 83.35370 102.85350 0.22600 1.94000 2.52010 1.76010 1.75970 3006.75515
 11173.00000 1340760.00000 8.47000 0.04000 85.14530 101.11000 0.23170 1.92000 2.53000 1.75000 1.78000 3006.86733
 11173.50000 1340820.00000 8.46980 0.04020 84.48380 100.51880 0.21850 1.90110 2.54020 1.79890 1.84790 3006.97952
 11174.00000 1340880.00000 8.46030 0.04970 82.17040 99.90920 0.21590 1.95820 2.54970 1.74180 1.73360 3007.09171
 11174.50000 1340940.00000 8.45020 0.04020 81.92220 97.77440 0.23110 1.94030 2.55000 1.75970 1.76940 3007.20389
 11175.00000 1341000.00000 8.44000 0.04000 82.81460 97.65000 0.22570 1.92000 2.55000 1.80000 1.82000 3007.31608
 11175.50000 1341060.00000 8.49020 0.03000 82.96480 95.22740 0.22570 1.95980 2.54000 1.78050 1.81980 3007.42826
 11176.00000 1341120.00000 8.50000 0.02970 83.02040 94.41700 0.21870 1.94940 2.54030 1.81180 1.81270 3007.54045
 11176.50000 1341180.00000 8.50000 0.02020 82.73730 93.36920 0.20920 1.93040 2.54980 1.86900 1.89840 3007.65263
 11177.00000 1341240.00000 8.51000 0.02000 82.31450 94.00000 0.22260 1.93000 2.54000 1.85000 1.85000 3007.76482
 11177.50000 1341300.00000 8.50000 0.03000 82.18750 94.54930 0.23080 1.95130 2.53000 1.85910 1.88870 3007.87700
 11178.00000 1341360.00000 8.50000 0.02970 82.04500 94.47990 0.21510 2.03950 2.53000 1.79000 1.79050 3007.98919
 11178.50000 1341420.00000 8.50000 0.02020 82.17460 93.78460 0.23010 2.02040 2.53000 1.79000 1.80960 3008.10137
 11179.00000 1341480.00000 8.52000 0.02000 83.04440 93.90930 0.23790 2.01000 2.53990 1.80990 1.88960 3008.21356
 11179.50000 1341540.00000 8.52000 0.02010 82.98640 93.09500 0.23720 2.04000 2.54010 1.82030 1.79090 3008.32574
 11180.00000 1341600.00000 8.50970 0.03000 81.54030 90.67950 0.22550 2.06050 2.55080 1.85180 1.87070 3008.43793
 11180.50000 1341660.00000 8.50020 0.03000 80.53310 86.85040 0.21600 2.07950 2.57930 1.91840 1.89930 3008.55012
 11181.00000 1341720.00000 8.48000 0.02010 79.33800 82.71260 0.21230 2.01000 2.58990 1.97950 2.00910 3008.66230
 11181.50000 1341780.00000 8.48000 0.02000 78.04500 81.32310 0.21710 1.95000 2.57980 2.02980 2.11930 3008.77449
 11182.00000 1341840.00000 8.49000 0.02020 78.77590 83.02560 0.22490 2.03130 2.55980 1.99840 2.02710 3008.88667
 11182.50000 1341900.00000 8.49000 0.02980 80.23890 86.22600 0.23950 2.08850 2.55030 1.93180 1.90320 3008.99886
 11183.00000 1341960.00000 8.49000 0.03000 80.43730 92.24600 0.22030 2.08000 2.54010 1.93990 1.90000 3009.11104
 11183.50000 1342020.00000 8.50000 0.02000 80.46720 93.91970 0.22740 2.09000 2.53000 1.91010 1.90040 3009.22323
 11184.00000 1342080.00000 8.53940 0.02020 81.46330 93.85700 0.22620 2.06040 2.53000 1.93000 1.98040 3009.33541
 11184.50000 1342140.00000 8.51080 0.02970 82.21110 93.71410 0.23580 2.07940 2.53000 1.93000 1.99940 3009.44760
 11185.00000 1342200.00000 8.51000 0.03000 82.24540 95.50570 0.23200 2.12000 2.53000 1.92010 1.96050 3009.55978
 11185.50000 1342260.00000 8.50000 0.04000 82.82950 99.24000 0.23170 2.21000 2.53000 1.86000 1.96000 3009.67197
 11186.00000 1342320.00000 8.51020 0.04020 83.11680 99.63640 0.23770 2.29040 2.53000 1.81000 1.88960 3009.78415
 11186.50000 1342380.00000 8.51970 0.04970 83.54550 98.35050 0.24140 2.30940 2.53000 1.81000 1.87060 3009.89634
 11187.00000 1342440.00000 8.51020 0.05980 84.19030 96.12550 0.24070 2.20180 2.52020 1.89860 2.03730 3010.00853
 11187.50000 1342500.00000 8.52000 0.07000 84.68820 94.96000 0.23280 2.20000 2.53000 1.99000 2.09000 3010.12071
 11188.00000 1342560.00000 8.53970 0.08980 84.37820 95.44260 0.23470 2.23110 2.55050 2.05060 2.11050 3010.23290
 11188.50000 1342620.00000 8.51970 0.08000 82.58790 90.48740 0.22680 2.29910 2.58090 2.09420 2.14330 3010.34508
 11189.00000 1342680.00000 8.51020 0.08000 80.53450 84.37240 0.21580 2.27050 2.60950 2.22760 2.24810 3010.45727
 11189.50000 1342740.00000 8.49000 0.07000 77.64390 78.37000 0.21560 2.15000 2.61000 2.27000 2.43000 3010.56945
 11190.00000 1342800.00000 8.44000 0.06010 75.41120 78.92470 0.22100 2.14000 2.58990 2.28880 2.38870 3010.68164
 11190.50000 1342860.00000 8.47110 0.07000 75.85990 82.32680 0.21790 2.21950 2.57940 2.19830 2.28840 3010.79382
 11191.00000 1342920.00000 8.50920 0.07000 77.19130 85.67960 0.22380 2.20040 2.56040 2.14120 2.23120 3010.90601
 11191.50000 1342980.00000 8.50000 0.07000 79.31120 88.80360 0.23560 2.21000 2.55010 2.05050 2.20020 3011.01819
 11192.00000 1343040.00000 8.52000 0.05010 81.62480 90.74750 0.22530 2.27000 2.54000 2.00930 2.16830 3011.13038
 11192.50000 1343100.00000 8.50050 0.06000 83.28370 92.42120 0.23260 2.32950 2.54000 1.93920 2.01000 3011.24256
 11193.00000 1343160.00000 8.51960 0.06000 84.36410 94.37390 0.23480 2.31040 2.54000 1.91070 2.01000 3011.35475
 11193.50000 1343220.00000 8.51000 0.06000 84.71490 94.28110 0.21540 2.22000 2.53010 1.90010 2.07940 3011.46694
 11194.00000 1343280.00000 8.52000 0.05000 84.90170 94.66100 0.23700 2.15000 2.51000 1.90950 1.88980 3011.57912
 11194.50000 1343340.00000 8.54910 0.05000 83.71320 96.03880 0.24270 2.14490 2.51000 1.84750 1.86550 3011.69131
 11195.00000 1343400.00000 8.51100 0.05000 84.10160 96.41020 0.24640 2.35450 2.51000 1.74280 1.67500 3011.80349
 11195.50000 1343460.00000 8.49000 0.04010 85.20870 98.23050 0.24660 2.27000 2.51000 1.74990 1.73930 3011.91568
 11196.00000 1343520.00000 8.49000 0.05020 86.02370 96.36890 0.25160 2.08000 2.52050 1.84000 1.87000 3012.02786
 11196.50000 1343580.00000 8.48000 0.08960 86.34270 96.08940 0.23160 2.10180 2.61180 1.84240 1.86800 3012.14005
 11197.00000 1343640.00000 8.48000 0.07060 84.51050 92.72710 0.22060 2.18750 2.69750 1.95670 1.77280 3012.25223
 11197.50000 1343700.00000 8.48000 -0.00890 82.60210 91.78150 0.20670 2.12000 2.73950 2.09810 2.04630 3012.36442
 11198.00000 1343760.00000 8.49000 -0.05000 82.80090 92.56000 0.21710 2.03000 2.66000 2.08000 2.32000 3012.47660
 11198.50000 1343820.00000 8.50050 -0.03880 84.30370 95.69170 0.23710 2.10050 2.56000 1.97910 2.13740 3012.58879
 11199.00000 1343880.00000 8.52910 0.02790 85.61880 97.41570 0.22190 2.12910 2.56000 1.93150 1.99450 3012.70097
 11199.50000 1343940.00000 8.52020 0.03000 84.91890 99.81190 0.24900 2.14970 2.51080 1.95950 1.97030 3012.81316
 11200.00000 1344000.00000 8.50000 0.03000 84.40860 98.45000 0.25390 2.18000 2.49000 1.97000 1.98000 3012.92535
 11200.50000 1344060.00000 8.50980 0.03000 85.09850 96.98810 0.24080 2.11170 2.48020 2.03970 2.18890 3013.03753
 11201.00000 1344120.00000 8.50030 0.03000 85.98360 95.59860 0.22330 2.21150 2.49060 2.02090 2.12000 3013.14972
 11201.50000 1344180.00000 8.50980 0.03000 85.41470 94.28410 0.22890 2.25910 2.50960 2.04950 2.12000 3013.26190
 11202.00000 1344240.00000 8.52000 0.03000 84.45570 94.20000 0.23540 2.31000 2.52000 1.96000 2.00000 3013.37409
 11202.50000 1344300.00000 8.53000 0.02000 83.59260 94.20250 0.24650 2.34000 2.51010 1.98970 2.00190 3013.48627
 11203.00000 1344360.00000 8.52920 0.02050 83.11020 95.88050 0.25560 2.32830 2.52140 1.97300 2.14140 3013.59846
 11203.50000 1344420.00000 8.50060 0.03960 83.31670 96.24240 0.23500 2.27120 2.56900 2.07780 2.18900 3013.71064
 11204.00000 1344480.00000 8.49000 0.02010 83.90770 95.87200 0.24150 2.30000 2.61970 2.08000 2.14030 3013.82283
 11204.50000 1344540.00000 8.54000 0.00990 83.01050 94.15530 0.22140 2.37000 2.67990 2.12100 2.13200 3013.93501
 11205.00000 1344600.00000 8.51000 0.00030 81.13800 92.69770 0.22530 2.37070 2.66900 2.21020 2.32030 3014.04720
 11205.50000 1344660.00000 8.51000 0.00980 80.12770 89.18300 0.21710 2.39930 2.63090 2.21980 2.32980 3014.15939
 11206.00000 1344720.00000 8.53000 0.01990 79.05680 87.30450 0.19760 2.27000 2.60020 2.27950 2.58790 3014.27157
 11206.50000 1344780.00000 8.51000 0.02010 78.26720 87.69190 0.24830 2.24000 2.56980 2.39910 2.73670 3014.38376
 11207.00000 1344840.00000 8.50980 0.03020 79.21080 90.44170 0.23700 2.39190 2.55000 2.28820 2.32840 3014.49594
