~Version ---------------------------------------------------
VERS     .                             2.0 : CWLS log ASCII Standard -VERSION 2.0
WRAP     .                              NO : One Line per depth step
PROD     .         CROCKER DATA PROCESSING : LAS Producer
PROG     .                   LAS Viewer v0 : LAS Program name and version
CREA     .                2019/04/03 21-01 : LAS Creation date {YYYY/MM/DD hh-mm}
DLIS_CREA.               2009-Aug-25 10-08 : DLIS Creation date and time {YYYY-MMM-DD hh-mm}
SOURCE   . WLC_PETRO_COMPUTED_INPUT_1.DLIS : DLIS File Name
FILE-ID  .               CPI_INPUT.logdata : File Identification Number
~Well ------------------------------------------------------
STRT .m               2560.0152 : START DEPTH
STOP .m               3222.1932 : STOP DEPTH
STEP .m       0.152400000000398 : STEP
NULL .                  -999.25 : NULL VALUE
COMP .             STATOILHYDRO : COMPANY
WELL .              15/9-F-15 C : WELL
FIELD.                    VOLVE : FIELD
LOC  .                          : LOCATION
CNTY .                          : COUNTY
STAT .                          : STATE
NATI .                          : COUNTRY
API  .                          : API NUMBER
UWI  .                          : UNIQUE WELL ID
SRVC .                          : SERVICE COMPANY
LATI . 058 26' 29.706" N    DMS : LATITUDE
LONG . 001 53' 15.149" E    DMS : LONGITUDE
GDAT .                      MSL : GeoDetic Datum
~Curve Information -----------------------------------------
DEPTH.m      : Measured Depth
CALI .IN     : 
DRHO .G/CC   : 
DRHU .G/CC   : 
DT   .US/FT  : 
GR   .GAPI   : 
NPHI .V/V    : 
RD   .OHMM   : 
RHOB .G/CC   : 
ROBU .G/CC   : 
RS   .OHMM   : 
RT   .OHMM   : 
TVD  .M      : True Vertical Depth from PyLasMech
~Params ----------------------------------------------------
RUN . MWD RUN 12-13 : Run number
PDAT.           MSL : Perm. Datum
~Other -----------------------------------------------------
~ASCII -----------------------------------------------------
# ...
 2877.46440 -999.25 -999.25 -999.25 61.64910 20.53500 -999.25 6.21230 -999.25 -999.25 5.65950 5.71520 2707.01457
 2877.61680 -999.25 -999.25 -999.25 61.61900 19.88970 -999.25 6.19200 -999.25 -999.25 5.58020 5.57250 2707.16302
 2877.76920 -999.25 -999.25 -999.25 61.63190 19.69340 -999.25 6.18830 -999.25 -999.25 5.58670 5.61920 2707.31147
 2877.92160 -999.25 -999.25 -999.25 61.99450 19.69340 -999.25 6.15470 -999.25 -999.25 5.66970 5.82250 2707.45991
 2878.07400 -999.25 -999.25 -999.25 62.36100 21.09600 -999.25 6.18680 -999.25 -999.25 5.80890 5.99880 2707.60836
 2878.22640 -999.25 -999.25 -999.25 62.65710 20.53500 -999.25 6.27990 -999.25 -999.25 6.37810 6.29010 2707.75681
 2878.37880 -999.25 -999.25 -999.25 62.81090 19.04810 -999.25 6.20880 -999.25 -999.25 6.55380 6.44090 2707.90525
 2878.53120 -999.25 -999.25 -999.25 62.80570 16.24280 -999.25 6.14520 -999.25 -999.25 6.45440 6.25870 2708.05370
 2878.68360 -999.25 -999.25 -999.25 62.68900 16.91610 -999.25 5.92930 -999.25 -999.25 6.23360 6.14100 2708.20214
 2878.83600 -999.25 -999.25 -999.25 62.39430 17.16860 -999.25 5.98580 -999.25 -999.25 5.77020 5.56980 2708.35059
 2878.98840 -999.25 -999.25 -999.25 61.83510 17.25270 -999.25 5.92580 -999.25 -999.25 5.42320 5.32620 2708.49904
 2879.14080 -999.25 -999.25 -999.25 60.95210 18.65540 -999.25 5.84850 -999.25 -999.25 5.20470 5.28570 2708.64748
 2879.29320 -999.25 -999.25 -999.25 60.39450 18.09430 -999.25 5.97690 -999.25 -999.25 5.17210 5.32650 2708.79593
 2879.44560 -999.25 -999.25 -999.25 60.76870 20.05810 -999.25 5.92420 -999.25 -999.25 5.49190 5.62000 2708.94438
 2879.59800 -999.25 -999.25 -999.25 62.15050 19.58120 -999.25 5.98420 -999.25 -999.25 5.59080 5.71090 2709.09282
 2879.75040 -999.25 -999.25 -999.25 63.50510 20.61910 -999.25 6.09680 -999.25 -999.25 5.71880 5.71450 2709.24127
 2879.90280 -999.25 -999.25 -999.25 64.04040 19.13230 -999.25 6.15790 -999.25 -999.25 6.05240 6.02310 2709.38971
 2880.05520 -999.25 -999.25 -999.25 63.89460 17.72960 -999.25 6.05290 -999.25 -999.25 6.13810 6.06260 2709.53816
 2880.20760 -999.25 -999.25 -999.25 63.32570 17.56130 -999.25 6.16790 -999.25 -999.25 5.82060 5.62490 2709.68661
 2880.36000 -999.25 -999.25 -999.25 62.52540 18.76760 -999.25 6.30980 -999.25 -999.25 5.62680 5.54740 2709.83505
 2880.51240 -999.25 -999.25 -999.25 62.28160 19.80560 -999.25 6.31070 -999.25 -999.25 5.65490 5.67550 2709.98350
 2880.66480 -999.25 -999.25 -999.25 63.20670 20.25440 -999.25 6.57930 -999.25 -999.25 5.71420 5.94880 2710.13195
 2880.81720 -999.25 -999.25 -999.25 63.51210 21.01190 -999.25 6.60180 -999.25 -999.25 6.33560 6.50440 2710.28039
 2880.96960 -999.25 -999.25 -999.25 63.92330 20.05810 -999.25 6.72780 -999.25 -999.25 6.62570 6.77190 2710.42884
 2881.12200 -999.25 -999.25 -999.25 64.02100 18.29070 -999.25 6.79880 -999.25 -999.25 6.90130 6.87090 2710.57728
 2881.27440 -999.25 -999.25 -999.25 63.14920 17.53330 -999.25 6.84590 -999.25 -999.25 7.17230 7.02520 2710.72573
 2881.42680 -999.25 -999.25 -999.25 61.97570 17.92600 -999.25 6.78170 -999.25 -999.25 7.23540 6.98510 2710.87418
 2881.57920 -999.25 -999.25 -999.25 61.40690 20.45080 -999.25 6.68520 -999.25 -999.25 7.19800 6.97070 2711.02262
 2881.73160 -999.25 -999.25 -999.25 61.18720 18.76760 -999.25 6.67820 -999.25 -999.25 7.03780 6.81310 2711.17107
 2881.88400 -999.25 -999.25 -999.25 61.46730 18.57120 -999.25 6.64410 -999.25 -999.25 6.90190 6.78980 2711.31952
 2882.03640 -999.25 -999.25 -999.25 61.74610 17.72960 -999.25 6.61800 -999.25 -999.25 6.23110 6.20570 2711.46796
 2882.18880 -999.25 -999.25 -999.25 59.34230 20.08610 -999.25 6.48790 -999.25 -999.25 6.03120 6.06670 2711.61641
 2882.34120 -999.25 -999.25 -999.25 56.12020 20.17030 -999.25 6.52190 -999.25 -999.25 5.72060 5.74010 2711.76485
 2882.49360 -999.25 -999.25 -999.25 56.11000 19.49700 -999.25 6.45190 -999.25 -999.25 5.77280 5.83970 2711.91330
 2882.64600 -999.25 -999.25 -999.25 59.16600 20.22640 -999.25 6.69300 -999.25 -999.25 5.23600 5.39440 2712.06175
 2882.79840 -999.25 -999.25 -999.25 62.40290 20.70330 -999.25 6.69730 -999.25 -999.25 5.65770 5.89140 2712.21019
 2882.95080 -999.25 -999.25 -999.25 63.93110 19.97390 -999.25 6.79650 -999.25 -999.25 6.19250 6.50940 2712.35864
 2883.10320 -999.25 -999.25 -999.25 64.44400 16.88800 -999.25 7.14040 -999.25 -999.25 6.64540 6.80450 2712.50709
 2883.25560 -999.25 -999.25 -999.25 64.25450 16.41110 -999.25 7.02060 -999.25 -999.25 7.39970 7.30250 2712.65553
 2883.40800 -999.25 -999.25 -999.25 62.76260 17.33690 -999.25 7.14530 -999.25 -999.25 7.43100 7.16320 2712.80398
 2883.56040 -999.25 -999.25 -999.25 61.31050 17.98210 -999.25 7.17610 -999.25 -999.25 7.21290 7.02280 2712.95243
 2883.71280 -999.25 -999.25 -999.25 60.52590 17.33690 -999.25 7.51560 -999.25 -999.25 6.97180 6.93170 2713.10087
 2883.86520 -999.25 -999.25 -999.25 60.19510 15.56950 -999.25 7.58440 -999.25 -999.25 7.36590 7.42310 2713.24932
 2884.01760 -999.25 -999.25 -999.25 59.75050 14.47550 -999.25 7.69050 -999.25 -999.25 7.68710 7.72600 2713.39776
 2884.17000 -999.25 -999.25 -999.25 59.79020 15.03650 -999.25 8.02360 -999.25 -999.25 7.37520 7.52710 2713.54621
 2884.32240 -999.25 -999.25 -999.25 60.26600 15.12070 -999.25 8.37480 -999.25 -999.25 7.41920 7.52210 2713.69466
 2884.47480 -999.25 -999.25 -999.25 60.35440 14.84010 -999.25 8.41970 -999.25 -999.25 8.06160 8.02430 2713.84310
 2884.62720 -999.25 -999.25 -999.25 59.76240 14.08270 -999.25 8.59640 -999.25 -999.25 8.03260 8.14190 2713.99155
 2884.77960 -999.25 -999.25 -999.25 58.78280 14.36320 -999.25 8.99630 -999.25 -999.25 8.24300 8.55010 2714.14000
 2884.93200 -999.25 -999.25 -999.25 58.44800 13.97050 -999.25 9.08060 -999.25 -999.25 9.51030 9.63610 2714.28844
 2885.08440 -999.25 -999.25 -999.25 59.09900 14.44740 -999.25 9.19420 -999.25 -999.25 10.17330 10.03310 2714.43689
 2885.23680 -999.25 -999.25 -999.25 59.66050 14.72790 -999.25 9.36480 -999.25 -999.25 10.37570 10.05260 2714.58533
 2885.38920 -999.25 -999.25 -999.25 59.22550 15.20480 -999.25 9.42480 -999.25 -999.25 10.62200 9.99050 2714.73378
 2885.54160 -999.25 -999.25 -999.25 57.61020 14.36320 -999.25 9.48980 -999.25 -999.25 9.98180 9.53520 2714.88223
 2885.69400 -999.25 -999.25 -999.25 55.99820 14.19490 -999.25 9.39980 -999.25 -999.25 9.51410 9.37030 2715.03067
 2885.84640 -999.25 -999.25 -999.25 56.36700 14.84010 -999.25 9.41150 -999.25 -999.25 9.24670 9.37150 2715.17912
 2885.99880 -999.25 -999.25 -999.25 56.38450 15.28900 -999.25 9.33040 -999.25 -999.25 9.25080 9.35180 2715.32757
 2886.15120 -999.25 -999.25 -999.25 57.61370 14.89630 -999.25 9.38630 -999.25 -999.25 8.61300 9.07530 2715.47601
 2886.30360 -999.25 -999.25 -999.25 58.67440 14.25100 -999.25 9.02320 -999.25 -999.25 9.53630 9.74600 2715.62446
 2886.45600 -999.25 -999.25 -999.25 58.98920 14.64380 -999.25 8.79820 -999.25 -999.25 9.39840 9.35730 2715.77290
 2886.60840 -999.25 -999.25 -999.25 59.87430 17.00030 -999.25 8.75620 -999.25 -999.25 8.16510 8.15080 2715.92135
 2886.76080 -999.25 -999.25 -999.25 59.46470 18.48710 -999.25 8.62760 -999.25 -999.25 7.90380 7.91130 2716.06980
 2886.91320 -999.25 -999.25 -999.25 58.55530 19.04810 -999.25 8.47050 -999.25 -999.25 7.53870 7.72740 2716.21824
 2887.06560 -999.25 -999.25 -999.25 57.71430 18.17850 -999.25 8.47390 -999.25 -999.25 7.57290 7.71150 2716.36669
 2887.21800 -999.25 -999.25 -999.25 58.20830 17.42110 -999.25 8.16650 -999.25 -999.25 7.66800 8.01870 2716.51514
 2887.37040 -999.25 -999.25 -999.25 59.83050 17.14050 -999.25 7.91090 -999.25 -999.25 7.95280 8.22650 2716.66358
 2887.52280 -999.25 -999.25 -999.25 60.27750 15.00850 -999.25 7.72560 -999.25 -999.25 7.89590 7.95750 2716.81203
 2887.67520 -999.25 -999.25 -999.25 59.73960 15.56950 -999.25 7.31090 -999.25 -999.25 7.71940 7.51520 2716.96047
 2887.82760 -999.25 -999.25 -999.25 59.07640 16.13060 -999.25 7.06680 -999.25 -999.25 6.76780 6.67940 2717.10892
 2887.98000 -999.25 -999.25 -999.25 59.53830 17.33690 -999.25 6.76890 -999.25 -999.25 6.75200 6.71470 2717.25737
 2888.13240 -999.25 -999.25 -999.25 61.03830 16.41110 -999.25 6.55080 -999.25 -999.25 6.34530 6.30120 2717.40581
