~Version ---------------------------------------------------
VERS. 2.0 : CWLS log ASCII Standard -VERSION 2.0
WRAP.  NO : One line per depth step
~Well ------------------------------------------------------
STRT     .M           239.8776 : START
STOP     .M          4186.7328 : STOP
STEP     .M 0.1524000000000001 : STEP
NULL     .             -999.25 : NULL VALUE
COMP     .        STATOILHYDRO : COMPANY
WELL     .           15/9-F-12 : WELL
FLD      .               VOLVE : FIELD
LOC      .             UNKNOWN : LOCATION
CNTY     .             UNKNOWN : COUNTY
STAT     .             UNKNOWN : STATE
CTRY     .              Norway : COUNTRY
SRVC     .             UNKNOWN : SERVICE COMPANY
DATE     .             UNKNOWN : LOG DATE
UWI      .        NO 15/9-F-12 : UNIQUE WELL ID
XCOORD   .           435050.17 : SURFACE X
YCOORD   .           6478574.7 : SURFACE Y
LAT      .           58.441713 : LATITUDE
LON      .             1.88748 : LONGITUDE
ELEV     .M               54.9 : SURFACE ELEV
ELEV_TYPE.                  KB : ELEV TYPE
~Curve Information -----------------------------------------
DEPTH    .M           UNKNOWN : Measured Depth
CARB_FLAG.UNKNOWN     UNKNOWN : CARB_FLAG:UNKNOWN:rC:NONE:v1
COAL_FLAG.UNKNOWN     UNKNOWN : COAL_FLAG:UNKNOWN:rC:NONE:v1
DT       .us/ft       UNKNOWN : DT:UNKNOWN:rC:NONE:v2
GR       .API         UNKNOWN : GR:UNKNOWN:rC:NONE:v1
NPHI     .v/v_decimal UNKNOWN : NPHI:UNKNOWN:rC:NONE:v1
RD       .UNKNOWN     UNKNOWN : RD:UNKNOWN:rC:NONE:v1
RHOB     .g/cm3       UNKNOWN : RHOB:UNKNOWN:rC:NONE:v1
ROP5_RM  .UNKNOWN     UNKNOWN : ROP5_RM:UNKNOWN:rC:NONE:v1
RS       .UNKNOWN     UNKNOWN : RS:UNKNOWN:rC:NONE:v1
RT       .ohm.m       UNKNOWN : RT:UNKNOWN:rC:NONE:v1
SAND_FLAG.UNKNOWN     UNKNOWN : SAND_FLAG:UNKNOWN:rC:NONE:v1
TVD      .M                   : True Vertical Depth from PyLasMech
~Params ----------------------------------------------------
~Other -----------------------------------------------------
~ASCII -----------------------------------------------------
# ...
 3281.93400 0.00000 0.00000 80.44910 82.92550 0.17870 1.35810 2.51080 27.64130 2.47980 3.75040 0.00000 2963.24674
 3282.08640 0.00000 0.00000 77.95550 86.02600 0.17450 1.34750 2.51830 27.65210 2.32430 3.61550 0.00000 2963.33755
 3282.23880 0.00000 0.00000 77.63700 89.14110 0.16990 1.30790 2.51520 27.67340 2.20850 3.30760 0.00000 2963.42835
 3282.39120 0.00000 0.00000 78.09620 92.25610 0.16540 1.26830 2.51220 27.69480 2.09270 2.99980 0.00000 2963.51916
 3282.54360 0.00000 0.00000 80.00720 94.19750 0.16270 1.24440 2.51000 27.66810 1.99600 2.73470 0.00000 2963.60996
 3282.69600 0.00000 0.00000 80.22990 93.20990 0.16460 1.25960 2.51000 27.52180 1.94730 2.57620 0.00000 2963.70077
 3282.84840 0.00000 0.00000 84.53770 92.22240 0.16660 1.27480 2.51000 27.37550 1.89850 2.41770 0.00000 2963.79157
 3283.00080 0.00000 0.00000 84.34680 91.24160 0.16860 1.29000 2.51000 27.22990 1.84970 2.25940 0.00000 2963.88238
 3283.15320 0.00000 0.00000 76.84270 91.54950 0.16790 1.29000 2.51310 27.20850 1.79480 2.14360 0.00000 2963.97318
 3283.30560 0.00000 0.00000 81.49570 91.85730 0.16720 1.29000 2.51610 27.18720 1.74000 2.02770 0.00000 2964.06399
 3283.45800 0.00000 0.00000 83.53450 92.16520 0.16650 1.29000 2.51920 27.16590 1.68510 1.91190 0.00000 2964.15479
 3283.61040 0.00000 0.00000 79.55050 90.87000 0.16390 1.30990 2.52440 27.13130 1.65010 1.85570 0.00000 2964.24560
 3283.76280 0.00000 0.00000 79.92680 88.96500 0.16070 1.33730 2.53050 27.09170 1.62270 1.82220 0.00000 2964.33640
 3283.91520 0.00000 0.00000 78.54100 87.06000 0.15740 1.36470 2.53660 27.05200 1.59530 1.78870 0.00000 2964.42721
 3284.06760 0.00000 0.00000 81.95170 85.90130 0.15660 1.38540 2.53730 27.08410 1.54350 1.74970 0.00000 2964.51801
 3284.22000 0.00000 0.00000 82.21120 85.67880 0.15880 1.39760 2.53120 27.20600 1.46120 1.70400 0.00000 2964.60882
 3284.37240 0.00000 0.00000 79.96780 85.45630 0.16100 1.40980 2.52510 27.32790 1.37890 1.65830 0.00000 2964.69962
 3284.52480 0.00000 0.00000 78.50330 85.09840 0.16360 1.42400 2.51800 27.43690 1.30450 1.62250 0.00000 2964.79043
 3284.67720 0.00000 0.00000 76.29940 84.04380 0.16760 1.44840 2.50580 27.47960 1.27100 1.63770 0.00000 2964.88124
 3284.82960 0.00000 0.00000 77.55370 82.98920 0.17170 1.47270 2.49360 27.52230 1.23750 1.65300 0.00000 2964.97204
 3284.98200 0.00000 0.00000 75.93310 81.93460 0.17580 1.49710 2.48140 27.56500 1.20400 1.66820 0.00000 2965.06285
 3285.13440 0.00000 0.00000 70.01960 81.89330 0.17730 1.50810 2.47190 27.64530 1.17310 1.62160 1.00000 2965.15365
 3285.28680 0.00000 0.00000 69.56150 81.98780 0.17840 1.51720 2.46280 27.73060 1.14260 1.56680 1.00000 2965.24446
 3285.43920 0.00000 0.00000 67.58270 82.08230 0.17950 1.52640 2.45360 27.81600 1.11220 1.51190 1.00000 2965.33526
 3285.59160 0.00000 0.00000 68.27200 81.08130 0.17710 1.49890 2.45180 27.86280 1.19530 1.46800 1.00000 2965.42607
 3285.74400 0.00000 0.00000 66.56540 79.35300 0.17240 1.44700 2.45490 27.88420 1.35380 1.43140 1.00000 2965.51687
 3285.89640 0.00000 0.00000 66.65480 77.62480 0.16780 1.39520 2.45790 27.90550 1.51230 1.39490 1.00000 2965.60768
 3286.04880 0.00000 0.00000 84.33740 75.81360 0.16250 1.34150 2.47270 27.89370 1.67660 1.52130 1.00000 2965.69848
 3286.20120 0.00000 0.00000 74.60180 73.82630 0.15570 1.28350 2.51230 27.81130 1.85340 1.99370 0.00000 2965.78929
 3286.35360 0.00000 0.00000 80.73030 71.83910 0.14900 1.22560 2.55190 27.72910 2.03020 2.46620 0.00000 2965.88009
 3286.50600 1.00000 0.00000 73.57590 69.98620 0.14270 1.17140 2.58920 27.61560 2.19810 2.90730 0.00000 2965.97090
 3286.65840 1.00000 0.00000 77.44620 71.41260 0.14590 1.20800 2.56780 26.74080 2.14930 2.58420 0.00000 2966.06170
 3286.81080 0.00000 0.00000 74.09390 72.83910 0.14910 1.24460 2.54650 25.86600 2.10050 2.26110 0.00000 2966.15251
 3286.96320 0.00000 0.00000 68.29760 74.26560 0.15230 1.28120 2.52520 24.99120 2.05180 1.93800 0.00000 2966.24331
 3287.11560 0.00000 0.00000 67.76010 75.07470 0.15040 1.24140 2.54310 24.60890 2.06770 1.94790 0.00000 2966.33412
 3287.26800 0.00000 0.00000 68.43640 75.68740 0.14690 1.17740 2.57360 24.38340 2.10430 2.06370 0.00000 2966.42492
 3287.42040 0.00000 0.00000 75.87140 76.30000 0.14340 1.11340 2.60410 24.15780 2.14090 2.17950 0.00000 2966.51573
 3287.57280 1.00000 0.00000 85.51560 76.27780 0.14410 1.06980 2.61420 23.93950 2.09880 2.14830 0.00000 2966.60653
 3287.72520 1.00000 0.00000 87.65990 75.56160 0.14930 1.04850 2.60200 23.72920 1.97080 1.95620 0.00000 2966.69734
 3287.87760 0.00000 0.00000 86.67330 74.84530 0.15450 1.02710 2.58980 23.51890 1.84280 1.76420 0.00000 2966.78814
 3288.03000 0.00000 0.00000 81.32200 74.44700 0.16060 1.01120 2.57220 23.39260 1.70580 1.59980 0.00000 2966.87895
 3288.18240 0.00000 0.00000 77.93680 75.34620 0.17020 1.01730 2.53260 23.60900 1.53210 1.54800 0.00000 2966.96975
 3288.33480 0.00000 0.00000 80.10700 76.24530 0.17980 1.02340 2.49300 23.82540 1.35830 1.49620 0.00000 2967.06056
 3288.48720 0.00000 0.00000 76.45770 77.14450 0.18940 1.02950 2.45330 24.04180 1.18460 1.44440 1.00000 2967.15136
 3288.63960 0.00000 0.00000 71.51510 78.82540 0.18650 1.02440 2.45840 24.33640 1.23140 1.55170 1.00000 2967.24217
 3288.79200 0.00000 0.00000 75.37400 80.57800 0.18250 1.01830 2.46750 24.63820 1.29850 1.67360 1.00000 2967.33297
 3288.94440 0.00000 0.00000 67.36400 82.33060 0.17850 1.01220 2.47670 24.93990 1.36550 1.79550 0.00000 2967.42378
 3289.09680 0.00000 0.00000 66.30270 83.67660 0.17850 1.04480 2.48770 25.23390 1.48490 2.01810 0.00000 2967.51458
 3289.24920 0.00000 0.00000 67.78510 84.78920 0.18090 1.09970 2.49990 25.52350 1.63420 2.29850 0.00000 2967.60539
 3289.40160 0.00000 0.00000 65.27300 85.90170 0.18330 1.15460 2.51210 25.81300 1.78360 2.57890 0.00000 2967.69620
 3289.55400 0.00000 0.00000 67.11750 86.36400 0.18150 1.20190 2.52760 26.19220 1.90700 2.82370 0.00000 2967.78700
 3289.70640 0.00000 0.00000 68.14510 85.64170 0.17230 1.23540 2.54890 26.73480 1.98320 3.00360 0.00000 2967.87781
 3289.85880 0.00000 0.00000 64.90940 84.91930 0.16310 1.26890 2.57020 27.27730 2.05940 3.18340 0.00000 2967.96861
 3290.01120 0.00000 0.00000 65.51560 84.32790 0.15460 1.30290 2.59110 27.78160 2.13520 3.37550 0.00000 2968.05942
 3290.16360 0.00000 0.00000 65.98920 85.38870 0.15440 1.34250 2.60640 27.80290 2.20530 3.72300 0.00000 2968.15022
 3290.31600 1.00000 0.00000 67.29620 86.44940 0.15420 1.38220 2.62160 27.82420 2.27540 4.07050 0.00000 2968.24103
 3290.46840 1.00000 0.00000 68.08640 87.51010 0.15400 1.42180 2.63680 27.84560 2.34550 4.41800 0.00000 2968.33183
 3290.62080 1.00000 0.00000 67.56270 86.14990 0.15500 1.41070 2.63760 27.72920 2.26340 4.10100 0.00000 2968.42264
 3290.77320 1.00000 0.00000 69.45780 84.15650 0.15630 1.38630 2.63450 27.57680 2.14140 3.61030 0.00000 2968.51344
 3290.92560 0.00000 0.00000 70.24570 82.16310 0.15760 1.36190 2.63150 27.42440 2.01950 3.11960 0.00000 2968.60425
 3291.07800 0.00000 0.00000 72.77050 82.00280 0.15910 1.35620 2.62220 27.25800 1.95530 2.74270 0.00000 2968.69505
 3291.23040 0.00000 0.00000 77.69680 83.59080 0.16090 1.36840 2.60700 27.07810 1.94620 2.47450 0.00000 2968.78586
 3291.38280 0.00000 0.00000 79.51910 85.17880 0.16270 1.38060 2.59170 26.89830 1.93700 2.20630 0.00000 2968.87666
 3291.53520 0.00000 0.00000 77.29560 86.05080 0.16720 1.37730 2.56590 26.71570 1.95040 2.02040 0.00000 2968.96747
 3291.68760 0.00000 0.00000 75.71190 84.53900 0.18050 1.32250 2.50500 26.52360 2.03880 2.10880 0.00000 2969.05827
 3291.84000 0.00000 0.00000 77.42080 83.02720 0.19370 1.26760 2.44400 26.33160 2.12720 2.19720 0.00000 2969.14908
 3291.99240 0.00000 0.00000 79.07740 81.51540 0.20700 1.21270 2.38300 26.13960 2.21560 2.28560 1.00000 2969.23988
 3292.14480 0.00000 0.00000 78.95940 81.80200 0.21750 1.17520 2.36840 26.25740 2.06070 2.39140 1.00000 2969.33069
 3292.29720 0.00000 0.00000 79.84280 82.18300 0.22770 1.13870 2.35620 26.39150 1.89310 2.49800 1.00000 2969.42149
 3292.44960 0.00000 0.00000 77.03820 82.56400 0.23800 1.10210 2.34400 26.52570 1.72540 2.60470 0.00000 2969.51230
 3292.60200 0.00000 0.00000 78.15540 80.80300 0.23820 1.10020 2.34200 26.69040 1.49050 2.36460 1.00000 2969.60310
