~Version ---------------------------------------------------
VERS     .                             2.0 : CWLS log ASCII Standard -VERSION 2.0
WRAP     .                              NO : One Line per depth step
PROD     .                    Schlumberger : LAS Producer
PROG     .               DLIS to ASCII 2.3 : LAS Program name and version
CREA     .                   2019/04/03 19 : 56                          :LAS Creation date {YYYY/MM/DD hh:mm}
DLIS_CREA.                  2009-Feb-18 14 : 31                          :DLIS Creation date and time {YYYY-MMM-DD hh:mm}
SOURCE   . WLC_PETRO_COMPUTED_INPUT_1.DLIS : DLIS File Name
FILE-ID  .                   INPUT.logdata : File Identification Number
~Well ------------------------------------------------------
STRT.F                  566.0 : START DEPTH
STOP.F                12302.0 : STOP DEPTH
STEP.F                    0.5 : STEP
NULL.                 -999.25 : NULL VALUE
COMP.            STATOILHYDRO : COMPANY
WELL.               15/9-F-14 : WELL
FLD .                   VOLVE : FIELD
LOC .                         : LOCATION
CNTY.         MAERSK INSPIRER : COUNTY
STAT.                         : STATE
CTRY.                         : COUNTRY
API .                         : API NUMBER
UWI .                         : UNIQUE WELL ID
DATE.                         : LOG DATE
SRVC. CROCKER DATA PROCESSING : SERVICE COMPANY
LATI.DEG                      : LATITUDE
LONG.DEG                      : LONGITUDE
GDAT.                         : GeoDetic Datum
~Curve Information -----------------------------------------
DEPTH.F            : DEPTH (BOREHOLE) {F10.1}
DEPTH..1IN         : Measured Depth {I11}
DRHO .G/C3         : DRHO:UNKNOWN:rC:NONE:v1 {F13.4}
DT   .US/F         : DT:UNKNOWN:rC:NONE:v2 {F13.4}
DTS  .US/F         : DTS:UNKNOWN:rC:NONE:v1 {F13.4}
GR   .API          : GR:UNKNOWN:rC:NONE:v1 {F13.4}
NPHI .V/V_DECIMAL  : NPHI:UNKNOWN:rC:NONE:v1 {F13.4}
PEF  .B/ELEC       : PEF:UNKNOWN:rC:NONE:v1 {F13.4}
RD   .UNKNOWN      : RD:UNKNOWN:rC:NONE:v1 {F13.4}
RHOB .G/C3         : RHOB:UNKNOWN:rC:NONE:v1 {F13.4}
RS   .UNKNOWN      : RS:UNKNOWN:rC:NONE:v1 {F13.4}
RT   .OHMM         : RT:UNKNOWN:rC:NONE:v1 {F13.4}
TVD  .M            : True Vertical Depth from PyLasMech
~Params ----------------------------------------------------
CN  .    STATOILHYDRO : Company
WN  .       15/9-F-14 : Well Name
FN  .           VOLVE : Field
CTRY.          NORWAY : Country
COUN. MAERSK INSPIRER : County or Rig name
PDAT.             MSL : Perm. Datum
ELZ .M            0.0 : Elev. Log Zero (wrt EPD)
SRVC.         UNKNOWN : Service company
R2  .           INPUT : R2
RUN .                 : RUN NUMBER
EPD .                 : Elevation of Permanent Datum above Mean Sea Level
LMF .                 : Logging Measured From (Name of Logging Elevation Reference)
APD .                 : Elevation of Depth Reference (LMF) above Permanent Datum
~Other -----------------------------------------------------
~ASCII -----------------------------------------------------
# ...
 9971.50000 1196580.00000 0.03500 75.20030 151.05120 69.26560 0.21250 3.35260 9.35190 2.43120 3.78330 10.52490 2875.87627
 9972.00000 1196640.00000 0.02390 75.98110 150.42830 70.36670 0.20970 3.59480 8.57030 2.42150 2.67230 6.40390 2875.92986
 9972.50000 1196700.00000 0.02150 76.71910 147.95560 71.32200 0.21940 3.61730 7.30570 2.40530 2.52140 5.57080 2875.98345
 9973.00000 1196760.00000 0.03170 77.18270 145.04340 74.28810 0.20230 3.57230 7.70800 2.40160 2.63490 5.33790 2876.03704
 9973.50000 1196820.00000 0.04200 79.21260 142.42950 75.01540 0.19560 3.49810 7.69210 2.43690 2.63980 4.50340 2876.09063
 9974.00000 1196880.00000 0.03260 82.31560 140.41070 73.56540 0.18750 3.90520 7.32490 2.51010 2.68710 4.50210 2876.14422
 9974.50000 1196940.00000 0.03890 82.56050 140.47880 69.73180 0.18640 3.86480 6.50670 2.58500 2.71340 3.48190 2876.19781
 9975.00000 1197000.00000 0.04510 81.51880 141.00250 67.81620 0.18120 4.12040 6.64290 2.62990 2.68870 2.95230 2876.25140
 9975.50000 1197060.00000 0.04140 79.01960 142.90720 67.72220 0.17770 4.17410 6.45240 2.62830 2.71610 4.19310 2876.30499
 9976.00000 1197120.00000 0.00890 78.09310 148.51550 67.90550 0.19160 4.85230 6.73930 2.61850 2.81940 5.46650 2876.35858
 9976.50000 1197180.00000 -0.01360 77.55300 154.30800 67.92960 0.17700 5.10270 7.07220 2.60670 2.77990 6.25770 2876.41217
 9977.00000 1197240.00000 -0.01730 77.63810 152.51010 67.67460 0.17480 4.57750 7.32830 2.57480 2.80000 6.10910 2876.46577
 9977.50000 1197300.00000 -0.00950 80.91460 150.39450 66.46730 0.19360 3.91400 7.60660 2.53820 2.92790 5.76110 2876.51936
 9978.00000 1197360.00000 -0.00330 82.20760 146.83870 63.91680 0.19990 3.56340 9.15620 2.49520 2.91190 6.10420 2876.57295
 9978.50000 1197420.00000 0.00420 81.25950 143.30080 61.97190 0.19600 3.61130 12.32680 2.45740 2.98160 6.92740 2876.62654
 9979.00000 1197480.00000 0.01700 81.13300 143.82240 58.48100 0.20390 4.08270 14.33730 2.43880 4.11540 7.03800 2876.68013
 9979.50000 1197540.00000 0.01780 81.30790 144.35690 54.49750 0.21690 5.03140 18.00880 2.39920 4.56180 8.13430 2876.73372
 9980.00000 1197600.00000 0.01090 82.76430 145.73520 50.74020 0.23510 4.73900 21.52560 2.36680 5.36120 8.41030 2876.78731
 9980.50000 1197660.00000 -0.00170 81.25690 146.04530 46.87080 0.23710 4.00000 79.49760 2.28160 7.78540 18.70300 2876.84090
 9981.00000 1197720.00000 0.00210 81.71740 148.15220 42.69290 0.23920 3.15950 25.59250 2.22110 11.72380 10.87820 2876.89449
 9981.50000 1197780.00000 0.01060 85.01250 150.94830 39.39610 0.23890 3.07200 200.00000 2.16630 32.09140 39.29740 2876.94808
 9982.00000 1197840.00000 0.00900 91.47370 152.02190 37.90250 0.23860 3.04630 200.00000 2.14370 213.42050 272.27630 2877.00167
 9982.50000 1197900.00000 0.00950 91.77340 154.41380 38.31020 0.23340 2.83210 200.00000 2.13600 5000.00000 5000.00000 2877.05526
 9983.00000 1197960.00000 0.01070 88.61580 158.24870 37.61390 0.23030 2.70010 200.00000 2.13250 5000.00000 5000.00000 2877.10886
 9983.50000 1198020.00000 0.02070 87.59190 162.46450 37.37250 0.23870 2.73840 200.00000 2.13800 5000.00000 5000.00000 2877.16245
 9984.00000 1198080.00000 0.02240 88.18210 162.14720 37.10450 0.22650 2.82540 200.00000 2.13620 5000.00000 5000.00000 2877.21604
 9984.50000 1198140.00000 0.02390 88.33020 161.99150 37.14190 0.23310 2.82970 200.00000 2.13870 5000.00000 5000.00000 2877.26963
 9985.00000 1198200.00000 0.02500 89.24190 160.06350 38.22950 0.23540 2.92220 200.00000 2.14070 5000.00000 5000.00000 2877.32322
 9985.50000 1198260.00000 0.03310 90.64380 151.27620 38.19440 0.22910 3.07930 200.00000 2.14960 5000.00000 5000.00000 2877.37681
 9986.00000 1198320.00000 0.03500 90.21570 154.75530 37.08330 0.22320 3.24620 200.00000 2.14730 5000.00000 5000.00000 2877.43040
 9986.50000 1198380.00000 0.03090 87.84290 156.52840 33.72500 0.23360 3.22010 200.00000 2.13900 135.12160 5000.00000 2877.48399
 9987.00000 1198440.00000 0.02570 84.50480 159.30130 29.37670 0.21480 3.07520 200.00000 2.13650 55.18730 5000.00000 2877.53758
 9987.50000 1198500.00000 0.02630 81.79500 160.53750 27.58140 0.21020 3.04330 200.00000 2.13630 49.79370 5000.00000 2877.59117
 9988.00000 1198560.00000 0.03050 78.77200 161.95140 29.38610 0.21190 3.00820 200.00000 2.14710 49.68960 5000.00000 2877.64476
 9988.50000 1198620.00000 0.02740 80.88950 162.48350 31.59180 0.21190 2.96760 200.00000 2.14140 61.12410 5000.00000 2877.69835
 9989.00000 1198680.00000 0.02480 84.21430 162.28900 32.05720 0.20970 2.83480 200.00000 2.14520 85.66350 5000.00000 2877.75194
 9989.50000 1198740.00000 0.02440 88.78360 163.86420 31.37340 0.21280 2.81830 72.17340 2.14300 83.72220 5000.00000 2877.80554
 9990.00000 1198800.00000 0.02580 91.83470 165.81440 32.76780 0.20430 2.87830 47.98840 2.13950 62.79700 1146.79300 2877.85913
 9990.50000 1198860.00000 0.02390 91.96170 164.01610 33.25090 0.22130 2.88680 30.78020 2.13770 53.99890 119.77830 2877.91272
 9991.00000 1198920.00000 0.02260 88.83860 163.62280 33.69110 0.23680 2.88180 26.66100 2.14050 46.57080 67.05650 2877.96631
 9991.50000 1198980.00000 0.01990 89.71020 163.78230 33.00490 0.21400 2.80570 22.54020 2.14590 43.00200 44.56390 2878.01990
 9992.00000 1199040.00000 0.01980 91.75310 162.53690 34.45670 0.23580 2.76480 19.13180 2.14980 35.91260 39.40210 2878.07349
 9992.50000 1199100.00000 0.01420 91.21760 159.21780 37.54060 0.22160 2.74020 18.34740 2.14640 29.63260 35.33370 2878.12708
 9993.00000 1199160.00000 0.01390 89.82590 155.14800 39.54680 0.23300 2.80060 17.27350 2.14640 25.84070 30.85200 2878.18067
 9993.50000 1199220.00000 0.01470 87.31670 148.07760 40.58740 0.21270 2.84160 17.43940 2.15580 23.69950 27.13990 2878.23426
 9994.00000 1199280.00000 0.02710 84.48740 142.22080 37.62820 0.21360 3.01860 18.70340 2.20040 19.68960 25.22350 2878.28785
 9994.50000 1199340.00000 0.03100 81.33830 137.77930 35.20440 0.20040 3.18290 18.87760 2.25830 17.68210 21.70380 2878.34144
 9995.00000 1199400.00000 0.04140 79.21410 134.87180 30.42310 0.17610 3.51480 17.71160 2.32410 14.51430 14.28260 2878.39503
 9995.50000 1199460.00000 0.03870 79.55820 133.49130 25.53920 0.17550 3.76170 20.51350 2.35240 20.20380 25.74640 2878.44862
 9996.00000 1199520.00000 0.04360 79.77260 136.05510 20.58710 0.17030 4.01670 21.88330 2.36300 25.39420 33.29550 2878.50222
 9996.50000 1199580.00000 0.03960 79.97500 138.76770 17.90170 0.17160 4.00920 23.37190 2.36240 28.99440 34.64620 2878.55581
 9997.00000 1199640.00000 0.03560 78.71490 139.89170 17.54920 0.17150 4.05360 23.85200 2.36190 33.13900 40.00050 2878.60940
 9997.50000 1199700.00000 0.02820 81.40710 140.98590 19.04890 0.17900 4.03160 25.92800 2.37170 39.09230 45.03400 2878.66299
 9998.00000 1199760.00000 0.01890 84.67190 141.78520 19.85430 0.18320 4.16240 29.64660 2.37590 42.52750 58.67850 2878.71658
 9998.50000 1199820.00000 0.00850 86.03140 141.75340 20.05260 0.17550 4.23130 33.31890 2.37440 43.32700 58.89690 2878.77017
 9999.00000 1199880.00000 0.01020 85.01460 140.09920 18.56320 0.18030 4.13210 34.17290 2.36560 47.55310 60.96680 2878.82376
 9999.50000 1199940.00000 0.01350 84.65360 139.89670 18.34740 0.18400 4.02820 36.65410 2.34240 50.99240 77.38080 2878.87735
 10000.00000 1200000.00000 0.00840 84.66280 138.44250 17.76060 0.18450 3.72150 38.19140 2.29590 48.27540 91.69160 2878.93094
 10000.50000 1200060.00000 0.00980 85.33470 135.56500 17.49460 0.19670 3.42960 43.52160 2.25550 44.63880 41.72890 2878.98453
 10001.00000 1200120.00000 0.01220 85.15420 135.55850 16.70030 0.18340 3.02720 43.40540 2.22360 61.95680 67.69380 2879.03812
 10001.50000 1200180.00000 0.02440 85.34390 135.52320 15.75980 0.18670 2.78220 47.29490 2.22100 78.17870 98.52790 2879.09171
 10002.00000 1200240.00000 0.01860 86.31980 136.91990 15.51400 0.19090 2.94960 47.95650 2.21310 90.73590 118.74700 2879.14530
 10002.50000 1200300.00000 0.02120 86.69710 138.38530 15.74960 0.19720 3.15260 48.07820 2.21480 98.87730 137.19420 2879.19890
 10003.00000 1200360.00000 0.01660 86.92700 139.94700 17.39840 0.18160 3.15700 52.54270 2.20470 122.81590 237.97020 2879.25249
 10003.50000 1200420.00000 0.02370 87.41140 142.96650 17.83980 0.19530 2.88070 48.21990 2.21460 100.53530 241.52110 2879.30608
