~Version ---------------------------------------------------
VERS     .                             2.0 : CWLS log ASCII Standard -VERSION 2.0
WRAP     .                              NO : One Line per depth step
PROD     .                    Schlumberger : LAS Producer
PROG     .               DLIS to ASCII 2.3 : LAS Program name and version
CREA     .                   2019/04/03 19 : 50                          :LAS Creation date {YYYY/MM/DD hh:mm}
DLIS_CREA.                  2009-Feb-18 14 : 26                          :DLIS Creation date and time {YYYY-MMM-DD hh:mm}
SOURCE   . WLC_PETRO_COMPUTED_INPUT_1.DLIS : DLIS File Name
FILE-ID  .                   INPUT.logdata : File Identification Number
~Well ------------------------------------------------------
STRT.F                  657.0 : START DEPTH
STOP.F                11567.5 : STOP DEPTH
STEP.F                    0.5 : STEP
NULL.                 -999.25 : NULL VALUE
COMP.            STATOILHYDRO : COMPANY
WELL.                15/9-F-4 : WELL
FLD .                   VOLVE : FIELD
LOC .                         : LOCATION
CNTY.         MAERSK INSPIRER : COUNTY
STAT.                         : STATE
CTRY.                         : COUNTRY
API .                         : API NUMBER
UWI .                         : UNIQUE WELL ID
DATE.                         : LOG DATE
SRVC. CROCKER DATA PROCESSING : SERVICE COMPANY
LATI.DEG                      : LATITUDE
LONG.DEG                      : LONGITUDE
GDAT.                         : GeoDetic Datum
~Curve Information -----------------------------------------
DEPTH.F            : DEPTH (BOREHOLE) {F10.1}
DEPTH..1IN         : {I11}
DT   .US/F         : {F13.4}
DTS  .US/F         : {F13.4}
GR   .API          : {F13.4}
NPHI .V/V_DECIMAL  : {F13.4}
RD   .UNKNOWN      : {F13.4}
RHOB .G/C3         : {F13.4}
RS   .UNKNOWN      : {F13.4}
RT   .OHMM         : {F13.4}
TVD  .M            : True Vertical Depth from PyLasMech
~Params ----------------------------------------------------
CN  .    STATOILHYDRO : Company
WN  .        15/9-F-4 : Well Name
FN  .           VOLVE : Field
CTRY.          NORWAY : Country
COUN. MAERSK INSPIRER : County or Rig name
PDAT.             MSL : Perm. Datum
ELZ .M            0.0 : Elev. Log Zero (wrt EPD)
RUN .                 : RUN NUMBER
EPD .                 : Elevation of Permanent Datum above Mean Sea Level
LMF .                 : Logging Measured From (Name of Logging Elevation Reference)
APD .                 : Elevation of Depth Reference (LMF) above Permanent Datum
~Other -----------------------------------------------------
~ASCII -----------------------------------------------------
# ...
 10632.50000 1275900.00000 77.40900 146.72880 38.98490 0.28400 0.81630 2.56970 0.79740 1.21780 -999.25
 10633.00000 1275960.00000 77.21010 148.04790 40.38940 0.25410 1.12160 2.51590 0.78820 0.79880 -999.25
 10633.50000 1276020.00000 76.25320 148.14910 39.74110 0.24800 1.16400 2.51490 0.86080 0.88490 -999.25
 10634.00000 1276080.00000 78.13950 147.12010 40.85850 0.22630 1.23100 2.51250 0.98600 0.99740 -999.25
 10634.50000 1276140.00000 77.93150 153.42030 40.37640 0.21200 1.35850 2.52590 1.03760 1.22960 -999.25
 10635.00000 1276200.00000 75.90770 155.28110 40.51340 0.19220 1.45400 2.51800 1.11760 1.49750 -999.25
 10635.50000 1276260.00000 76.35760 154.20000 38.53690 0.19350 1.60520 2.49090 1.21930 1.95930 -999.25
 10636.00000 1276320.00000 75.51280 152.98590 37.43630 0.18330 1.63790 2.45880 1.21570 2.11380 -999.25
 10636.50000 1276380.00000 76.29550 149.19250 39.90270 0.18930 1.84460 2.43920 1.28370 2.03090 -999.25
 10637.00000 1276440.00000 79.88820 144.75390 44.72280 0.19760 2.38920 2.44700 1.43690 1.76090 -999.25
 10637.50000 1276500.00000 81.12440 147.98290 52.31410 0.19740 2.61700 2.46450 1.64230 1.67310 -999.25
 10638.00000 1276560.00000 79.43410 145.20570 58.22070 0.19290 2.56600 2.49870 1.74490 2.07980 -999.25
 10638.50000 1276620.00000 77.66140 143.56240 61.05470 0.21210 2.83140 2.48970 1.99100 2.80660 -999.25
 10639.00000 1276680.00000 75.91480 142.53340 60.39590 0.22000 3.23210 2.45280 2.30190 2.86910 -999.25
 10639.50000 1276740.00000 75.80130 141.13570 56.50240 0.21360 3.49750 2.40260 2.93650 3.25800 -999.25
 10640.00000 1276800.00000 77.45970 140.09010 51.03770 0.20700 3.67810 2.37120 3.63150 4.38610 -999.25
 10640.50000 1276860.00000 79.87130 140.66430 46.51660 0.21820 3.57910 2.33760 3.63020 5.91930 -999.25
 10641.00000 1276920.00000 81.29850 143.78450 42.26050 0.21370 4.01920 2.33810 3.59370 5.18240 -999.25
 10641.50000 1276980.00000 82.34920 146.54590 40.66370 0.21500 4.12880 2.39100 3.54420 4.86910 -999.25
 10642.00000 1277040.00000 83.52180 150.11500 40.77860 0.21950 4.57220 2.43260 3.50430 4.30060 -999.25
 10642.50000 1277100.00000 84.34330 152.55680 42.75390 0.23030 4.70660 2.42050 3.50470 4.38090 -999.25
 10643.00000 1277160.00000 86.04980 152.67080 45.42460 0.23080 4.89940 2.34750 3.52680 4.41400 -999.25
 10643.50000 1277220.00000 87.34580 153.20880 43.95430 0.23310 4.82850 2.31170 3.88320 5.47310 -999.25
 10644.00000 1277280.00000 88.32240 155.06280 40.43240 0.23150 4.98320 2.29740 4.35920 6.36480 -999.25
 10644.50000 1277340.00000 89.07620 156.46200 37.16170 0.21650 4.98840 2.28430 5.09560 6.95370 -999.25
 10645.00000 1277400.00000 88.81390 158.65820 34.17240 0.20910 4.92810 2.28340 5.99650 7.59430 -999.25
 10645.50000 1277460.00000 88.51780 157.36100 34.54280 0.22450 4.86300 2.27610 6.97510 7.83070 -999.25
 10646.00000 1277520.00000 87.68150 151.39250 33.33840 0.23860 4.83560 2.28190 7.65790 8.09380 -999.25
 10646.50000 1277580.00000 86.24230 146.37290 33.38260 0.21230 4.76910 2.28530 8.27170 8.35600 -999.25
 10647.00000 1277640.00000 82.37180 142.77140 32.37010 0.21330 4.78650 2.28990 8.50260 8.17480 -999.25
 10647.50000 1277700.00000 81.34720 142.24410 33.26380 0.20260 4.79730 2.29590 8.35140 8.04190 -999.25
 10648.00000 1277760.00000 81.58550 142.57120 34.15350 0.21490 4.79460 2.29300 8.20930 8.55380 -999.25
 10648.50000 1277820.00000 82.43940 144.66320 35.33560 0.20700 4.82190 2.29020 8.04450 8.78110 -999.25
 10649.00000 1277880.00000 83.11850 145.92790 34.95080 0.21340 4.82730 2.27820 7.70030 9.47450 -999.25
 10649.50000 1277940.00000 82.70250 146.11300 35.39780 0.21500 4.86920 2.26970 7.38710 10.22260 -999.25
 10650.00000 1278000.00000 84.21080 146.93100 36.17050 0.23700 4.79650 2.25410 6.97730 10.15790 -999.25
 10650.50000 1278060.00000 85.07460 147.93860 37.51330 0.23770 4.49490 2.24630 6.58820 8.86720 -999.25
 10651.00000 1278120.00000 88.52980 148.63950 38.54520 0.25350 4.29620 2.25340 6.20200 7.79710 -999.25
 10651.50000 1278180.00000 91.43920 151.03970 40.65630 0.23280 4.13770 2.33840 6.02000 7.95550 -999.25
 10652.00000 1278240.00000 89.22780 155.48510 42.41530 0.22860 3.94290 2.48450 5.18980 6.94600 -999.25
 10652.50000 1278300.00000 85.28750 157.02410 46.74130 0.23410 3.92970 2.63770 3.81900 5.53430 -999.25
 10653.00000 1278360.00000 86.86840 157.73270 50.59260 0.24290 4.17700 2.68770 2.89220 4.13560 -999.25
 10653.50000 1278420.00000 86.06530 157.25520 56.95850 0.28800 4.95480 2.59030 2.14520 2.61010 -999.25
 10654.00000 1278480.00000 85.85090 161.32140 65.33250 0.32190 4.82250 2.52350 1.65570 1.87250 -999.25
 10654.50000 1278540.00000 84.43920 160.74040 73.56810 0.32110 2.71060 2.50080 1.93580 2.49100 -999.25
 10655.00000 1278600.00000 82.97960 159.75670 80.52480 0.35570 2.49030 2.49570 1.78060 2.32070 -999.25
 10655.50000 1278660.00000 82.85760 159.62450 82.07220 0.40290 2.24110 2.51340 1.62640 1.96790 -999.25
 10656.00000 1278720.00000 83.99850 160.17230 84.08740 0.37300 1.89190 2.49650 1.57690 1.63190 -999.25
 10656.50000 1278780.00000 85.45890 164.06840 84.86050 0.39940 1.93760 2.47330 1.55310 1.39380 -999.25
 10657.00000 1278840.00000 87.04330 169.26330 87.62700 0.44240 1.71020 2.45310 1.70110 1.70660 -999.25
 10657.50000 1278900.00000 89.35690 171.23520 84.72630 0.40130 1.68210 2.49090 1.60160 2.01970 -999.25
 10658.00000 1278960.00000 91.04640 168.28490 81.95510 0.38060 1.54780 2.55980 1.29790 2.28660 -999.25
 10658.50000 1279020.00000 91.72690 168.00090 74.58780 0.38600 1.38060 2.60750 0.87140 1.50820 -999.25
 10659.00000 1279080.00000 90.75590 164.16590 68.03410 0.33720 1.48500 2.61620 0.65150 0.70540 -999.25
 10659.50000 1279140.00000 87.50800 158.25020 57.49110 0.34150 3.76600 2.56840 0.55880 0.53450 -999.25
 10660.00000 1279200.00000 85.50540 152.21150 43.81710 0.25050 2.95030 2.50000 1.40920 1.56380 -999.25
 10660.50000 1279260.00000 82.83010 146.77890 31.58300 0.24100 3.71390 2.39400 4.63790 4.95130 -999.25
 10661.00000 1279320.00000 80.60040 142.54180 22.89440 0.21470 5.16080 2.30190 8.28080 9.97120 -999.25
 10661.50000 1279380.00000 80.50170 140.69040 21.25600 0.16890 6.87420 2.25380 10.84600 14.05250 -999.25
 10662.00000 1279440.00000 79.89390 139.25580 20.19730 0.16140 9.10330 2.23260 16.00910 17.68510 -999.25
 10662.50000 1279500.00000 79.42000 138.97570 21.89930 0.16110 11.26730 2.23750 26.66980 20.79480 -999.25
 10663.00000 1279560.00000 81.16810 140.82900 22.54930 0.16410 14.07370 2.23190 36.24740 26.50430 -999.25
 10663.50000 1279620.00000 83.29340 142.16850 24.78040 0.16820 18.41830 2.22540 40.15970 33.98580 -999.25
 10664.00000 1279680.00000 85.27830 145.64690 24.12490 0.17220 23.54090 2.22540 42.10240 39.48240 -999.25
 10664.50000 1279740.00000 86.22110 145.82210 24.05650 0.18370 28.30920 2.21460 43.70070 42.69260 -999.25
 10665.00000 1279800.00000 86.26200 145.77910 24.66330 0.18080 31.49940 2.22180 41.66000 41.80250 -999.25
 10665.50000 1279860.00000 86.14710 146.94030 25.37190 0.18240 34.36210 2.20560 40.47960 39.57480 -999.25
 10666.00000 1279920.00000 85.84320 147.34070 26.57580 0.18490 38.54020 2.21240 40.04580 41.10500 -999.25
 10666.50000 1279980.00000 85.50750 144.45920 25.17380 0.19290 40.01350 2.20630 40.37340 40.88020 -999.25
 10667.00000 1280040.00000 85.93410 143.95000 25.63860 0.19500 40.92000 2.20890 38.14590 39.20670 -999.25
 10667.50000 1280100.00000 86.69000 144.72520 26.86740 0.18660 42.14220 2.20410 37.37290 39.17320 -999.25
 10668.00000 1280160.00000 88.27310 146.62300 28.05660 0.18810 42.09350 2.20680 33.34220 35.12160 -999.25
 10668.50000 1280220.00000 89.09320 147.00000 27.81450 0.19390 42.03200 2.21660 34.23460 36.55370 -999.25
 10669.00000 1280280.00000 88.88660 146.24370 27.54700 0.20020 42.71470 2.21840 33.63590 35.16840 -999.25
 10669.50000 1280340.00000 87.24570 145.83200 28.90850 0.20050 42.59000 2.21350 33.12380 34.12440 -999.25
 10670.00000 1280400.00000 85.85090 146.36690 30.83910 0.18700 41.77960 2.20760 34.12190 34.16930 -999.25
 10670.50000 1280460.00000 85.50050 145.54940 29.42150 0.19110 40.60040 2.19760 35.39800 36.01910 -999.25
 10671.00000 1280520.00000 86.66320 144.52870 26.96320 0.18940 40.51640 2.19480 33.47980 34.36340 -999.25
