~Version ---------------------------------------------------
VERS. 2.0 : CWLS log ASCII Standard -VERSION 2.0
WRAP.  NO : One line per depth step
~Well ------------------------------------------------------
STRT     .M           239.8776 : START
STOP     .M          4186.7328 : STOP
STEP     .M 0.1524000000000001 : STEP
NULL     .             -999.25 : NULL VALUE
COMP     .        STATOILHYDRO : COMPANY
WELL     .           15/9-F-12 : WELL
FLD      .               VOLVE : FIELD
LOC      .             UNKNOWN : LOCATION
CNTY     .             UNKNOWN : COUNTY
STAT     .             UNKNOWN : STATE
CTRY     .              Norway : COUNTRY
SRVC     .             UNKNOWN : SERVICE COMPANY
DATE     .             UNKNOWN : LOG DATE
UWI      .        NO 15/9-F-12 : UNIQUE WELL ID
XCOORD   .           435050.17 : SURFACE X
YCOORD   .           6478574.7 : SURFACE Y
LAT      .           58.441713 : LATITUDE
LON      .             1.88748 : LONGITUDE
ELEV     .M               54.9 : SURFACE ELEV
ELEV_TYPE.                  KB : ELEV TYPE
~Curve Information -----------------------------------------
DEPTH    .M           UNKNOWN : Measured Depth
CARB_FLAG.UNKNOWN     UNKNOWN : CARB_FLAG:UNKNOWN:rC:NONE:v1
COAL_FLAG.UNKNOWN     UNKNOWN : COAL_FLAG:UNKNOWN:rC:NONE:v1
DT       .us/ft       UNKNOWN : DT:UNKNOWN:rC:NONE:v2
GR       .API         UNKNOWN : GR:UNKNOWN:rC:NONE:v1
NPHI     .v/v_decimal UNKNOWN : NPHI:UNKNOWN:rC:NONE:v1
RD       .UNKNOWN     UNKNOWN : RD:UNKNOWN:rC:NONE:v1
RHOB     .g/cm3       UNKNOWN : RHOB:UNKNOWN:rC:NONE:v1
ROP5_RM  .UNKNOWN     UNKNOWN : ROP5_RM:UNKNOWN:rC:NONE:v1
RS       .UNKNOWN     UNKNOWN : RS:UNKNOWN:rC:NONE:v1
RT       .ohm.m       UNKNOWN : RT:UNKNOWN:rC:NONE:v1
SAND_FLAG.UNKNOWN     UNKNOWN : SAND_FLAG:UNKNOWN:rC:NONE:v1
TVD      .M                   : True Vertical Depth from PyLasMech
~Params ----------------------------------------------------
~Other -----------------------------------------------------
~ASCII -----------------------------------------------------
# ...
 472.59240 -999.25 -999.25 -999.25 78.28010 -999.25 1.88040 -999.25 34.00710 1000.00000 1.79110 -999.25 472.49568
 472.74480 -999.25 -999.25 -999.25 78.94810 -999.25 1.90630 -999.25 33.74200 1000.00000 1.85090 -999.25 472.64773
 472.89720 -999.25 -999.25 -999.25 80.63790 -999.25 1.92900 -999.25 33.62450 1000.00000 1.85770 -999.25 472.79977
 473.04960 -999.25 -999.25 -999.25 79.18390 -999.25 1.93340 -999.25 33.13250 1000.00000 1.85470 -999.25 472.95182
 473.20200 -999.25 -999.25 -999.25 77.06190 -999.25 1.96350 -999.25 32.97210 1000.00000 1.87710 -999.25 473.10386
 473.35440 -999.25 -999.25 -999.25 71.83530 -999.25 1.94420 -999.25 32.85180 1000.00000 1.88650 -999.25 473.25591
 473.50680 -999.25 -999.25 -999.25 73.40720 -999.25 1.93100 -999.25 32.23600 1000.00000 1.85810 -999.25 473.40795
 473.65920 -999.25 -999.25 -999.25 78.28010 -999.25 1.92090 -999.25 31.99160 1000.00000 1.82590 -999.25 473.56000
 473.81160 -999.25 -999.25 -999.25 82.83860 -999.25 1.91320 -999.25 31.42300 1000.00000 1.83360 -999.25 473.71204
 473.96400 -999.25 -999.25 -999.25 79.73410 -999.25 1.90670 -999.25 31.03350 1000.00000 1.83930 -999.25 473.86408
 474.11640 -999.25 -999.25 -999.25 75.92220 -999.25 1.93040 -999.25 30.68570 1000.00000 1.85370 -999.25 474.01586
 474.26880 -999.25 -999.25 -999.25 77.65130 -999.25 1.90500 -999.25 30.48120 1000.00000 1.84840 -999.25 474.16755
 474.42120 -999.25 -999.25 -999.25 81.30600 -999.25 1.88770 -999.25 30.02180 1000.00000 1.82040 -999.25 474.31923
 474.57360 -999.25 -999.25 -999.25 83.27080 -999.25 1.87510 -999.25 29.98040 1000.00000 1.79900 -999.25 474.47092
 474.72600 -999.25 -999.25 -999.25 78.55520 -999.25 1.85270 -999.25 29.97900 1000.00000 1.81830 -999.25 474.62261
 474.87840 -999.25 -999.25 -999.25 74.46820 -999.25 1.84680 -999.25 29.98110 1000.00000 1.80220 -999.25 474.77430
 475.03080 -999.25 -999.25 -999.25 75.64720 -999.25 1.84340 -999.25 29.91580 1000.00000 1.78870 -999.25 474.92599
 475.18320 -999.25 -999.25 -999.25 73.80020 -999.25 1.83860 -999.25 29.68960 1000.00000 1.76390 -999.25 475.07768
 475.33560 -999.25 -999.25 -999.25 76.19730 -999.25 1.84030 -999.25 29.46540 1000.00000 1.74730 -999.25 475.22937
 475.48800 -999.25 -999.25 -999.25 73.44650 -999.25 1.85170 -999.25 29.30790 1000.00000 1.74590 -999.25 475.38106
 475.64040 -999.25 -999.25 -999.25 77.76920 -999.25 1.85200 -999.25 29.18290 1000.00000 1.74680 -999.25 475.53274
 475.79280 -999.25 -999.25 -999.25 79.73410 -999.25 1.87550 -999.25 29.18290 1000.00000 1.77950 -999.25 475.68443
 475.94520 -999.25 -999.25 -999.25 79.85200 -999.25 1.88270 -999.25 28.87540 1000.00000 1.78070 -999.25 475.83612
 476.09760 -999.25 -999.25 -999.25 78.00500 -999.25 1.88630 -999.25 28.72410 1000.00000 1.76490 -999.25 475.98781
 476.25000 -999.25 -999.25 -999.25 73.13210 -999.25 1.87300 -999.25 28.42790 1000.00000 1.78290 -999.25 476.13950
 476.40240 -999.25 -999.25 -999.25 75.64720 -999.25 1.87260 -999.25 28.42790 1000.00000 1.76750 -999.25 476.29119
 476.55480 -999.25 -999.25 -999.25 77.76920 -999.25 1.86370 -999.25 28.42790 1000.00000 1.75270 -999.25 476.44288
 476.70720 -999.25 -999.25 -999.25 80.40210 -999.25 1.88790 -999.25 20.15900 1000.00000 1.75260 -999.25 476.59457
 476.85960 -999.25 -999.25 -999.25 83.93890 -999.25 1.91930 -999.25 19.36150 42.82730 1.58550 -999.25 476.74626
 477.01200 -999.25 -999.25 -999.25 86.25740 -999.25 1.89610 -999.25 19.25030 16.32920 1.64570 -999.25 476.89794
 477.16440 -999.25 -999.25 -999.25 86.76830 -999.25 1.89250 -999.25 19.04920 11.26990 1.63310 -999.25 477.04963
 477.31680 -999.25 -999.25 -999.25 86.10020 -999.25 1.87110 -999.25 18.91740 13.05750 1.66030 -999.25 477.20132
 477.46920 -999.25 -999.25 -999.25 80.87370 -999.25 1.84870 -999.25 18.82550 8.64650 1.53730 -999.25 477.35301
 477.62160 -999.25 -999.25 -999.25 76.04020 -999.25 1.85000 -999.25 18.73160 12.48680 1.68150 -999.25 477.50470
 477.77400 -999.25 -999.25 -999.25 72.62130 -999.25 1.83950 -999.25 18.62580 8.01530 1.58910 -999.25 477.65639
 477.92640 -999.25 -999.25 -999.25 74.46820 -999.25 1.81520 -999.25 18.53560 11.52590 1.59950 -999.25 477.80808
 478.07880 -999.25 -999.25 -999.25 81.93470 -999.25 1.82570 -999.25 18.23950 8.10090 1.58470 -999.25 477.95977
 478.23120 -999.25 -999.25 -999.25 81.81680 -999.25 1.85110 -999.25 18.19090 13.30470 1.61920 -999.25 478.11145
 478.38360 -999.25 -999.25 -999.25 82.09190 -999.25 1.84310 -999.25 18.16030 10.71510 1.61010 -999.25 478.26314
 478.53600 -999.25 -999.25 -999.25 76.59030 -999.25 1.82550 -999.25 18.10680 12.59060 1.60350 -999.25 478.41483
 478.68840 -999.25 -999.25 -999.25 77.53340 -999.25 1.80930 -999.25 18.13110 8.54720 1.58270 -999.25 478.56652
 478.84080 -999.25 -999.25 -999.25 75.96150 -999.25 1.82620 -999.25 18.17940 9.55810 1.60210 -999.25 478.71821
 478.99320 -999.25 -999.25 -999.25 75.17560 -999.25 1.82170 -999.25 18.22720 7.92060 1.57370 -999.25 478.86990
 479.14560 -999.25 -999.25 -999.25 75.29350 -999.25 1.78880 -999.25 18.38030 8.93290 1.56510 -999.25 479.02159
 479.29800 -999.25 -999.25 -999.25 73.83950 -999.25 1.79990 -999.25 18.41090 9.29880 1.61510 -999.25 479.17328
 479.45040 -999.25 -999.25 -999.25 76.43310 -999.25 1.77550 -999.25 18.34920 5.90640 1.53230 -999.25 479.32496
 479.60280 -999.25 -999.25 -999.25 74.46820 -999.25 1.80890 -999.25 18.34860 7.62130 1.54130 -999.25 479.47665
 479.75520 -999.25 -999.25 -999.25 80.48070 -999.25 1.80400 -999.25 18.32200 8.56020 1.59060 -999.25 479.62834
 479.90760 -999.25 -999.25 -999.25 81.03090 -999.25 1.78660 -999.25 18.28800 8.44210 1.59000 -999.25 479.78003
 480.06000 -999.25 -999.25 -999.25 79.96990 -999.25 1.82170 -999.25 18.23930 17.32680 1.60950 -999.25 479.93172
 480.21240 -999.25 -999.25 -999.25 77.10120 -999.25 1.82520 -999.25 18.19120 33.83570 1.64530 -999.25 480.08341
 480.36480 -999.25 -999.25 -999.25 74.07530 -999.25 1.81890 -999.25 17.99990 1000.00000 1.68430 -999.25 480.23510
 480.51720 -999.25 -999.25 -999.25 70.93150 -999.25 1.82200 -999.25 17.89060 1000.00000 1.68670 -999.25 480.38679
 480.66960 -999.25 -999.25 -999.25 71.95320 -999.25 1.81380 -999.25 17.73230 1000.00000 1.68580 -999.25 480.53848
 480.82200 -999.25 -999.25 -999.25 77.72990 -999.25 1.76510 -999.25 17.69750 1000.00000 1.80700 -999.25 480.69016
 480.97440 -999.25 -999.25 -999.25 86.76830 -999.25 1.74490 -999.25 17.68680 1000.00000 1.80850 -999.25 480.84185
 481.12680 -999.25 -999.25 -999.25 86.65040 -999.25 1.73960 -999.25 17.65260 1000.00000 1.80550 -999.25 480.99354
 481.27920 -999.25 -999.25 -999.25 86.25740 -999.25 1.74710 -999.25 17.69820 1000.00000 1.78410 -999.25 481.14523
 481.43160 -999.25 -999.25 -999.25 83.89960 -999.25 1.74500 -999.25 17.72370 1000.00000 1.78370 -999.25 481.29692
 481.58400 -999.25 -999.25 -999.25 81.81680 -999.25 1.78050 -999.25 17.75550 1000.00000 1.81360 -999.25 481.44861
 481.73640 -999.25 -999.25 -999.25 81.54170 -999.25 1.77970 -999.25 17.80170 1000.00000 1.85250 -999.25 481.60030
 481.88880 -999.25 -999.25 -999.25 83.50660 -999.25 1.80320 -999.25 17.81320 1000.00000 1.86970 -999.25 481.75199
 482.04120 -999.25 -999.25 -999.25 83.89960 -999.25 1.81190 -999.25 17.81320 1000.00000 1.85400 -999.25 481.90367
 482.19360 -999.25 -999.25 -999.25 80.36280 -999.25 1.80540 -999.25 17.81320 1000.00000 1.87540 -999.25 482.05536
 482.34600 -999.25 -999.25 -999.25 75.25420 -999.25 1.82640 -999.25 17.81320 1000.00000 1.85120 -999.25 482.20705
 482.49840 -999.25 -999.25 -999.25 73.80020 -999.25 1.82260 -999.25 17.84810 1000.00000 1.89740 -999.25 482.35874
 482.65080 -999.25 -999.25 -999.25 72.89630 -999.25 1.86200 -999.25 17.82430 1000.00000 1.91160 -999.25 482.51043
 482.80320 -999.25 -999.25 -999.25 71.48160 -999.25 1.86120 -999.25 17.81250 1000.00000 1.94050 -999.25 482.66212
 482.95560 -999.25 -999.25 -999.25 71.48160 -999.25 1.89830 -999.25 17.80160 1000.00000 1.94610 -999.25 482.81381
 483.10800 -999.25 -999.25 -999.25 75.41140 -999.25 1.89450 -999.25 17.75510 1000.00000 1.98220 -999.25 482.96550
 483.26040 -999.25 -999.25 -999.25 77.49410 -999.25 1.91560 -999.25 17.75510 1000.00000 1.95440 -999.25 483.11718
