~Version ---------------------------------------------------
VERS     .                             2.0 : CWLS log ASCII Standard -VERSION 2.0
WRAP     .                              NO : One Line per depth step
PROD     .                    Schlumberger : LAS Producer
PROG     .               DLIS to ASCII 2.3 : LAS Program name and version
CREA     .                   2019/04/03 19 : 50                          :LAS Creation date {YYYY/MM/DD hh:mm}
DLIS_CREA.                  2009-Feb-18 14 : 26                          :DLIS Creation date and time {YYYY-MMM-DD hh:mm}
SOURCE   . WLC_PETRO_COMPUTED_INPUT_1.DLIS : DLIS File Name
FILE-ID  .                   INPUT.logdata : File Identification Number
~Well ------------------------------------------------------
STRT.F                  657.0 : START DEPTH
STOP.F                11567.5 : STOP DEPTH
STEP.F                    0.5 : STEP
NULL.                 -999.25 : NULL VALUE
COMP.            STATOILHYDRO : COMPANY
WELL.                15/9-F-4 : WELL
FLD .                   VOLVE : FIELD
LOC .                         : LOCATION
CNTY.         MAERSK INSPIRER : COUNTY
STAT.                         : STATE
CTRY.                         : COUNTRY
API .                         : API NUMBER
UWI .                         : UNIQUE WELL ID
DATE.                         : LOG DATE
SRVC. CROCKER DATA PROCESSING : SERVICE COMPANY
LATI.DEG                      : LATITUDE
LONG.DEG                      : LONGITUDE
GDAT.                         : GeoDetic Datum
~Curve Information -----------------------------------------
DEPTH.F            : DEPTH (BOREHOLE) {F10.1}
DEPTH..1IN         : {I11}
DT   .US/F         : {F13.4}
DTS  .US/F         : {F13.4}
GR   .API          : {F13.4}
NPHI .V/V_DECIMAL  : {F13.4}
RD   .UNKNOWN      : {F13.4}
RHOB .G/C3         : {F13.4}
RS   .UNKNOWN      : {F13.4}
RT   .OHMM         : {F13.4}
TVD  .M            : True Vertical Depth from PyLasMech
~Params ----------------------------------------------------
CN  .    STATOILHYDRO : Company
WN  .        15/9-F-4 : Well Name
FN  .           VOLVE : Field
CTRY.          NORWAY : Country
COUN. MAERSK INSPIRER : County or Rig name
PDAT.             MSL : Perm. Datum
ELZ .M            0.0 : Elev. Log Zero (wrt EPD)
RUN .                 : RUN NUMBER
EPD .                 : Elevation of Permanent Datum above Mean Sea Level
LMF .                 : Logging Measured From (Name of Logging Elevation Reference)
APD .                 : Elevation of Depth Reference (LMF) above Permanent Datum
~Other -----------------------------------------------------
~ASCII -----------------------------------------------------
# ...
 9006.50000 1080780.00000 -999.25 -999.25 16.15300 0.35330 0.15740 2.15640 5000.00000 -999.25 -999.25
 9007.00000 1080840.00000 -999.25 -999.25 16.96210 0.37450 0.18160 2.17380 5000.00000 -999.25 -999.25
 9007.50000 1080900.00000 -999.25 -999.25 15.38100 0.35820 0.12210 2.18260 121.42410 -999.25 -999.25
 9008.00000 1080960.00000 -999.25 -999.25 11.99700 0.35150 0.12050 2.09640 328.97380 -999.25 -999.25
 9008.50000 1081020.00000 -999.25 -999.25 9.94730 0.33620 3.46340 2.07940 5000.00000 -999.25 -999.25
 9009.00000 1081080.00000 -999.25 -999.25 10.65090 0.34300 0.17360 2.05780 13.24290 -999.25 -999.25
 9009.50000 1081140.00000 -999.25 -999.25 12.50960 0.35320 0.10000 2.12100 20.42190 -999.25 -999.25
 9010.00000 1081200.00000 -999.25 -999.25 13.63960 0.35120 0.17400 2.09560 9.67010 -999.25 -999.25
 9010.50000 1081260.00000 -999.25 -999.25 13.19070 0.35210 0.16070 2.11610 32.26560 -999.25 -999.25
 9011.00000 1081320.00000 -999.25 -999.25 12.85130 0.35490 0.17130 2.15570 9.50580 -999.25 -999.25
 9011.50000 1081380.00000 -999.25 -999.25 13.61260 0.35700 0.11260 2.17130 6.56210 -999.25 -999.25
 9012.00000 1081440.00000 -999.25 -999.25 12.46320 0.35480 0.10000 2.18130 33.87390 -999.25 -999.25
 9012.50000 1081500.00000 -999.25 -999.25 11.59520 0.35700 0.10000 2.14490 11.58000 -999.25 -999.25
 9013.00000 1081560.00000 -999.25 -999.25 9.62770 0.34280 0.10000 2.18740 15.09330 -999.25 -999.25
 9013.50000 1081620.00000 -999.25 -999.25 9.71220 0.36920 0.10550 2.19190 5000.00000 -999.25 -999.25
 9014.00000 1081680.00000 -999.25 -999.25 10.14240 0.37680 0.10000 2.13070 28.19310 -999.25 -999.25
 9014.50000 1081740.00000 -999.25 -999.25 11.17760 0.39290 0.13620 2.03010 11.39990 -999.25 -999.25
 9015.00000 1081800.00000 -999.25 -999.25 11.00970 0.38730 0.10560 2.07420 18.03420 -999.25 -999.25
 9015.50000 1081860.00000 -999.25 -999.25 11.68610 0.36810 0.11500 2.06490 9.30940 -999.25 -999.25
 9016.00000 1081920.00000 -999.25 -999.25 12.29410 0.37110 0.11560 2.14610 5000.00000 -999.25 -999.25
 9016.50000 1081980.00000 -999.25 -999.25 13.45730 0.40760 0.10380 2.12560 302.79440 -999.25 -999.25
 9017.00000 1082040.00000 -999.25 -999.25 13.16900 0.37660 0.10000 2.18580 5000.00000 -999.25 -999.25
 9017.50000 1082100.00000 -999.25 -999.25 12.63500 0.37650 0.10000 2.19090 149.79150 -999.25 -999.25
 9018.00000 1082160.00000 -999.25 -999.25 11.88800 0.33620 0.12770 2.32690 87.14500 -999.25 -999.25
 9018.50000 1082220.00000 -999.25 -999.25 11.16890 0.33230 0.14760 2.36600 5000.00000 -999.25 -999.25
 9019.00000 1082280.00000 -999.25 -999.25 10.15980 0.36170 0.10000 2.34340 5000.00000 -999.25 -999.25
 9019.50000 1082340.00000 -999.25 -999.25 10.62970 0.40860 0.10000 2.23990 28.63670 -999.25 -999.25
 9020.00000 1082400.00000 -999.25 -999.25 11.48580 0.41200 0.10740 2.10790 16.07510 -999.25 -999.25
 9020.50000 1082460.00000 -999.25 -999.25 12.00150 0.38430 0.11850 2.15910 5000.00000 -999.25 -999.25
 9021.00000 1082520.00000 -999.25 -999.25 12.14090 0.40600 0.11660 2.00070 5000.00000 -999.25 -999.25
 9021.50000 1082580.00000 -999.25 -999.25 12.26310 0.40230 0.10620 1.97780 5000.00000 -999.25 -999.25
 9022.00000 1082640.00000 -999.25 -999.25 12.92340 0.40540 0.19150 1.95670 5000.00000 -999.25 -999.25
 9022.50000 1082700.00000 -999.25 -999.25 12.19480 0.38740 0.10000 2.06730 5000.00000 -999.25 -999.25
 9023.00000 1082760.00000 71.90320 -999.25 12.37210 0.37990 0.12860 2.15290 5000.00000 -999.25 -999.25
 9023.50000 1082820.00000 80.88810 -999.25 11.91650 0.35710 0.11930 2.24490 5000.00000 -999.25 -999.25
 9024.00000 1082880.00000 80.77110 -999.25 13.05050 0.33870 0.11500 2.29610 5000.00000 -999.25 -999.25
 9024.50000 1082940.00000 78.62180 -999.25 12.76940 0.35350 0.10770 2.30710 5000.00000 -999.25 -999.25
 9025.00000 1083000.00000 77.88560 -999.25 13.55490 0.36870 0.10110 2.27580 5000.00000 -999.25 -999.25
 9025.50000 1083060.00000 79.16480 -999.25 13.63640 0.38330 0.11810 2.17480 5000.00000 -999.25 -999.25
 9026.00000 1083120.00000 80.41430 -999.25 14.57700 0.39430 0.10860 2.13020 5000.00000 -999.25 -999.25
 9026.50000 1083180.00000 82.93870 -999.25 13.88780 0.40170 0.15920 2.12530 5000.00000 -999.25 -999.25
 9027.00000 1083240.00000 82.97250 -999.25 12.15570 0.40440 0.10260 2.16870 5000.00000 -999.25 -999.25
 9027.50000 1083300.00000 83.75950 -999.25 11.34500 0.39990 0.10840 2.21630 5000.00000 -999.25 -999.25
 9028.00000 1083360.00000 83.36460 -999.25 11.27380 0.36950 0.11540 2.20550 5000.00000 -999.25 -999.25
 9028.50000 1083420.00000 82.31530 -999.25 13.23960 0.37340 0.11560 2.22270 5000.00000 -999.25 -999.25
 9029.00000 1083480.00000 82.61150 -999.25 12.99610 0.36840 0.10000 2.18140 5000.00000 -999.25 -999.25
 9029.50000 1083540.00000 81.12790 -999.25 13.45530 0.36700 0.10000 2.22140 193.41750 -999.25 -999.25
 9030.00000 1083600.00000 77.90820 -999.25 13.09590 0.35680 0.10000 2.20090 1707.37600 -999.25 -999.25
 9030.50000 1083660.00000 82.86680 -999.25 13.22980 0.38110 0.10000 2.16850 5000.00000 -999.25 -999.25
 9031.00000 1083720.00000 77.26370 -999.25 13.25470 0.38640 0.10310 2.11400 5000.00000 -999.25 -999.25
 9031.50000 1083780.00000 79.11260 -999.25 13.00310 0.38290 0.10000 2.16840 5000.00000 -999.25 -999.25
 9032.00000 1083840.00000 75.37110 -999.25 13.39700 0.36300 0.12310 2.22180 5000.00000 -999.25 -999.25
 9032.50000 1083900.00000 73.04420 -999.25 13.00060 0.39100 0.10000 2.20720 5000.00000 -999.25 -999.25
 9033.00000 1083960.00000 74.02850 -999.25 12.73390 0.38390 0.10000 2.16350 5000.00000 -999.25 -999.25
 9033.50000 1084020.00000 74.60250 -999.25 12.00270 0.37440 0.10980 2.08460 5000.00000 -999.25 -999.25
 9034.00000 1084080.00000 76.30770 -999.25 13.29580 0.37050 0.10000 2.16640 5000.00000 -999.25 -999.25
 9034.50000 1084140.00000 79.53310 -999.25 14.86180 0.35450 0.10690 2.20170 5000.00000 -999.25 -999.25
 9035.00000 1084200.00000 77.03950 -999.25 16.62660 0.33010 0.10000 2.30450 5000.00000 -999.25 -999.25
 9035.50000 1084260.00000 77.09660 -999.25 16.51270 0.31430 0.13630 2.27150 5000.00000 -999.25 -999.25
 9036.00000 1084320.00000 76.80110 -999.25 15.27750 0.33300 0.10860 2.25050 5000.00000 -999.25 -999.25
 9036.50000 1084380.00000 76.14400 -999.25 13.79610 0.33900 0.11920 2.22060 5000.00000 -999.25 -999.25
 9037.00000 1084440.00000 75.02070 -999.25 13.65930 0.35260 0.13200 2.26430 5000.00000 -999.25 -999.25
 9037.50000 1084500.00000 74.89800 -999.25 13.53850 0.32710 0.12490 2.28800 5000.00000 -999.25 -999.25
 9038.00000 1084560.00000 75.83510 -999.25 14.22790 0.33900 0.10000 2.31120 5000.00000 -999.25 -999.25
 9038.50000 1084620.00000 77.75310 -999.25 12.96250 0.34490 0.10190 2.27470 5000.00000 -999.25 -999.25
 9039.00000 1084680.00000 76.38790 -999.25 13.34980 0.32090 0.20340 2.29210 5000.00000 -999.25 -999.25
 9039.50000 1084740.00000 73.11190 -999.25 12.84680 0.30960 0.11340 2.29080 5000.00000 -999.25 -999.25
 9040.00000 1084800.00000 73.96490 -999.25 12.80260 0.30810 0.10470 2.31970 5000.00000 -999.25 -999.25
 9040.50000 1084860.00000 75.87180 -999.25 13.34910 0.30060 0.10850 2.30980 5000.00000 -999.25 -999.25
 9041.00000 1084920.00000 75.18570 -999.25 13.77750 0.29500 0.12790 2.26850 5000.00000 -999.25 -999.25
 9041.50000 1084980.00000 75.84800 -999.25 15.02590 0.27180 0.15700 2.25960 5000.00000 -999.25 -999.25
 9042.00000 1085040.00000 76.30970 -999.25 13.41280 0.27180 0.10000 2.18520 5000.00000 -999.25 -999.25
 9042.50000 1085100.00000 76.70240 -999.25 12.10910 0.24160 0.16200 2.23480 5000.00000 -999.25 -999.25
 9043.00000 1085160.00000 76.25180 -999.25 10.33870 0.22360 0.11900 2.21300 5000.00000 -999.25 -999.25
 9043.50000 1085220.00000 74.77030 -999.25 9.98300 0.21080 0.41570 2.26510 5000.00000 -999.25 -999.25
 9044.00000 1085280.00000 71.22420 -999.25 9.28470 0.21810 0.25380 2.24020 860.67170 -999.25 -999.25
 9044.50000 1085340.00000 73.32970 -999.25 8.78980 0.22850 0.42660 2.27650 5000.00000 -999.25 -999.25
 9045.00000 1085400.00000 73.02020 -999.25 9.16950 0.24660 0.96930 2.29800 5000.00000 -999.25 -999.25
 9045.50000 1085460.00000 74.19140 -999.25 10.84330 0.27680 0.10000 2.29320 55.16990 -999.25 -999.25
