~Version ---------------------------------------------------
VERS     .                             2.0 : CWLS log ASCII Standard -VERSION 2.0
WRAP     .                              NO : One Line per depth step
PROD     .         CROCKER DATA PROCESSING : LAS Producer
PROG     .                   LAS Viewer v0 : LAS Program name and version
CREA     .                2019/04/03 21-01 : LAS Creation date {YYYY/MM/DD hh-mm}
DLIS_CREA.               2009-Aug-25 10-08 : DLIS Creation date and time {YYYY-MMM-DD hh-mm}
SOURCE   . WLC_PETRO_COMPUTED_INPUT_1.DLIS : DLIS File Name
FILE-ID  .               CPI_INPUT.logdata : File Identification Number
~Well ------------------------------------------------------
STRT .m               2560.0152 : START DEPTH
STOP .m               3222.1932 : STOP DEPTH
STEP .m       0.152400000000398 : STEP
NULL .                  -999.25 : NULL VALUE
COMP .             STATOILHYDRO : COMPANY
WELL .              15/9-F-15 C : WELL
FIELD.                    VOLVE : FIELD
LOC  .                          : LOCATION
CNTY .                          : COUNTY
STAT .                          : STATE
NATI .                          : COUNTRY
API  .                          : API NUMBER
UWI  .                          : UNIQUE WELL ID
SRVC .                          : SERVICE COMPANY
LATI . 058 26' 29.706" N    DMS : LATITUDE
LONG . 001 53' 15.149" E    DMS : LONGITUDE
GDAT .                      MSL : GeoDetic Datum
~Curve Information -----------------------------------------
DEPTH.m      : Measured Depth
CALI .IN     : 
DRHO .G/CC   : 
DRHU .G/CC   : 
DT   .US/FT  : 
GR   .GAPI   : 
NPHI .V/V    : 
RD   .OHMM   : 
RHOB .G/CC   : 
ROBU .G/CC   : 
RS   .OHMM   : 
RT   .OHMM   : 
TVD  .M      : True Vertical Depth from PyLasMech
~Params ----------------------------------------------------
RUN . MWD RUN 12-13 : Run number
PDAT.           MSL : Perm. Datum
~Other -----------------------------------------------------
~ASCII -----------------------------------------------------
# ...
 3115.51320 8.72810 0.06440 0.11010 108.04730 298.18250 0.37810 0.95300 2.46390 2.46760 1.53190 1.50550 2935.16495
 3115.66560 8.71530 0.05940 0.10550 108.20360 248.82060 0.32460 1.20520 2.47120 2.45220 1.51210 1.64460 2935.31010
 3115.81800 8.70900 0.04850 0.11690 106.11830 230.91490 0.31510 1.27040 2.47030 2.46470 1.41820 1.29870 2935.45524
 3115.97040 8.74490 0.04580 0.13450 101.47960 227.28430 0.34030 1.49390 2.48330 2.47680 1.05990 1.24600 2935.60038
 3116.12280 8.69500 0.02750 0.16260 97.98430 219.58389 0.35620 1.21910 2.48240 2.51700 1.16210 1.25550 2935.74552
 3116.27520 8.75550 0.03310 0.14320 96.17790 200.58250 0.32110 1.45870 2.48800 2.50460 0.92790 0.86800 2935.89067
 3116.42760 8.75450 0.02300 0.13960 96.14170 179.44200 0.33020 1.16220 2.47070 2.51240 1.24910 1.32640 2936.03581
 3116.58000 8.74510 0.04670 0.11540 97.46800 161.33490 0.33110 1.33360 2.48650 2.46600 1.31740 1.42080 2936.18095
 3116.73240 8.75630 0.04130 0.13180 99.79780 153.14200 0.29240 1.37440 2.48370 2.46050 1.37060 1.50560 2936.32610
 3116.88480 8.72070 0.04840 0.13010 98.62580 145.13400 0.32420 1.49800 2.48420 2.44450 1.35620 1.36510 2936.47124
 3117.03720 8.73890 0.03360 0.14070 96.40660 141.33360 0.35790 1.44190 2.45790 2.45600 1.38410 1.39050 2936.61638
 3117.18960 8.77130 0.04430 0.14410 95.33860 140.27341 0.35280 1.39790 2.47850 2.46160 1.32530 1.43850 2936.76152
 3117.34200 8.73970 0.02350 0.17760 95.09270 136.37950 0.33630 1.35800 2.49340 2.56970 1.37170 1.56370 2936.90667
 3117.49440 8.77550 0.01770 0.12300 95.01210 133.60100 0.32260 1.70130 2.52020 2.60990 1.01640 0.96940 2937.05181
 3117.64680 8.75390 0.00580 0.15330 95.95910 129.98779 0.32570 1.42670 2.49190 2.71090 1.25750 1.67280 2937.19695
 3117.79920 8.77660 0.02280 0.11260 97.50950 129.42239 0.34000 1.62280 2.47460 2.58720 1.30800 1.45720 2937.34210
 3117.95160 8.74970 0.04230 0.17160 98.34430 128.21790 0.33000 1.51040 2.47030 2.55220 1.50320 1.95340 2937.48724
 3118.10400 8.74470 0.04280 0.15600 98.78830 130.83310 0.33540 1.59950 2.47560 2.48580 1.49770 1.66760 2937.63238
 3118.25640 8.70910 0.04630 0.15160 98.95670 134.94810 0.30150 1.66590 2.48090 2.47400 1.50510 1.52570 2937.77752
 3118.40880 8.68970 0.04080 0.13350 98.74250 134.85960 0.29570 1.69290 2.46170 2.45900 1.52840 1.62470 2937.91957
 3118.56120 8.70750 0.04560 0.12370 96.93390 132.35620 0.28860 1.68850 2.45500 2.44790 1.68730 1.91970 2938.06105
 3118.71360 8.67780 0.04190 0.12510 95.44920 132.56619 0.35900 1.79480 2.44160 2.44290 1.76150 2.07770 2938.20253
 3118.86600 8.69380 0.04450 0.13200 95.02880 132.65460 0.32160 1.77760 2.46180 2.44420 1.81690 2.02020 2938.34401
 3119.01840 8.68830 0.03760 0.13130 95.62910 132.85590 0.32220 1.71910 2.46280 2.44190 1.86570 2.16830 2938.48549
 3119.17080 8.70510 0.03880 0.11950 95.72320 127.19120 0.33050 1.79000 2.47100 2.43480 1.74070 1.93060 2938.62697
 3119.32320 8.72300 0.02730 0.11760 94.76260 123.06790 0.31960 1.83000 2.45590 2.44100 1.52410 1.65040 2938.76845
 3119.47560 8.74730 0.03140 0.11760 93.92730 119.46840 0.32480 1.86250 2.46850 2.44330 1.30310 1.40550 2938.90993
 3119.62800 8.69820 0.02220 0.12880 92.93370 119.66590 0.30620 1.71980 2.46510 2.48060 1.24390 1.31750 2939.05141
 3119.78040 8.70760 0.03420 0.12420 91.94670 122.85240 0.30610 1.74030 2.47450 2.48960 1.20600 1.27700 2939.19288
 3119.93280 8.69280 0.03140 0.13460 91.21100 124.09660 0.30910 1.58010 2.45960 2.51450 1.39050 1.53080 2939.33436
 3120.08520 8.72490 0.03790 0.12750 90.48600 124.77460 0.32310 1.61820 2.46460 2.48180 1.49030 1.58480 2939.47584
 3120.23760 8.72060 0.02690 0.13050 90.00460 123.46740 0.30640 1.66790 2.45500 2.47540 1.49010 1.55740 2939.61732
 3120.39000 8.71790 0.02820 0.13110 90.88760 121.52950 0.34630 1.60810 2.45850 2.47200 1.60020 1.79460 2939.75880
 3120.54240 8.69790 0.03470 0.13270 91.40470 119.84240 0.31140 1.64200 2.46890 2.47940 1.60550 1.71210 2939.90028
 3120.69480 8.70430 0.04020 0.12930 91.30490 115.48650 0.29120 1.59830 2.48260 2.47300 1.57680 1.73220 2940.04176
 3120.84720 8.66880 0.04320 0.11680 90.12100 115.85060 0.29320 1.59380 2.49880 2.45950 1.55640 1.70400 2940.18324
 3120.99960 8.72330 0.02610 0.11460 89.12930 112.65660 0.28780 1.64880 2.47600 2.45870 1.43560 1.51610 2940.32472
 3121.15200 8.76490 0.01750 0.11480 88.88760 114.71390 0.30770 1.63100 2.46360 2.46960 1.39500 1.47580 2940.46620
 3121.30440 8.71700 0.01460 0.10250 89.07820 111.84330 0.28980 1.59700 2.45890 2.47840 1.40000 1.51190 2940.60768
 3121.45680 8.67540 0.01910 0.09410 89.97160 112.96480 0.25810 1.62890 2.47420 2.48370 1.44490 1.60660 2940.74916
 3121.60920 8.69000 0.02720 0.10130 90.46860 112.99020 0.27390 1.63940 2.48190 2.50140 1.47230 1.54810 2940.89064
 3121.76160 8.69370 0.03240 0.10630 91.00960 113.68390 0.26550 1.68210 2.48330 2.49580 1.43310 1.46650 2941.03212
 3121.91400 8.68100 0.03200 0.10910 91.16570 114.88650 0.27030 1.62400 2.47620 2.49250 1.47410 1.61420 2941.17360
 3122.06640 8.76270 0.03220 0.10120 90.35540 113.73680 0.25740 1.61300 2.49470 2.48590 1.45560 1.64000 2941.31508
 3122.21880 8.77720 0.02320 0.09540 89.93170 116.17810 0.29690 1.63920 2.48980 2.49930 1.47580 1.62280 2941.45655
 3122.37120 8.71480 0.02960 0.08180 88.58820 116.84780 0.28220 1.85900 2.51050 2.51310 1.41970 1.40220 2941.59803
 3122.52360 8.70430 0.02590 0.07100 87.49610 114.72770 0.25210 1.81600 2.49550 2.52100 1.46710 1.39240 2941.73951
 3122.67600 8.70820 0.03050 0.07640 87.86520 106.91540 0.26850 1.64230 2.50160 2.52080 1.60130 1.72210 2941.88099
 3122.82840 8.67170 0.02950 0.07890 88.71980 97.31920 0.23260 1.61370 2.50320 2.50540 1.64280 1.73210 2942.02247
 3122.98080 8.70170 0.02860 0.08900 88.69430 93.17590 0.24720 1.53930 2.51060 2.51200 1.59030 1.69380 2942.16395
 3123.13320 8.63790 0.03610 0.08790 88.61660 92.29830 0.24160 1.61430 2.52720 2.51570 1.47430 1.53920 2942.30543
 3123.28560 8.67860 0.03880 0.08720 89.13020 94.26580 0.26790 1.58330 2.53030 2.53280 1.38220 1.43250 2942.44691
 3123.43800 8.66750 0.03840 0.08040 90.23910 99.60940 0.25880 1.55470 2.52730 2.52420 1.38530 1.49010 2942.58839
 3123.59040 8.69780 0.03900 0.06540 91.06620 104.69420 0.28910 1.55520 2.52960 2.52790 1.38340 1.52650 2942.72987
 3123.74280 8.70170 0.03270 0.07110 90.97950 113.76270 0.26830 1.53210 2.52640 2.54040 1.39770 1.50800 2942.87135
 3123.89520 8.67720 0.03570 0.05680 90.26620 114.30540 0.26730 1.54600 2.53180 2.53600 1.36440 1.43860 2943.01283
 3124.04760 8.69150 0.02840 0.05690 89.37830 113.27600 0.27630 1.53030 2.52060 2.54510 1.33570 1.44170 2943.15431
 3124.20000 8.68090 0.01970 0.05590 88.92750 106.66930 0.27770 1.48980 2.50660 2.53630 1.38880 1.39780 2943.29579
 3124.35240 8.75980 0.01450 0.06180 87.21570 104.14560 0.30270 1.69180 2.49790 2.53400 1.44020 1.57540 2943.43727
 3124.50480 8.77520 0.01860 0.08160 85.05790 104.54340 0.28220 1.86700 2.51840 2.55240 1.48520 1.73070 2943.57874
 3124.65720 8.77970 0.03840 0.04950 82.63390 107.50610 0.24730 1.87740 2.56380 2.53850 1.46310 1.92780 2943.72022
 3124.80960 8.74730 0.04790 0.05470 79.95850 106.25280 0.27630 1.76660 2.59770 2.57990 1.34280 2.33430 2943.86170
 3124.96200 8.77820 0.08610 0.06610 77.53110 99.65620 0.24700 1.44110 2.68940 2.64980 1.25360 2.95120 2944.00318
 3125.11440 8.75690 0.05940 0.06250 77.88300 79.91310 0.19540 1.23460 2.72220 2.70640 0.81510 1.70890 2944.14466
 3125.26680 8.75150 0.06120 0.07230 81.21530 59.39180 0.17790 2.11760 2.75040 2.74580 0.59050 0.35440 2944.28614
 3125.41920 8.77820 0.00250 0.03980 84.90050 39.85520 0.18160 2.46610 2.57610 2.60230 4.49040 6.34150 2944.42762
 3125.57160 8.74490 0.01000 0.07890 87.10800 29.13660 0.17530 3.48230 2.42130 2.51060 5.12180 8.66430 2944.56910
 3125.72400 8.70890 0.01660 0.07720 88.56500 22.69110 0.17330 4.34280 2.29350 2.37190 8.63210 10.41760 2944.71058
 3125.87640 8.75450 0.02050 0.08210 89.74260 21.49620 0.19260 5.35870 2.21680 2.28650 19.80530 9.62210 2944.85206
 3126.02880 8.72690 0.02310 0.06850 89.99250 21.49620 0.20510 6.63780 2.18650 2.21830 18.94400 20.09140 2944.99354
 3126.18120 8.71930 0.01890 0.06290 89.98150 20.78010 0.20130 8.90220 2.17550 2.18950 21.18580 22.80590 2945.13502
