~Version ---------------------------------------------------
VERS. 2.0 : CWLS log ASCII Standard -VERSION 2.0
WRAP.  NO : One line per depth step
~Well ------------------------------------------------------
STRT     .M           239.8776 : START
STOP     .M          4186.7328 : STOP
STEP     .M 0.1524000000000001 : STEP
NULL     .             -999.25 : NULL VALUE
COMP     .        STATOILHYDRO : COMPANY
WELL     .           15/9-F-12 : WELL
FLD      .               VOLVE : FIELD
LOC      .             UNKNOWN : LOCATION
CNTY     .             UNKNOWN : COUNTY
STAT     .             UNKNOWN : STATE
CTRY     .              Norway : COUNTRY
SRVC     .             UNKNOWN : SERVICE COMPANY
DATE     .             UNKNOWN : LOG DATE
UWI      .        NO 15/9-F-12 : UNIQUE WELL ID
XCOORD   .           435050.17 : SURFACE X
YCOORD   .           6478574.7 : SURFACE Y
LAT      .           58.441713 : LATITUDE
LON      .             1.88748 : LONGITUDE
ELEV     .M               54.9 : SURFACE ELEV
ELEV_TYPE.                  KB : ELEV TYPE
~Curve Information -----------------------------------------
DEPTH    .M           UNKNOWN : Measured Depth
CARB_FLAG.UNKNOWN     UNKNOWN : CARB_FLAG:UNKNOWN:rC:NONE:v1
COAL_FLAG.UNKNOWN     UNKNOWN : COAL_FLAG:UNKNOWN:rC:NONE:v1
DT       .us/ft       UNKNOWN : DT:UNKNOWN:rC:NONE:v2
GR       .API         UNKNOWN : GR:UNKNOWN:rC:NONE:v1
NPHI     .v/v_decimal UNKNOWN : NPHI:UNKNOWN:rC:NONE:v1
RD       .UNKNOWN     UNKNOWN : RD:UNKNOWN:rC:NONE:v1
RHOB     .g/cm3       UNKNOWN : RHOB:UNKNOWN:rC:NONE:v1
ROP5_RM  .UNKNOWN     UNKNOWN : ROP5_RM:UNKNOWN:rC:NONE:v1
RS       .UNKNOWN     UNKNOWN : RS:UNKNOWN:rC:NONE:v1
RT       .ohm.m       UNKNOWN : RT:UNKNOWN:rC:NONE:v1
SAND_FLAG.UNKNOWN     UNKNOWN : SAND_FLAG:UNKNOWN:rC:NONE:v1
TVD      .M                   : True Vertical Depth from PyLasMech
~Params ----------------------------------------------------
~Other -----------------------------------------------------
~ASCII -----------------------------------------------------
# ...
 250.85040 -999.25 -999.25 -999.25 16.42630 -999.25 0.26680 -999.25 101.22290 0.20000 0.17090 -999.25 250.85040
 251.00280 -999.25 -999.25 -999.25 17.64450 -999.25 0.35330 -999.25 100.11820 0.20000 0.14060 -999.25 251.00280
 251.15520 -999.25 -999.25 -999.25 17.91960 -999.25 0.41910 -999.25 101.60990 0.20000 0.15240 -999.25 251.15520
 251.30760 -999.25 -999.25 -999.25 16.74070 -999.25 0.38120 -999.25 101.60180 0.20000 0.10290 -999.25 251.30760
 251.46000 -999.25 -999.25 -999.25 15.79750 -999.25 0.40970 -999.25 101.60540 0.23350 0.13800 -999.25 251.46000
 251.61240 -999.25 -999.25 -999.25 16.58350 -999.25 0.45760 -999.25 101.60540 0.23870 0.15450 -999.25 251.61240
 251.76480 -999.25 -999.25 -999.25 16.19050 -999.25 0.48700 -999.25 101.60180 0.20410 0.16010 -999.25 251.76480
 251.91720 -999.25 -999.25 -999.25 16.97640 -999.25 0.51920 -999.25 101.59260 0.20490 0.17210 -999.25 251.91720
 252.06960 -999.25 -999.25 -999.25 17.64450 -999.25 0.53410 -999.25 101.61100 0.20000 0.18230 -999.25 252.06960
 252.22200 -999.25 -999.25 -999.25 19.21640 -999.25 0.57390 -999.25 101.59720 0.20000 0.18470 -999.25 252.22200
 252.37440 -999.25 -999.25 -999.25 20.51320 -999.25 0.73240 -999.25 101.59260 0.20000 0.13890 -999.25 252.37440
 252.52680 -999.25 -999.25 -999.25 21.02410 -999.25 1.01080 -999.25 101.61560 0.20000 0.18620 -999.25 252.52680
 252.67920 -999.25 -999.25 -999.25 22.83170 -999.25 1.07150 -999.25 101.59260 0.20000 0.22430 -999.25 252.67920
 252.83160 -999.25 -999.25 -999.25 21.92790 -999.25 0.95230 -999.25 101.59260 0.20000 0.21650 -999.25 252.83160
 252.98400 -999.25 -999.25 -999.25 20.19880 -999.25 0.73850 -999.25 101.59260 0.20000 0.26010 -999.25 252.98400
 253.13640 -999.25 -999.25 -999.25 17.60520 -999.25 0.68920 -999.25 101.59260 0.20000 0.25350 -999.25 253.13640
 253.28880 -999.25 -999.25 -999.25 17.48730 -999.25 0.62920 -999.25 101.59260 0.20000 0.25040 -999.25 253.28880
 253.44120 -999.25 -999.25 -999.25 18.15540 -999.25 0.62240 -999.25 101.60410 0.20000 0.30010 -999.25 253.44120
 253.59360 -999.25 -999.25 -999.25 18.94130 -999.25 0.83030 -999.25 101.60180 0.20000 0.28810 -999.25 253.59360
 253.74600 -999.25 -999.25 -999.25 19.21640 -999.25 0.92230 -999.25 101.60640 0.20000 0.33890 -999.25 253.74600
 253.89840 -999.25 -999.25 -999.25 19.60940 -999.25 1.13090 -999.25 101.59840 0.20000 0.34910 -999.25 253.89840
 254.05080 -999.25 -999.25 -999.25 20.90620 -999.25 1.47730 -999.25 101.59260 0.20000 0.28530 -999.25 254.05080
 254.20320 -999.25 -999.25 -999.25 20.90620 -999.25 1.20190 -999.25 101.61310 0.20000 0.32110 -999.25 254.20320
 254.35560 -999.25 -999.25 -999.25 20.78830 -999.25 1.05280 -999.25 101.61560 0.20000 0.29330 -999.25 254.35560
 254.50800 -999.25 -999.25 -999.25 20.00230 -999.25 0.90940 -999.25 101.59260 0.20000 0.26630 -999.25 254.50800
 254.66040 -999.25 -999.25 -999.25 19.21640 -999.25 1.96780 -999.25 101.61100 9.89350 1.20700 -999.25 254.66040
 254.81280 -999.25 -999.25 -999.25 19.33430 -999.25 1.95020 -999.25 101.59720 14.19160 1.23770 -999.25 254.81280
 254.96520 -999.25 -999.25 -999.25 20.51320 -999.25 2.00460 -999.25 101.60990 22.05550 1.27120 -999.25 254.96520
 255.11760 -999.25 -999.25 -999.25 21.81000 -999.25 2.05820 -999.25 101.59260 60.05720 1.25930 -999.25 255.11760
 255.27000 -999.25 -999.25 -999.25 23.93210 -999.25 2.00420 -999.25 101.59260 1000.00000 1.33530 -999.25 255.27000
 255.42240 -999.25 -999.25 -999.25 24.83590 -999.25 2.06810 -999.25 102.55200 174.71800 1.23660 -999.25 255.42240
 255.57480 -999.25 -999.25 -999.25 26.28990 -999.25 2.15960 -999.25 102.37390 1000.00000 1.22780 -999.25 255.57480
 255.72720 -999.25 -999.25 -999.25 25.85760 -999.25 2.74930 -999.25 101.60180 1000.00000 1.59760 -999.25 255.72720
 255.87960 -999.25 -999.25 -999.25 25.34680 -999.25 2.91830 -999.25 101.60990 1000.00000 1.76950 -999.25 255.87960
 256.03200 -999.25 -999.25 -999.25 26.52570 -999.25 3.49960 -999.25 101.59720 1000.00000 1.86320 -999.25 256.03200
 256.18440 -999.25 -999.25 -999.25 27.86180 -999.25 3.68980 -999.25 103.12750 1000.00000 2.05040 -999.25 256.18440
 256.33680 -999.25 -999.25 -999.25 29.55160 -999.25 3.05050 -999.25 103.51130 2.41170 1.11790 -999.25 256.33680
 256.48920 -999.25 -999.25 -999.25 30.33750 -999.25 2.55050 -999.25 101.59260 1.01300 1.12670 -999.25 256.48920
 256.64160 -999.25 -999.25 -999.25 30.33750 -999.25 2.34110 -999.25 101.59260 0.55950 0.97600 -999.25 256.64160
 256.79400 -999.25 -999.25 -999.25 28.80490 -999.25 2.28020 -999.25 103.14660 0.60590 0.98520 -999.25 256.79400
 256.94640 -999.25 -999.25 -999.25 25.38600 -999.25 2.12520 -999.25 101.59780 0.30110 1.10420 -999.25 256.94640
 257.09880 -999.25 -999.25 -999.25 22.87100 -999.25 2.64660 -999.25 101.60800 0.93700 1.21750 -999.25 257.09880
 257.25120 -999.25 -999.25 -999.25 22.32090 -999.25 2.33570 -999.25 101.59260 0.77580 1.38080 -999.25 257.25120
 257.40360 -999.25 -999.25 -999.25 24.56080 -999.25 2.16730 -999.25 102.55200 0.38280 1.31240 -999.25 257.40360
 257.55600 -999.25 -999.25 -999.25 27.86180 -999.25 1.73000 -999.25 102.36010 0.20000 1.36110 -999.25 257.55600
 257.70840 -999.25 -999.25 -999.25 29.94450 -999.25 1.59440 -999.25 101.60640 0.20000 1.29090 -999.25 257.70840
 257.86080 -999.25 -999.25 -999.25 29.51230 -999.25 1.45820 -999.25 101.59840 0.20820 1.43880 -999.25 257.86080
 258.01320 -999.25 -999.25 -999.25 30.14100 -999.25 1.60960 -999.25 101.61100 0.20000 1.30760 -999.25 258.01320
 258.16560 -999.25 -999.25 -999.25 32.89180 -999.25 1.58540 -999.25 101.59720 0.20000 2.22570 -999.25 258.16560
 258.31800 -999.25 -999.25 -999.25 35.79980 -999.25 1.70030 -999.25 101.59260 0.51570 2.82590 -999.25 258.31800
 258.47040 -999.25 -999.25 -999.25 38.03980 -999.25 1.97690 -999.25 101.59260 1.30680 4.53560 -999.25 258.47040
 258.62280 -999.25 -999.25 -999.25 39.21870 -999.25 2.19170 -999.25 101.59260 1.34620 3.64250 -999.25 258.62280
 258.77520 -999.25 -999.25 -999.25 40.79060 -999.25 2.35630 -999.25 101.59260 2.40030 3.18210 -999.25 258.77520
 258.92760 -999.25 -999.25 -999.25 40.27970 -999.25 2.57530 -999.25 101.59260 1.51520 2.33000 -999.25 258.92760
 259.08000 -999.25 -999.25 -999.25 38.31480 -999.25 2.66750 -999.25 48.43420 1.38650 2.07380 -999.25 259.08000
 259.23240 -999.25 -999.25 -999.25 36.97870 -999.25 2.56370 -999.25 47.01320 0.86980 2.41160 -999.25 259.23240
 259.38480 -999.25 -999.25 -999.25 37.88260 -999.25 2.57650 -999.25 46.19810 1.43710 2.54960 -999.25 259.38480
 259.53720 -999.25 -999.25 -999.25 38.94360 -999.25 2.38260 -999.25 45.71260 1.24680 2.79800 -999.25 259.53720
 259.68960 -999.25 -999.25 -999.25 41.45860 -999.25 2.56720 -999.25 45.71470 1.17060 1.69460 -999.25 259.68960
 259.84200 -999.25 -999.25 -999.25 43.58070 -999.25 2.52490 -999.25 45.71590 0.73390 1.40980 -999.25 259.84200
 259.99440 -999.25 -999.25 -999.25 47.11740 -999.25 2.41970 -999.25 45.58710 0.87870 1.57130 -999.25 259.99440
 260.14680 -999.25 -999.25 -999.25 46.33150 -999.25 2.61990 -999.25 45.54910 1.20360 1.69350 -999.25 260.14680
 260.29920 -999.25 -999.25 -999.25 43.54140 -999.25 2.57170 -999.25 45.71720 1.10350 2.04400 -999.25 260.29920
 260.45160 -999.25 -999.25 -999.25 42.63760 -999.25 2.86380 -999.25 45.04600 2.35630 2.39330 -999.25 260.45160
 260.60400 -999.25 -999.25 -999.25 45.11330 -999.25 2.99960 -999.25 45.67060 2.19430 2.46230 -999.25 260.60400
 260.75640 -999.25 -999.25 -999.25 46.72450 -999.25 3.28390 -999.25 46.37730 2.47860 2.27270 -999.25 260.75640
 260.90880 -999.25 -999.25 -999.25 46.05640 -999.25 3.36030 -999.25 46.49760 2.12870 2.25230 -999.25 260.90880
 261.06120 -999.25 -999.25 -999.25 46.05640 -999.25 3.11890 -999.25 46.99660 2.35240 2.37720 -999.25 261.06120
 261.21360 -999.25 -999.25 -999.25 46.29220 -999.25 2.94640 -999.25 47.30010 2.57570 2.73730 -999.25 261.21360
 261.36600 -999.25 -999.25 -999.25 46.17430 -999.25 2.95000 -999.25 47.62550 3.34980 2.98780 -999.25 261.36600
 261.51840 -999.25 -999.25 -999.25 46.44940 -999.25 3.17020 -999.25 47.81150 3.60050 2.73810 -999.25 261.51840
 261.67080 -999.25 -999.25 -999.25 49.20020 -999.25 3.10710 -999.25 47.84640 2.53570 2.95160 -999.25 261.67080
