~Version ---------------------------------------------------
VERS. 2.0 : CWLS log ASCII Standard -VERSION 2.0
WRAP.  NO : One line per depth step
~Well ------------------------------------------------------
STRT     .M           239.8776 : START
STOP     .M          4186.7328 : STOP
STEP     .M 0.1524000000000001 : STEP
NULL     .             -999.25 : NULL VALUE
COMP     .        STATOILHYDRO : COMPANY
WELL     .           15/9-F-12 : WELL
FLD      .               VOLVE : FIELD
LOC      .             UNKNOWN : LOCATION
CNTY     .             UNKNOWN : COUNTY
STAT     .             UNKNOWN : STATE
CTRY     .              Norway : COUNTRY
SRVC     .             UNKNOWN : SERVICE COMPANY
DATE     .             UNKNOWN : LOG DATE
UWI      .        NO 15/9-F-12 : UNIQUE WELL ID
XCOORD   .           435050.17 : SURFACE X
YCOORD   .           6478574.7 : SURFACE Y
LAT      .           58.441713 : LATITUDE
LON      .             1.88748 : LONGITUDE
ELEV     .M               54.9 : SURFACE ELEV
ELEV_TYPE.                  KB : ELEV TYPE
~Curve Information -----------------------------------------
DEPTH    .M           UNKNOWN : Measured Depth
CARB_FLAG.UNKNOWN     UNKNOWN : CARB_FLAG:UNKNOWN:rC:NONE:v1
COAL_FLAG.UNKNOWN     UNKNOWN : COAL_FLAG:UNKNOWN:rC:NONE:v1
DT       .us/ft       UNKNOWN : DT:UNKNOWN:rC:NONE:v2
GR       .API         UNKNOWN : GR:UNKNOWN:rC:NONE:v1
NPHI     .v/v_decimal UNKNOWN : NPHI:UNKNOWN:rC:NONE:v1
RD       .UNKNOWN     UNKNOWN : RD:UNKNOWN:rC:NONE:v1
RHOB     .g/cm3       UNKNOWN : RHOB:UNKNOWN:rC:NONE:v1
ROP5_RM  .UNKNOWN     UNKNOWN : ROP5_RM:UNKNOWN:rC:NONE:v1
RS       .UNKNOWN     UNKNOWN : RS:UNKNOWN:rC:NONE:v1
RT       .ohm.m       UNKNOWN : RT:UNKNOWN:rC:NONE:v1
SAND_FLAG.UNKNOWN     UNKNOWN : SAND_FLAG:UNKNOWN:rC:NONE:v1
TVD      .M                   : True Vertical Depth from PyLasMech
~Params ----------------------------------------------------
~Other -----------------------------------------------------
~ASCII -----------------------------------------------------
# ...
 1967.02680 -999.25 -999.25 136.80980 131.93080 0.29280 0.70140 2.15610 49.42710 1.00780 0.61100 -999.25 1897.71868
 1967.17920 -999.25 -999.25 133.81160 133.96640 0.31830 0.68540 2.17400 49.43310 0.98040 0.62200 -999.25 1897.85904
 1967.33160 -999.25 -999.25 130.80991 133.11360 0.38640 0.65840 2.16570 49.43310 0.91000 0.66540 -999.25 1897.99940
 1967.48400 -999.25 -999.25 127.83360 129.70261 0.37430 0.67920 2.16370 49.41260 0.92090 0.60460 -999.25 1898.13976
 1967.63640 -999.25 -999.25 125.83520 128.49220 0.38060 0.69210 2.14650 49.35480 0.96190 0.62410 -999.25 1898.28012
 1967.78880 -999.25 -999.25 123.95870 131.27060 0.32850 0.71230 2.09470 48.98060 0.90180 0.68650 -999.25 1898.42048
 1967.94120 -999.25 -999.25 122.12410 138.53281 0.34090 0.72210 2.01920 48.98060 0.86960 0.67290 -999.25 1898.56085
 1968.09360 -999.25 -999.25 121.93870 144.77730 0.32390 0.74540 2.06820 49.23300 0.89440 0.64290 -999.25 1898.70121
 1968.24600 -999.25 -999.25 123.62000 142.74159 0.41360 0.74860 2.14330 49.41880 1.22930 0.67340 -999.25 1898.84157
 1968.39840 -999.25 -999.25 125.95480 135.12170 0.36090 0.77220 2.21060 49.42850 1.29890 0.72970 -999.25 1898.98193
 1968.55080 -999.25 -999.25 128.28970 120.07460 0.33040 0.77020 2.23370 49.43310 1.07010 0.76840 -999.25 1899.12229
 1968.70320 -999.25 -999.25 130.62430 109.62130 0.23800 0.79790 2.31700 49.42500 1.95910 1.08160 -999.25 1899.26265
 1968.85560 -999.25 -999.25 132.92180 107.61320 0.21250 0.77910 2.55710 48.98260 3.32190 1.34740 -999.25 1899.40301
 1969.00800 -999.25 -999.25 134.12219 112.28960 0.18810 0.91950 2.80950 48.99620 1.82080 0.86700 -999.25 1899.54337
 1969.16040 -999.25 -999.25 135.25070 122.55040 0.20290 0.90840 2.65130 48.09950 1.43520 0.60380 -999.25 1899.68373
 1969.31280 -999.25 -999.25 133.59700 125.57630 0.25780 0.72120 2.42370 45.71500 1.08160 0.67580 -999.25 1899.82409
 1969.46520 -999.25 -999.25 131.23070 129.70261 0.30360 0.68990 2.26190 42.97280 0.94170 0.63630 -999.25 1899.96445
 1969.61760 -999.25 -999.25 130.21609 128.24460 0.28230 0.68610 2.16720 35.82500 0.94340 0.69270 -999.25 1900.10481
 1969.77000 -999.25 -999.25 130.23990 128.40970 0.31070 0.68840 2.15910 35.84840 0.87640 0.59060 -999.25 1900.24517
 1969.92240 -999.25 -999.25 131.14101 128.79480 0.35280 0.69130 2.16600 35.62510 1.07000 0.61910 -999.25 1900.38553
 1970.07480 -999.25 -999.25 130.55260 135.23180 0.42080 0.70710 2.20170 35.62510 0.81330 0.59140 -999.25 1900.52589
 1970.22720 -999.25 -999.25 126.70820 136.71730 0.34090 0.69450 2.18350 35.71460 0.83200 0.59990 -999.25 1900.66625
 1970.37960 -999.25 -999.25 127.67030 137.43249 0.32730 0.67070 2.17810 35.85840 0.86950 0.64070 -999.25 1900.80661
 1970.53200 -999.25 -999.25 128.46850 133.93890 0.34680 0.68740 2.15560 35.85940 0.93120 0.61190 -999.25 1900.94697
 1970.68440 -999.25 -999.25 130.12570 136.57970 0.36970 0.69320 2.15930 36.56000 1.00570 0.62970 -999.25 1901.08733
 1970.83680 -999.25 -999.25 128.65700 141.99890 0.34460 0.69450 2.13430 38.33690 1.25340 0.68320 -999.25 1901.22769
 1970.98920 -999.25 -999.25 130.20920 141.53130 0.31630 0.70100 2.13410 38.63870 1.17780 0.66320 -999.25 1901.36805
 1971.14160 -999.25 -999.25 131.89590 139.79820 0.32280 0.69790 2.13160 49.40800 1.12560 0.62980 -999.25 1901.50841
 1971.29400 -999.25 -999.25 131.47470 132.37089 0.43610 0.69790 2.15020 49.05600 1.08500 0.58250 -999.25 1901.64877
 1971.44640 -999.25 -999.25 129.82240 130.99550 0.38350 0.68350 2.12270 49.43310 1.02120 0.57180 -999.25 1901.78913
 1971.59880 -999.25 -999.25 131.53850 130.80290 0.40680 0.68790 2.08930 49.43310 0.80580 0.65090 -999.25 1901.92949
 1971.75120 -999.25 -999.25 132.23849 132.92110 0.40740 0.67850 2.07660 49.42220 0.87310 0.58240 -999.25 1902.06986
 1971.90360 -999.25 -999.25 130.16499 136.33211 0.33440 0.70710 2.06530 49.41140 0.83820 0.62280 -999.25 1902.21022
 1972.05600 -999.25 -999.25 130.14540 132.31590 0.28560 0.68000 2.05480 49.41140 0.94430 0.58820 -999.25 1902.35058
 1972.20840 -999.25 -999.25 129.42081 133.30620 0.26840 0.68630 1.78460 49.83490 1.14440 0.61050 -999.25 1902.49094
 1972.36080 -999.25 -999.25 130.61070 129.06990 0.28790 0.67030 2.00570 49.93840 1.01280 0.67060 -999.25 1902.63130
 1972.51320 -999.25 -999.25 132.73030 131.43559 0.30330 0.70050 2.05430 48.45210 1.07030 0.62440 -999.25 1902.77166
 1972.66560 -999.25 -999.25 127.32770 130.25281 0.33000 0.69160 2.06550 48.82990 0.91890 0.60430 -999.25 1902.91202
 1972.81800 -999.25 -999.25 129.77820 131.18800 0.32920 0.66830 2.06010 49.02420 0.93130 0.66850 -999.25 1903.05238
 1972.97040 -999.25 -999.25 129.82240 130.72040 0.32340 0.67370 2.05610 49.18150 0.91030 0.67160 -999.25 1903.19274
 1973.12280 -999.25 -999.25 131.50900 130.80290 0.33700 0.67070 2.05210 49.29300 0.88640 0.62540 -999.25 1903.33384
 1973.27520 -999.25 -999.25 131.07800 133.44369 0.42120 0.65570 2.05320 49.36120 0.78170 0.68420 -999.25 1903.47511
 1973.42760 -999.25 -999.25 128.98981 133.44369 0.45020 0.66840 2.07350 49.10630 0.95390 0.61380 -999.25 1903.61639
 1973.58000 -999.25 -999.25 128.48320 134.81920 0.41680 0.64880 2.10970 48.98410 0.97610 0.62640 -999.25 1903.75766
 1973.73240 -999.25 -999.25 130.76489 134.73660 0.34700 0.64820 2.14680 48.98060 0.77950 0.62560 -999.25 1903.89893
 1973.88480 -999.25 -999.25 131.57291 133.47130 0.33460 0.65330 2.13010 49.00570 1.00770 0.58280 -999.25 1904.04021
 1974.03720 -999.25 -999.25 133.57761 133.19620 0.32570 0.64940 2.10680 49.42950 0.99380 0.58450 -999.25 1904.18148
 1974.18960 -999.25 -999.25 130.88950 135.86450 0.37640 0.65020 2.07110 49.41740 0.97290 0.63230 -999.25 1904.32276
 1974.34200 -999.25 -999.25 128.97020 137.79010 0.42890 0.70480 2.05220 49.43310 0.97080 0.54800 -999.25 1904.46403
 1974.49440 -999.25 -999.25 127.60650 138.34030 0.53080 0.64400 2.02550 49.20690 0.92440 0.58370 -999.25 1904.60531
 1974.64680 -999.25 -999.25 125.90020 134.92920 0.40560 0.65880 2.01760 48.98060 1.07350 0.62060 -999.25 1904.74658
 1974.79920 -999.25 -999.25 125.75890 136.85480 0.40700 0.67200 2.05820 48.99600 0.74760 0.59770 -999.25 1904.88786
 1974.95160 -999.25 -999.25 134.86090 136.41470 0.31760 0.67410 2.12980 49.34310 0.78770 0.65530 -999.25 1905.02913
 1975.10400 -999.25 -999.25 136.94910 134.68159 0.28950 0.66990 2.17790 49.41140 0.78510 0.63610 -999.25 1905.17041
 1975.25640 -999.25 -999.25 137.38200 132.28841 0.23380 0.67700 2.15390 49.43310 0.99310 0.65440 -999.25 1905.31168
 1975.40880 -999.25 -999.25 132.27290 128.79480 0.28990 0.66760 2.10230 49.42950 0.73130 0.65220 -999.25 1905.45296
 1975.56120 -999.25 -999.25 131.51890 127.22680 0.35210 0.69150 2.04440 49.29760 0.72910 0.60740 -999.25 1905.59423
 1975.71360 -999.25 -999.25 131.76440 125.65880 0.44710 0.67350 1.99380 48.99360 0.77870 0.58830 -999.25 1905.73551
 1975.86600 -999.25 -999.25 141.17960 128.57471 0.42230 0.64300 1.92550 48.98060 0.74130 0.63730 -999.25 1905.87678
 1976.01840 -999.25 -999.25 140.45880 129.75760 0.41160 0.65450 1.91750 49.25710 0.74060 0.61090 -999.25 1906.01806
 1976.17080 -999.25 -999.25 127.39150 131.13299 0.40170 0.63530 1.92340 49.43310 0.77500 0.55840 -999.25 1906.15933
 1976.32320 -999.25 -999.25 132.31709 128.40970 0.39330 0.63500 1.96740 49.41500 0.73240 0.61900 -999.25 1906.30061
 1976.47560 -999.25 -999.25 133.17120 128.71230 0.38100 0.65430 1.98420 49.41140 0.70700 0.59260 -999.25 1906.44188
 1976.62800 -999.25 -999.25 129.80270 130.36279 0.36050 0.65600 1.99050 49.43310 0.80220 0.59140 -999.25 1906.58316
 1976.78040 -999.25 -999.25 130.72070 134.37900 0.34380 0.66200 2.00930 49.35480 0.84450 0.64750 -999.25 1906.72443
 1976.93280 -999.25 -999.25 129.81261 136.38721 0.37260 0.66380 2.00240 48.98710 0.79480 0.66940 -999.25 1906.86571
 1977.08520 -999.25 -999.25 131.12219 136.57970 0.41270 0.67010 1.99120 49.16730 0.74020 0.63490 -999.25 1907.00698
 1977.23760 -999.25 -999.25 130.82870 134.65410 0.39370 0.67970 2.00340 49.42260 0.91360 0.62850 -999.25 1907.14826
 1977.39000 -999.25 -999.25 133.95950 133.74631 0.37030 0.66100 2.03950 49.43310 0.86250 0.65570 -999.25 1907.28953
