~Version ---------------------------------------------------
VERS     .                             2.0 : CWLS log ASCII Standard -VERSION 2.0
WRAP     .                              NO : One Line per depth step
PROD     .         CROCKER DATA PROCESSING : LAS Producer
PROG     .                   LAS Viewer v0 : LAS Program name and version
CREA     .                2019/04/03 21-01 : LAS Creation date {YYYY/MM/DD hh-mm}
DLIS_CREA.               2009-Aug-25 10-08 : DLIS Creation date and time {YYYY-MMM-DD hh-mm}
SOURCE   . WLC_PETRO_COMPUTED_INPUT_1.DLIS : DLIS File Name
FILE-ID  .               CPI_INPUT.logdata : File Identification Number
~Well ------------------------------------------------------
STRT .m               2560.0152 : START DEPTH
STOP .m               3222.1932 : STOP DEPTH
STEP .m       0.152400000000398 : STEP
NULL .                  -999.25 : NULL VALUE
COMP .             STATOILHYDRO : COMPANY
WELL .              15/9-F-15 C : WELL
FIELD.                    VOLVE : FIELD
LOC  .                          : LOCATION
CNTY .                          : COUNTY
STAT .                          : STATE
NATI .                          : COUNTRY
API  .                          : API NUMBER
UWI  .                          : UNIQUE WELL ID
SRVC .                          : SERVICE COMPANY
LATI . 058 26' 29.706" N    DMS : LATITUDE
LONG . 001 53' 15.149" E    DMS : LONGITUDE
GDAT .                      MSL : GeoDetic Datum
~Curve Information -----------------------------------------
DEPTH.m      : Measured Depth
CALI .IN     : 
DRHO .G/CC   : 
DRHU .G/CC   : 
DT   .US/FT  : 
GR   .GAPI   : 
NPHI .V/V    : 
RD   .OHMM   : 
RHOB .G/CC   : 
ROBU .G/CC   : 
RS   .OHMM   : 
RT   .OHMM   : 
TVD  .M      : True Vertical Depth from PyLasMech
~Params ----------------------------------------------------
RUN . MWD RUN 12-13 : Run number
PDAT.           MSL : Perm. Datum
~Other -----------------------------------------------------
~ASCII -----------------------------------------------------
# ...
 3191.10360 8.71440 0.03450 0.14670 78.44770 55.54340 0.17980 1.23760 2.59500 2.60350 1.46960 1.38770 3005.40522
 3191.25600 8.75720 0.02390 0.15140 80.70270 51.29980 0.16070 1.27270 2.55400 2.57110 1.73610 1.72430 3005.54670
 3191.40840 8.77860 0.02310 0.16110 82.58470 53.85420 0.17340 1.34670 2.51080 2.53750 1.41150 1.53680 3005.68818
 3191.56080 8.75500 0.02580 0.15280 82.91980 55.45450 0.18180 1.28130 2.48090 2.49720 1.20680 1.31220 3005.82966
 3191.71320 8.79220 0.03470 0.15310 82.18730 60.53000 0.17650 1.16930 2.46780 2.49190 1.15440 1.19620 3005.97114
 3191.86560 8.83420 0.04250 0.14810 80.36390 64.80130 0.18610 1.15080 2.45760 2.47470 1.10290 1.14080 3006.11262
 3192.01800 8.78250 0.03600 0.13990 79.33390 71.59740 0.19210 1.16100 2.45000 2.46200 1.00470 0.99870 3006.25410
 3192.17040 8.77470 0.03030 0.14000 79.46550 72.04920 0.16910 1.16250 2.46480 2.47260 1.06810 1.01850 3006.39558
 3192.32280 8.75800 0.02640 0.14230 80.54550 72.75800 0.17160 1.16170 2.47850 2.48340 1.17510 1.21950 3006.53706
 3192.47520 8.72220 0.02920 0.15740 81.60420 70.34560 0.18000 1.13330 2.48670 2.49790 1.10110 1.17370 3006.67854
 3192.62760 8.79790 0.03830 0.15930 81.37170 71.10010 0.18150 1.12400 2.48270 2.47930 0.97980 1.04170 3006.82002
 3192.78000 8.82700 0.03860 0.16420 79.66170 70.28680 0.17340 1.13600 2.47380 2.46750 0.96020 0.96740 3006.96150
 3192.93240 8.78530 0.03400 0.16580 77.15910 71.27320 0.19600 1.14460 2.46930 2.45960 0.98980 0.97260 3007.10298
 3193.08480 8.81450 0.03250 0.14820 75.01650 72.32000 0.17950 1.14560 2.47150 2.45810 1.05100 1.02770 3007.24446
 3193.23720 8.75110 0.02580 0.13990 73.95510 68.90390 0.15380 1.24430 2.49390 2.49390 1.25190 1.26670 3007.38594
 3193.38960 8.73350 0.04410 0.11030 74.11690 67.29110 0.15890 1.29060 2.52270 2.52000 1.49860 1.46820 3007.52741
 3193.54200 8.75060 0.04740 0.11570 74.18090 68.51580 0.16250 1.28510 2.54650 2.55560 1.51240 1.69860 3007.66889
 3193.69440 8.85170 0.04490 0.12220 74.30740 75.15890 0.15280 1.42690 2.55600 2.55070 1.40790 1.61920 3007.81037
 3193.84680 8.79270 0.01850 0.14360 74.74350 76.88300 0.15090 1.35170 2.55660 2.56370 1.48080 1.48500 3007.95185
 3193.99920 8.75500 0.00690 0.14160 76.13720 77.29380 0.16810 1.26530 2.54250 2.57600 1.61820 1.60110 3008.09333
 3194.15160 8.74980 0.01590 0.12880 78.58370 78.13970 0.17670 1.18870 2.51170 2.56150 1.54230 1.66870 3008.23481
 3194.30400 8.72410 0.03000 0.12790 80.81090 79.44880 0.18130 1.16550 2.49110 2.52560 1.32180 1.60920 3008.37629
 3194.45640 8.79210 0.03690 0.13520 82.19500 78.59880 0.18640 1.16900 2.47570 2.47920 1.25520 1.33060 3008.51777
 3194.60880 8.79020 0.02990 0.14470 83.70880 75.79220 0.18270 1.03800 2.45630 2.46760 1.16170 1.10550 3008.65925
 3194.76120 8.86450 0.03270 0.14190 85.28530 73.94380 0.19560 0.95710 2.42920 2.45980 1.08270 0.93700 3008.80073
 3194.91360 8.78300 0.02770 0.13420 86.29000 69.54030 0.22280 0.81260 2.37870 2.44780 0.98430 0.98090 3008.94221
 3195.06600 8.74610 0.03240 0.12930 86.94170 64.74670 0.21280 0.73400 2.34430 2.42290 0.86030 0.95750 3009.08369
 3195.21840 8.80100 0.02690 0.12610 87.48390 62.54490 0.22310 0.77530 2.31590 2.37730 0.72640 0.82010 3009.22517
 3195.37080 8.83930 0.02660 0.12260 87.10240 61.13730 0.23370 0.73690 2.32320 2.34600 0.61780 0.61380 3009.36665
 3195.52320 8.83200 0.02680 0.12060 86.84240 60.27730 0.22390 0.68880 2.33830 2.33000 0.58130 0.55510 3009.50813
 3195.67560 8.85400 0.03820 0.10930 86.80450 58.47680 0.22420 0.63200 2.35740 2.33780 0.57880 0.54490 3009.64961
 3195.82800 8.84640 0.04930 0.10720 87.58550 57.02120 0.19710 0.54550 2.36610 2.35410 0.55880 0.57670 3009.79108
 3195.98040 8.74020 0.05490 0.10770 88.75990 58.45930 0.20680 0.55020 2.36300 2.36530 0.53000 0.55830 3009.93256
 3196.13280 8.81300 0.04190 0.11410 89.16270 57.26560 0.21570 0.58700 2.33660 2.36550 0.49800 0.48660 3010.07404
 3196.28520 8.78190 0.02690 0.11730 88.59360 56.29190 0.22100 0.53420 2.31810 2.35290 0.46860 0.46170 3010.21552
 3196.43760 8.74870 0.02050 0.10850 87.33210 54.88520 0.22740 0.54880 2.31150 2.32720 0.44610 0.41230 3010.35700
 3196.59000 8.73470 0.03240 0.10120 86.71920 56.51640 0.21560 0.52290 2.34690 2.31010 0.47700 0.42970 3010.49848
 3196.74240 8.78780 0.02520 0.09670 87.14750 61.47680 0.21710 0.57830 2.35560 2.32380 0.52790 0.48230 3010.63996
 3196.89480 8.80950 0.02780 0.10480 86.71670 65.48370 0.21450 0.49450 2.37150 2.36220 0.57410 0.56130 3010.78144
 3197.04720 8.83140 0.01570 0.11390 85.77500 67.16100 0.22990 0.49340 2.34320 2.39270 0.55800 0.55010 3010.92292
 3197.19960 8.76940 0.02610 0.11940 86.15370 67.47850 0.23530 0.49150 2.33030 2.38900 0.50020 0.49760 3011.06440
 3197.35200 8.79040 0.02890 0.11230 87.04890 67.47850 0.22660 0.50940 2.32150 2.35580 0.50430 0.44420 3011.20588
 3197.50440 8.78460 0.03360 0.11400 87.95030 69.60570 0.22490 0.54130 2.34340 2.35310 0.58780 0.54060 3011.34736
 3197.65680 8.76820 0.02880 0.10730 88.03050 68.51160 0.22310 0.58620 2.36790 2.36140 0.71550 0.70130 3011.48884
 3197.80920 8.73710 0.02850 0.11140 87.51820 67.35570 0.22730 0.61190 2.37970 2.38820 0.69510 0.70910 3011.63032
 3197.96160 8.77460 0.02580 0.10790 87.39040 65.26740 0.22070 0.60940 2.36330 2.38500 0.63840 0.64270 3011.77180
 3198.11400 8.76210 0.02920 0.09870 87.44880 64.02860 0.21910 0.58520 2.34410 2.36080 0.58810 0.58800 3011.91327
 3198.26640 8.76430 0.02300 0.09610 88.51130 61.86570 0.21550 0.57770 2.31910 2.34150 0.50420 0.46880 3012.05475
 3198.41880 8.73350 0.02320 0.08770 90.36100 60.46380 0.24170 0.54460 2.31580 2.32960 0.47510 0.42960 3012.19623
 3198.57120 8.74350 0.02690 0.10460 90.57310 60.74990 0.23320 0.52630 2.33040 2.35660 0.49270 0.46770 3012.33771
 3198.72360 8.78400 0.03530 0.08550 88.02620 64.48040 0.22160 0.52980 2.33770 2.34190 0.53550 0.56120 3012.47919
 3198.87600 8.77530 0.04930 0.07960 84.39240 67.70740 0.21490 0.50680 2.33480 2.33900 0.50900 0.48560 3012.62067
 3199.02840 8.76480 0.05970 0.06980 82.59850 70.15690 0.21670 0.49230 2.35290 2.33890 0.45240 0.37960 3012.76215
 3199.18080 8.76790 0.05270 0.06450 84.11080 71.40730 0.22110 0.52730 2.38870 2.37260 0.45290 0.37710 3012.90363
 3199.33320 8.72650 0.04100 0.08760 87.35230 71.31340 0.21690 0.58190 2.41020 2.40920 0.49270 0.41670 3013.04511
 3199.48560 8.72760 0.03250 0.09370 90.54290 68.22990 0.21200 0.66090 2.37560 2.37560 0.72370 0.69130 3013.18659
 3199.63800 8.78680 0.03820 0.12030 91.72840 62.11720 0.19810 0.63000 2.33170 2.34270 0.80980 0.94860 3013.32807
 3199.79040 8.74010 0.03930 0.09500 89.75410 56.90020 0.23130 0.59980 2.29610 2.28990 0.56500 0.66440 3013.46955
 3199.94280 8.66850 0.03650 0.07340 84.90950 54.53640 0.24030 0.50940 2.27720 2.26980 0.43440 0.44920 3013.61103
 3200.09520 8.69890 0.03900 0.06120 78.63000 52.89400 0.23170 0.49700 2.27560 2.26690 0.38700 0.37500 3013.75251
 3200.24760 8.70510 0.04620 0.07370 74.19770 52.79340 0.20290 0.52120 2.30510 2.31450 0.56390 0.57400 3013.89399
 3200.40000 8.69270 0.05150 0.08530 72.96770 52.90190 0.18550 0.62660 2.36480 2.39420 0.99780 1.04770 3014.03547
 3200.55240 8.82440 0.05000 0.09780 74.03750 54.20480 0.16260 0.76470 2.41450 2.47890 1.29800 1.35050 3014.17694
 3200.70480 8.78050 0.03670 0.10680 75.49350 53.97390 0.16160 1.07500 2.42820 2.51530 1.16140 1.07660 3014.31842
 3200.85720 8.73510 0.02880 0.11480 77.90880 54.11130 0.15420 0.98330 2.41040 2.50740 1.26210 1.08290 3014.45990
 3201.00960 8.77460 0.04060 0.10830 81.23150 54.39230 0.15670 0.88350 2.43410 2.48440 1.28880 1.17080 3014.60138
 3201.16200 8.72370 0.04840 0.10800 85.90970 54.84800 0.17760 0.84810 2.47970 2.48660 1.34440 1.44370 3014.74286
 3201.31440 8.75100 0.05280 0.10130 88.40680 54.61930 0.17060 0.89000 2.53870 2.49390 1.03910 1.13360 3014.88434
 3201.46680 8.76650 0.04220 0.09140 87.85320 52.75530 0.18450 0.77780 2.53800 2.48640 0.66940 0.69550 3015.02582
 3201.61920 8.77470 0.03260 0.07970 85.34290 49.32540 0.18280 0.62820 2.47800 2.41680 0.50920 0.44060 3015.16730
 3201.77160 8.81310 0.03080 0.06400 81.80900 45.69240 0.19680 0.49320 2.42400 2.35530 0.61370 0.76710 3015.30878
