~Version ---------------------------------------------------
VERS     .                             2.0 : CWLS log ASCII Standard -VERSION 2.0
WRAP     .                              NO : One Line per depth step
PROD     .                    Schlumberger : LAS Producer
PROG     .               DLIS to ASCII 2.3 : LAS Program name and version
CREA     .                   2019/04/03 19 : 51                          :LAS Creation date {YYYY/MM/DD hh:mm}
DLIS_CREA.                  2009-Feb-18 14 : 44                          :DLIS Creation date and time {YYYY-MMM-DD hh:mm}
SOURCE   . WLC_PETRO_COMPUTED_INPUT_1.DLIS : DLIS File Name
FILE-ID  .                   INPUT.logdata : File Identification Number
~Well ------------------------------------------------------
STRT.F                 1382.0 : START DEPTH
STOP.F                12441.0 : STOP DEPTH
STEP.F                    0.5 : STEP
NULL.                 -999.25 : NULL VALUE
COMP.                         : COMPANY
WELL.                15/9-F-5 : WELL
FLD .                   VOLVE : FIELD
LOC .                         : LOCATION
CNTY.         MAERSK INSPIRER : COUNTY
STAT.                         : STATE
CTRY.                         : COUNTRY
API .                         : API NUMBER
UWI .                         : UNIQUE WELL ID
DATE.                         : LOG DATE
SRVC. CROCKER DATA PROCESSING : SERVICE COMPANY
LATI.DEG                      : LATITUDE
LONG.DEG                      : LONGITUDE
GDAT.                         : GeoDetic Datum
~Curve Information -----------------------------------------
DEPTH.F            : DEPTH (BOREHOLE) {F10.1}
DEPTH..1IN         : Measured Depth {I11}
CALI .INCHES       : CALI:UNKNOWN:rC:NONE:v1 {F13.4}
DRHO .G/C3         : DRHO:UNKNOWN:rC:NONE:v1 {F13.4}
DT   .US/F         : DT:UNKNOWN:rC:NONE:v1 {F13.4}
GR   .API          : GR:UNKNOWN:rC:NONE:v1 {F13.4}
NPHI .V/V_DECIMAL  : NPHI:UNKNOWN:rC:NONE:v1 {F13.4}
RD   .UNKNOWN      : RD:UNKNOWN:rC:NONE:v1 {F13.4}
RHOB .G/C3         : RHOB:UNKNOWN:rC:NONE:v1 {F13.4}
RS   .UNKNOWN      : RS:UNKNOWN:rC:NONE:v1 {F13.4}
RT   .OHMM         : RT:UNKNOWN:rC:NONE:v1 {F13.4}
TVD  .M            : True Vertical Depth from PyLasMech
~Params ----------------------------------------------------
WN  .        15/9-F-5 : Well Name
FN  .           VOLVE : Field
CTRY.          NORWAY : Country
COUN. MAERSK INSPIRER : County or Rig name
PDAT.             MSL : Perm. Datum
ELZ .M            0.0 : Elev. Log Zero (wrt EPD)
RUN .                 : RUN NUMBER
EPD .                 : Elevation of Permanent Datum above Mean Sea Level
LMF .                 : Logging Measured From (Name of Logging Elevation Reference)
APD .                 : Elevation of Depth Reference (LMF) above Permanent Datum
~Other -----------------------------------------------------
~ASCII -----------------------------------------------------
# ...
 11598.50000 1391820.00000 8.43020 0.04980 84.03260 22.27580 0.18240 46.68090 2.24980 66.25240 61.61520 3095.22228
 11599.00000 1391880.00000 8.43970 0.04030 84.29330 22.59010 0.17320 44.58430 2.24030 67.47160 60.26260 3095.31545
 11599.50000 1391940.00000 8.42030 0.04000 85.30690 22.37370 0.16100 43.36880 2.24980 69.32060 59.25570 3095.40861
 11600.00000 1392000.00000 8.43000 0.04000 85.29900 22.51000 0.17410 43.35000 2.26000 65.58000 59.52000 3095.50178
 11600.50000 1392060.00000 8.46940 0.04000 83.00650 23.17340 0.17370 43.61760 2.27000 61.67630 58.51930 3095.59495
 11601.00000 1392120.00000 8.43120 0.04000 82.40330 20.84890 0.16900 41.60630 2.26970 57.59320 55.18070 3095.68812
 11601.50000 1392180.00000 8.46930 0.04000 85.79290 18.59150 0.15920 42.74990 2.26020 52.29730 48.21790 3095.78128
 11602.00000 1392240.00000 8.45000 0.04000 90.04570 16.88000 0.16290 40.01000 2.28000 48.72000 46.77000 3095.87445
 11602.50000 1392300.00000 8.45000 0.04000 89.36340 18.15800 0.15910 40.06000 2.28040 44.76790 45.21110 3095.96762
 11603.00000 1392360.00000 8.45970 0.04000 86.43810 19.47930 0.15740 37.78320 2.31000 42.46340 44.70590 3096.06079
 11603.50000 1392420.00000 8.45020 0.04000 83.61450 19.10780 0.18690 37.89760 2.31000 45.00660 50.10660 3096.15395
 11604.00000 1392480.00000 8.47000 0.04000 82.83800 19.96540 0.16530 38.41000 2.31000 45.72640 51.06550 3096.24712
 11604.50000 1392540.00000 8.44000 0.03000 83.72010 20.24370 0.17830 40.35000 2.29980 43.33510 53.86420 3096.34029
 11605.00000 1392600.00000 8.47000 0.03000 86.33160 21.48770 0.19100 39.39110 2.27980 31.72480 52.28780 3096.43346
 11605.50000 1392660.00000 8.47000 0.03000 90.54790 20.64000 0.17030 39.05810 2.27020 30.76270 48.01100 3096.52663
 11606.00000 1392720.00000 8.49000 0.03000 92.25100 21.03660 0.19370 42.52000 2.23030 23.30000 53.35610 3096.61979
 11606.50000 1392780.00000 8.51000 0.05010 90.64260 20.86950 0.18170 40.99000 2.24020 24.51260 39.22990 3096.71296
 11607.00000 1392840.00000 8.47090 0.06020 89.55200 24.58560 0.20320 45.09930 2.26110 26.04390 45.55480 3096.80613
 11607.50000 1392900.00000 8.50900 0.06980 88.90010 26.93820 0.20060 50.64590 2.30870 24.93900 51.26030 3096.89930
 11608.00000 1392960.00000 8.48000 0.06010 88.04650 28.92920 0.19020 50.39000 2.31000 17.86590 48.80800 3096.99246
 11608.50000 1393020.00000 8.48000 0.04990 84.03900 27.96650 0.19870 48.03000 2.28990 17.23890 37.78360 3097.08563
 11609.00000 1393080.00000 8.49980 0.04000 79.12510 27.32500 0.20310 44.35510 2.28000 18.90760 36.54780 3097.17880
 11609.50000 1393140.00000 8.49030 0.04000 76.05130 28.03940 0.18220 42.73740 2.28000 19.26960 34.06180 3097.27197
 11610.00000 1393200.00000 8.52000 0.04000 74.35850 27.08320 0.16340 43.39000 2.28000 29.46240 44.51770 3097.36513
 11610.50000 1393260.00000 8.49000 0.03000 74.51600 25.82000 0.16730 42.33000 2.30000 29.53000 48.28000 3097.45830
 11611.00000 1393320.00000 8.50930 0.02980 78.71450 24.34010 0.15560 41.00150 2.32030 36.98430 54.88150 3097.55147
 11611.50000 1393380.00000 8.47120 0.02030 84.91130 22.71130 0.15630 41.63050 2.33940 41.57540 56.59600 3097.64464
 11612.00000 1393440.00000 8.47980 0.02000 87.76780 20.79040 0.15940 39.84030 2.33020 34.10380 45.57020 3097.73780
 11612.50000 1393500.00000 8.50000 0.03000 87.33450 18.18000 0.17660 34.90000 2.29000 42.52000 44.63000 3097.83097
 11613.00000 1393560.00000 8.51970 0.04980 88.00810 17.98920 0.18290 35.74190 2.24950 46.92780 48.41870 3097.92414
 11613.50000 1393620.00000 8.50030 0.04030 88.59160 16.68510 0.18280 35.29000 2.22000 52.89560 51.05830 3098.01731
 11614.00000 1393680.00000 8.50980 0.04980 90.72120 15.89450 0.17620 35.92850 2.22000 51.48590 59.25930 3098.11047
 11614.50000 1393740.00000 8.52000 0.05000 91.41020 14.46000 0.20090 36.60000 2.21000 54.54000 56.34000 3098.20364
 11615.00000 1393800.00000 8.52000 0.04990 90.57850 15.07110 0.21750 38.55000 2.20990 56.40270 56.68840 3098.29681
 11615.50000 1393860.00000 8.54140 0.04000 91.59340 15.15470 0.19500 38.83600 2.20000 64.05690 55.18840 3098.38998
 11616.00000 1393920.00000 8.58900 0.04000 90.26070 15.31660 0.19070 39.37840 2.20000 66.02860 58.59840 3098.48314
 11616.50000 1393980.00000 8.55000 0.04990 87.33270 16.09580 0.19510 41.33000 2.20990 69.53140 62.10160 3098.57631
 11617.00000 1394040.00000 8.56000 0.05000 87.11750 18.38860 0.18460 44.61000 2.22990 67.88930 73.28530 3098.66948
 11617.50000 1394100.00000 8.59870 0.04980 89.85400 20.11750 0.19830 44.75100 2.21920 75.49620 65.59120 3098.76265
 11618.00000 1394160.00000 8.55110 0.04020 92.75710 20.40320 0.20860 46.31400 2.19070 85.25940 71.73490 3098.85582
 11618.50000 1394220.00000 8.60000 0.03010 93.20930 18.40620 0.21930 48.59000 2.17020 89.43820 77.71300 3098.94898
 11619.00000 1394280.00000 8.61000 0.03010 89.54440 15.84770 0.18930 48.94000 2.16010 89.17940 81.09130 3099.04215
 11619.50000 1394340.00000 8.53960 0.04020 87.34200 14.33600 0.19210 49.21860 2.17000 94.22410 85.01610 3099.13532
 11620.00000 1394400.00000 8.52050 0.04980 86.04370 15.01220 0.20050 52.21110 2.17000 100.74870 86.96880 3099.22849
 11620.50000 1394460.00000 8.52000 0.05000 84.16190 15.59390 0.20070 50.00000 2.17000 101.84010 89.74070 3099.32165
 11621.00000 1394520.00000 8.52000 0.05000 83.35580 15.88280 0.19270 54.16000 2.17010 101.77570 94.28960 3099.41482
 11621.50000 1394580.00000 8.52980 0.05020 85.03070 14.56300 0.19880 54.94980 2.18040 104.62340 97.90360 3099.50799
 11622.00000 1394640.00000 8.52030 0.05970 84.17460 15.18210 0.19600 55.88380 2.19950 100.97530 95.69380 3099.60116
 11622.50000 1394700.00000 8.55000 0.06000 84.55250 15.22960 0.19560 57.62000 2.20990 100.49510 91.87080 3099.69432
 11623.00000 1394760.00000 8.53000 0.05000 86.16800 15.61000 0.19370 57.14000 2.21000 94.81000 89.66000 3099.78749
 11623.50000 1394820.00000 8.52980 0.05020 85.88880 14.33440 0.19950 58.45500 2.20980 91.69000 91.21300 3099.88066
 11624.00000 1394880.00000 8.52030 0.05970 85.15060 14.57250 0.20520 62.64830 2.20030 79.17420 86.47910 3099.97383
 11624.50000 1394940.00000 8.52980 0.06000 85.31120 14.31430 0.21140 61.18470 2.20000 102.30740 92.74570 3100.06699
 11625.00000 1395000.00000 8.52000 0.06000 85.23750 16.07000 0.18690 59.92000 2.19000 107.09000 89.20000 3100.16016
 11625.50000 1395060.00000 8.53950 0.06000 84.72350 16.91660 0.18660 57.92560 2.18000 106.63650 90.15360 3100.25333
 11626.00000 1395120.00000 8.50940 0.06000 84.36390 16.68390 0.19510 60.72630 2.18030 100.14430 84.57000 3100.34650
 11626.50000 1395180.00000 8.49030 0.06000 82.35470 15.85520 0.19070 62.87060 2.18980 96.15330 75.99750 3100.43966
 11627.00000 1395240.00000 8.47000 0.06000 84.02330 14.13000 0.19110 52.60000 2.20000 92.80000 106.12000 3100.53283
 11627.50000 1395300.00000 8.51000 0.08000 85.34530 14.24640 0.18060 53.28000 2.22010 82.87630 86.23450 3100.62600
 11628.00000 1395360.00000 8.51940 0.08000 84.18310 13.96980 0.17520 54.07190 2.23000 77.09490 92.28040 3100.71917
 11628.50000 1395420.00000 8.50040 0.08000 84.15270 13.61740 0.17850 51.74060 2.23000 65.83640 85.02240 3100.81234
 11629.00000 1395480.00000 8.50000 0.08000 79.62190 13.56030 0.17900 53.67000 2.23990 54.92720 100.69510 3100.90550
 11629.50000 1395540.00000 8.55000 0.08000 77.88620 12.37760 0.15460 51.28000 2.26030 42.17950 99.25480 3100.99867
 11630.00000 1395600.00000 8.53930 0.07980 76.40380 12.16300 0.15150 53.15950 2.29030 38.30050 115.26770 3101.09184
 11630.50000 1395660.00000 8.51070 0.07020 74.40370 12.65830 0.17750 40.38900 2.29980 33.74760 72.51000 3101.18501
 11631.00000 1395720.00000 8.51000 0.06010 73.96470 14.32660 0.16810 29.88000 2.28020 47.75620 46.17420 3101.27817
 11631.50000 1395780.00000 8.51000 0.07010 78.38100 16.34950 0.16280 27.87000 2.28060 5000.00000 35.99620 3101.37134
 11632.00000 1395840.00000 8.51860 0.07930 81.10090 17.56620 0.16700 30.32710 2.36160 5000.00000 27.31280 3101.46451
 11632.50000 1395900.00000 8.46150 0.05070 81.99030 19.09980 0.17190 12.39950 2.42830 5000.00000 151.89030 3101.55768
 11633.00000 1395960.00000 8.47000 0.01040 82.92470 20.05020 0.15680 23.33000 2.43000 5000.00000 268.29030 3101.65084
