~Version ---------------------------------------------------
VERS     .                             2.0 : CWLS log ASCII Standard -VERSION 2.0
WRAP     .                              NO : One Line per depth step
PROD     .                    Schlumberger : LAS Producer
PROG     .               DLIS to ASCII 2.3 : LAS Program name and version
CREA     .                   2019/04/03 19 : 56                          :LAS Creation date {YYYY/MM/DD hh:mm}
DLIS_CREA.                  2009-Feb-18 14 : 31                          :DLIS Creation date and time {YYYY-MMM-DD hh:mm}
SOURCE   . WLC_PETRO_COMPUTED_INPUT_1.DLIS : DLIS File Name
FILE-ID  .                   INPUT.logdata : File Identification Number
~Well ------------------------------------------------------
STRT.F                  566.0 : START DEPTH
STOP.F                12302.0 : STOP DEPTH
STEP.F                    0.5 : STEP
NULL.                 -999.25 : NULL VALUE
COMP.            STATOILHYDRO : COMPANY
WELL.               15/9-F-14 : WELL
FLD .                   VOLVE : FIELD
LOC .                         : LOCATION
CNTY.         MAERSK INSPIRER : COUNTY
STAT.                         : STATE
CTRY.                         : COUNTRY
API .                         : API NUMBER
UWI .                         : UNIQUE WELL ID
DATE.                         : LOG DATE
SRVC. CROCKER DATA PROCESSING : SERVICE COMPANY
LATI.DEG                      : LATITUDE
LONG.DEG                      : LONGITUDE
GDAT.                         : GeoDetic Datum
~Curve Information -----------------------------------------
DEPTH.F            : DEPTH (BOREHOLE) {F10.1}
DEPTH..1IN         : Measured Depth {I11}
DRHO .G/C3         : DRHO:UNKNOWN:rC:NONE:v1 {F13.4}
DT   .US/F         : DT:UNKNOWN:rC:NONE:v2 {F13.4}
DTS  .US/F         : DTS:UNKNOWN:rC:NONE:v1 {F13.4}
GR   .API          : GR:UNKNOWN:rC:NONE:v1 {F13.4}
NPHI .V/V_DECIMAL  : NPHI:UNKNOWN:rC:NONE:v1 {F13.4}
PEF  .B/ELEC       : PEF:UNKNOWN:rC:NONE:v1 {F13.4}
RD   .UNKNOWN      : RD:UNKNOWN:rC:NONE:v1 {F13.4}
RHOB .G/C3         : RHOB:UNKNOWN:rC:NONE:v1 {F13.4}
RS   .UNKNOWN      : RS:UNKNOWN:rC:NONE:v1 {F13.4}
RT   .OHMM         : RT:UNKNOWN:rC:NONE:v1 {F13.4}
TVD  .M            : True Vertical Depth from PyLasMech
~Params ----------------------------------------------------
CN  .    STATOILHYDRO : Company
WN  .       15/9-F-14 : Well Name
FN  .           VOLVE : Field
CTRY.          NORWAY : Country
COUN. MAERSK INSPIRER : County or Rig name
PDAT.             MSL : Perm. Datum
ELZ .M            0.0 : Elev. Log Zero (wrt EPD)
SRVC.         UNKNOWN : Service company
R2  .           INPUT : R2
RUN .                 : RUN NUMBER
EPD .                 : Elevation of Permanent Datum above Mean Sea Level
LMF .                 : Logging Measured From (Name of Logging Elevation Reference)
APD .                 : Elevation of Depth Reference (LMF) above Permanent Datum
~Other -----------------------------------------------------
~ASCII -----------------------------------------------------
# ...
 10386.50000 1246380.00000 0.04750 82.35620 140.64390 18.46170 0.17030 4.23220 98.11310 2.27620 390.53190 411.35010 2916.41530
 10387.00000 1246440.00000 0.05110 82.32380 140.17940 18.30630 0.17010 4.34700 112.60540 2.29450 343.62330 458.12760 2916.45232
 10387.50000 1246500.00000 0.05320 82.58610 140.12970 19.68040 0.16650 4.32420 91.78830 2.30660 299.22240 507.99600 2916.48934
 10388.00000 1246560.00000 0.05010 83.10440 140.55020 18.58040 0.17260 4.24770 91.01670 2.30540 255.80750 600.26030 2916.52636
 10388.50000 1246620.00000 0.04200 84.75300 141.64510 18.49170 0.16880 4.16170 90.86480 2.28930 244.89390 828.51730 2916.56338
 10389.00000 1246680.00000 0.04340 85.94330 143.23170 17.37750 0.17820 4.15120 87.31040 2.26340 265.47020 1469.01400 2916.60040
 10389.50000 1246740.00000 0.04310 88.17650 145.57340 16.81710 0.17710 3.96220 84.41500 2.22840 244.50710 968.48910 2916.63742
 10390.00000 1246800.00000 0.04210 91.04640 149.57850 17.58130 0.18040 3.70010 84.95370 2.19990 250.24280 5000.00000 2916.67444
 10390.50000 1246860.00000 0.03500 91.60350 152.01200 19.07840 0.20340 3.39980 86.58190 2.19000 257.35410 3630.64210 2916.71146
 10391.00000 1246920.00000 0.02880 91.31650 152.74190 21.48920 0.19240 3.16540 80.37300 2.19440 287.01510 1895.06400 2916.74848
 10391.50000 1246980.00000 0.03090 90.78200 153.26840 19.98730 0.18870 2.94920 75.67580 2.19730 262.15680 741.01790 2916.78550
 10392.00000 1247040.00000 0.02210 89.43730 152.74940 18.64080 0.19270 2.63750 72.98620 2.17700 268.21010 1557.74800 2916.82252
 10392.50000 1247100.00000 0.02080 89.12560 151.66750 16.85580 0.18670 2.62980 74.17350 2.15960 275.24330 5000.00000 2916.85954
 10393.00000 1247160.00000 0.01780 89.53740 150.44660 16.66720 0.18320 2.92190 75.40350 2.14680 205.27190 5000.00000 2916.89656
 10393.50000 1247220.00000 0.02870 91.44900 150.37640 17.18470 0.18850 3.26990 85.16800 2.15090 251.48970 5000.00000 2916.93358
 10394.00000 1247280.00000 0.03340 92.47290 150.45570 17.19820 0.18930 3.36130 86.29550 2.15510 336.39570 5000.00000 2916.97060
 10394.50000 1247340.00000 0.03930 91.73460 150.56070 18.28440 0.18710 3.25040 89.33200 2.16310 344.95830 5000.00000 2917.00762
 10395.00000 1247400.00000 0.03510 91.29180 150.27970 17.29240 0.18580 3.08680 89.84060 2.16540 566.13260 5000.00000 2917.04464
 10395.50000 1247460.00000 0.03280 90.93850 150.14740 17.11130 0.19640 3.00510 78.17510 2.16880 703.59340 5000.00000 2917.08166
 10396.00000 1247520.00000 0.02950 89.68200 149.79610 16.91590 0.18700 2.93760 89.30590 2.17370 403.77040 5000.00000 2917.11868
 10396.50000 1247580.00000 0.02880 87.49180 149.69040 17.95160 0.17820 2.99070 78.83720 2.18090 297.49210 5000.00000 2917.15570
 10397.00000 1247640.00000 0.02580 86.37700 149.09200 18.73090 0.19030 3.16050 61.45780 2.19010 250.77280 631.83580 2917.19272
 10397.50000 1247700.00000 0.02340 86.27820 148.14310 18.42420 0.17830 3.30410 61.11250 2.20410 185.87740 468.67180 2917.22974
 10398.00000 1247760.00000 0.02160 86.16400 147.70340 18.18470 0.17780 3.40490 62.45000 2.22020 180.50970 440.50110 2917.26676
 10398.50000 1247820.00000 0.02170 86.82890 147.20250 19.50680 0.17400 3.30420 58.84520 2.23500 163.02730 330.77290 2917.30378
 10399.00000 1247880.00000 0.02010 87.32820 146.88590 21.48960 0.18400 3.31080 59.85170 2.24260 162.22840 305.30430 2917.34080
 10399.50000 1247940.00000 0.02080 86.46650 146.51550 23.91840 0.18750 3.29100 55.27760 2.25050 149.22650 268.60680 2917.37782
 10400.00000 1248000.00000 0.02150 85.91790 145.86710 22.76820 0.18390 3.17110 50.82740 2.24920 143.19610 240.33180 2917.41484
 10400.50000 1248060.00000 0.01940 86.42630 144.79700 21.78950 0.17800 2.92850 54.19060 2.23740 130.37940 391.14790 2917.45186
 10401.00000 1248120.00000 0.01390 86.82890 144.89130 20.51660 0.17260 2.72990 53.18010 2.21780 119.69030 524.59680 2917.48888
 10401.50000 1248180.00000 0.00930 87.40220 145.25460 20.56240 0.17180 2.66590 52.67350 2.20430 111.24870 626.34880 2917.52590
 10402.00000 1248240.00000 0.00700 86.78660 146.36050 19.47130 0.17380 2.59190 42.70470 2.19870 88.08990 227.66650 2917.56292
 10402.50000 1248300.00000 0.00880 86.07300 147.68400 18.13460 0.17180 2.50870 40.93780 2.19770 75.15420 95.47350 2917.59994
 10403.00000 1248360.00000 0.01220 85.91790 148.85920 18.07340 0.17650 2.45150 48.78790 2.19870 61.18880 43.43070 2917.63696
 10403.50000 1248420.00000 0.01810 86.05610 150.13690 17.89380 0.17220 2.48000 47.13440 2.21100 87.08170 53.42370 2917.67398
 10404.00000 1248480.00000 0.02410 84.83340 150.41730 19.05350 0.17250 2.61620 39.35150 2.23800 327.17480 75.23710 2917.71100
 10404.50000 1248540.00000 0.03590 83.45480 150.30550 20.06810 0.16630 3.04160 37.74450 2.32540 56.34740 77.46880 2917.74802
 10405.00000 1248600.00000 0.01650 82.23280 149.74700 24.42830 0.16290 3.91850 37.28170 2.40250 20.06180 62.75550 2917.78504
 10405.50000 1248660.00000 0.01030 81.82320 149.38290 30.79690 0.17140 4.23380 61.51020 2.43980 7.83660 9.12900 2917.82205
 10406.00000 1248720.00000 -0.00200 82.52190 149.60350 37.18100 0.17430 3.83210 126.28380 2.36860 6.90990 5.31720 2917.85907
 10406.50000 1248780.00000 0.02240 84.79530 151.06390 43.83680 0.19470 3.07310 96.22420 2.28820 9.82240 14.81740 2917.89609
 10407.00000 1248840.00000 0.03560 87.24780 153.10220 47.17860 0.19310 2.86920 28.51020 2.23220 25.74720 73.23630 2917.93311
 10407.50000 1248900.00000 0.03390 88.85620 154.23290 50.02790 0.20320 2.99060 38.72460 2.20290 18.16030 28.96210 2917.97013
 10408.00000 1248960.00000 0.02910 90.71070 156.31220 50.06050 0.21410 3.06010 42.44750 2.19020 25.29780 26.23560 2918.00715
 10408.50000 1249020.00000 0.02470 92.32620 158.51020 48.57380 0.21370 3.14350 42.39990 2.17620 45.15740 28.18220 2918.04417
 10409.00000 1249080.00000 0.02900 93.32820 160.55330 47.51630 0.21250 3.23700 43.16460 2.17000 32.59380 36.06650 2918.08119
 10409.50000 1249140.00000 0.02900 95.04240 160.99630 48.37090 0.22250 3.25340 41.97510 2.16230 34.22020 39.07190 2918.11821
 10410.00000 1249200.00000 0.03060 95.76380 160.38310 50.85360 0.21030 3.24050 45.55460 2.16170 38.38410 38.61390 2918.15523
 10410.50000 1249260.00000 0.02430 95.54170 159.53450 52.28510 0.21470 3.16980 47.98980 2.15410 41.50170 40.42380 2918.19225
 10411.00000 1249320.00000 0.02380 94.65530 159.13490 52.67680 0.21240 3.19000 49.77190 2.15790 44.21620 41.60560 2918.22927
 10411.50000 1249380.00000 0.02180 93.67090 159.44890 52.76940 0.21530 3.22800 49.44780 2.16160 45.58720 44.44100 2918.26629
 10412.00000 1249440.00000 0.02210 93.02290 160.24580 51.59030 0.20880 3.20010 52.75320 2.16740 46.45830 45.89700 2918.30331
 10412.50000 1249500.00000 0.02360 92.74440 160.03010 50.53550 0.22990 3.22870 54.33730 2.17190 49.16130 47.15560 2918.34033
 10413.00000 1249560.00000 0.02340 92.82620 159.90320 49.85070 0.22720 3.27930 55.32230 2.17240 49.84920 49.10960 2918.37735
 10413.50000 1249620.00000 0.02740 92.69500 159.81970 50.51600 0.20820 3.25970 54.68620 2.17620 51.28310 49.87280 2918.41437
 10414.00000 1249680.00000 0.02330 92.71970 159.91950 49.68190 0.21390 3.10370 55.92300 2.17180 51.10130 49.80300 2918.45139
 10414.50000 1249740.00000 0.02110 93.20480 161.00140 49.13240 0.20530 2.91440 55.97830 2.17410 52.07500 50.88310 2918.48841
 10415.00000 1249800.00000 0.01990 94.46770 163.19220 47.41450 0.21090 2.89880 55.74180 2.17220 50.32900 50.56300 2918.52543
 10415.50000 1249860.00000 0.02670 95.03400 164.31870 47.75770 0.21060 2.97050 54.64600 2.17810 51.09240 51.22530 2918.56245
 10416.00000 1249920.00000 0.02940 95.54240 164.07900 48.29620 0.20760 3.03920 53.01820 2.17460 50.15630 50.36970 2918.59947
 10416.50000 1249980.00000 0.03030 95.67350 163.83930 50.56150 0.20300 3.11350 56.14190 2.17410 49.81920 51.34360 2918.63649
 10417.00000 1250040.00000 0.02510 95.47610 163.36020 51.16110 0.21040 3.15120 55.63390 2.16750 50.17100 51.55760 2918.67351
 10417.50000 1250100.00000 0.02770 94.80340 162.67210 51.00640 0.21890 3.27000 57.28250 2.17020 48.97270 51.73310 2918.71053
 10418.00000 1250160.00000 0.02850 94.60740 162.98670 51.71950 0.21880 3.31950 56.72000 2.17000 49.65480 51.93500 2918.74755
