~Version ---------------------------------------------------
VERS     .                             2.0 : CWLS log ASCII Standard -VERSION 2.0
WRAP     .                              NO : One Line per depth step
PROD     .                    Schlumberger : LAS Producer
PROG     .               DLIS to ASCII 2.3 : LAS Program name and version
CREA     .                   2019/04/03 19 : 50                          :LAS Creation date {YYYY/MM/DD hh:mm}
DLIS_CREA.                  2009-Feb-18 14 : 26                          :DLIS Creation date and time {YYYY-MMM-DD hh:mm}
SOURCE   . WLC_PETRO_COMPUTED_INPUT_1.DLIS : DLIS File Name
FILE-ID  .                   INPUT.logdata : File Identification Number
~Well ------------------------------------------------------
STRT.F                  657.0 : START DEPTH
STOP.F                11567.5 : STOP DEPTH
STEP.F                    0.5 : STEP
NULL.                 -999.25 : NULL VALUE
COMP.            STATOILHYDRO : COMPANY
WELL.                15/9-F-4 : WELL
FLD .                   VOLVE : FIELD
LOC .                         : LOCATION
CNTY.         MAERSK INSPIRER : COUNTY
STAT.                         : STATE
CTRY.                         : COUNTRY
API .                         : API NUMBER
UWI .                         : UNIQUE WELL ID
DATE.                         : LOG DATE
SRVC. CROCKER DATA PROCESSING : SERVICE COMPANY
LATI.DEG                      : LATITUDE
LONG.DEG                      : LONGITUDE
GDAT.                         : GeoDetic Datum
~Curve Information -----------------------------------------
DEPTH.F            : DEPTH (BOREHOLE) {F10.1}
DEPTH..1IN         : {I11}
DT   .US/F         : {F13.4}
DTS  .US/F         : {F13.4}
GR   .API          : {F13.4}
NPHI .V/V_DECIMAL  : {F13.4}
RD   .UNKNOWN      : {F13.4}
RHOB .G/C3         : {F13.4}
RS   .UNKNOWN      : {F13.4}
RT   .OHMM         : {F13.4}
TVD  .M            : True Vertical Depth from PyLasMech
~Params ----------------------------------------------------
CN  .    STATOILHYDRO : Company
WN  .        15/9-F-4 : Well Name
FN  .           VOLVE : Field
CTRY.          NORWAY : Country
COUN. MAERSK INSPIRER : County or Rig name
PDAT.             MSL : Perm. Datum
ELZ .M            0.0 : Elev. Log Zero (wrt EPD)
RUN .                 : RUN NUMBER
EPD .                 : Elevation of Permanent Datum above Mean Sea Level
LMF .                 : Logging Measured From (Name of Logging Elevation Reference)
APD .                 : Elevation of Depth Reference (LMF) above Permanent Datum
~Other -----------------------------------------------------
~ASCII -----------------------------------------------------
# ...
 9324.50000 1118940.00000 72.61610 143.61460 15.48680 0.10050 3.43720 2.56530 3.08190 3.36720 -999.25
 9325.00000 1119000.00000 71.53230 141.31860 16.72770 0.10280 3.41120 2.56050 2.80740 2.92980 -999.25
 9325.50000 1119060.00000 69.94930 138.68410 17.41330 0.10990 3.37090 2.55540 2.62320 2.59660 -999.25
 9326.00000 1119120.00000 69.74620 139.15030 16.06920 0.11490 3.08990 2.55320 2.90370 2.85830 -999.25
 9326.50000 1119180.00000 71.07400 139.80080 14.01260 0.10440 3.01470 2.53870 2.89870 2.79800 -999.25
 9327.00000 1119240.00000 70.89350 140.48670 13.67590 0.11760 2.81500 2.53430 2.99510 3.14350 -999.25
 9327.50000 1119300.00000 70.51550 141.90330 13.89040 0.12030 2.89870 2.52410 2.67870 2.63580 -999.25
 9328.00000 1119360.00000 70.20530 144.80520 14.35120 0.11700 2.87210 2.52500 2.60410 2.45470 -999.25
 9328.50000 1119420.00000 71.86370 148.92960 13.30550 0.11540 2.68560 2.51960 2.63260 2.62940 -999.25
 9329.00000 1119480.00000 74.10260 153.42860 14.25990 0.13280 2.62030 2.51430 2.64480 2.62260 -999.25
 9329.50000 1119540.00000 74.28100 154.66540 15.85120 0.13400 2.64310 2.51480 2.38970 2.39440 -999.25
 9330.00000 1119600.00000 72.51740 150.95880 18.05360 0.12660 2.65690 2.52140 2.30880 2.27710 -999.25
 9330.50000 1119660.00000 71.34400 144.44260 18.04920 0.13810 2.59850 2.51810 2.33690 2.24510 -999.25
 9331.00000 1119720.00000 70.54090 144.49400 16.07500 0.13420 2.52330 2.51440 2.45390 2.40330 -999.25
 9331.50000 1119780.00000 70.52400 143.24590 13.69330 0.13670 2.49540 2.51240 2.46680 2.47820 -999.25
 9332.00000 1119840.00000 70.05650 142.09370 12.76710 0.13370 2.48160 2.51960 2.40500 2.41580 -999.25
 9332.50000 1119900.00000 69.85970 140.97860 13.62770 0.13040 2.54280 2.52570 2.37700 2.36870 -999.25
 9333.00000 1119960.00000 69.90910 140.97780 14.78570 0.12840 2.50220 2.52220 2.42880 2.39300 -999.25
 9333.50000 1120020.00000 70.11430 139.67530 15.12700 0.13530 2.46190 2.52140 2.55230 2.47120 -999.25
 9334.00000 1120080.00000 70.28630 137.47000 15.10420 0.12920 2.43580 2.51760 2.57690 2.47820 -999.25
 9334.50000 1120140.00000 70.34420 136.83760 14.27840 0.12990 2.47540 2.52370 2.58930 2.43410 -999.25
 9335.00000 1120200.00000 70.94350 136.99630 13.15010 0.12440 2.42020 2.52860 2.63080 2.50040 -999.25
 9335.50000 1120260.00000 71.78830 137.86740 12.99130 0.13520 2.34370 2.52050 2.56520 2.55030 -999.25
 9336.00000 1120320.00000 72.14090 139.06190 12.87190 0.13780 2.35810 2.50150 2.36870 2.40970 -999.25
 9336.50000 1120380.00000 71.78690 138.63880 13.37100 0.15530 2.34070 2.47350 2.07660 1.99140 -999.25
 9337.00000 1120440.00000 70.49930 137.03860 11.91440 0.15250 2.27170 2.47080 1.91580 1.90410 -999.25
 9337.50000 1120500.00000 69.89220 135.66810 11.43980 0.16200 2.22440 2.46710 1.81140 1.82380 -999.25
 9338.00000 1120560.00000 69.17790 135.30780 10.15060 0.15420 2.18540 2.47820 1.82360 1.79670 -999.25
 9338.50000 1120620.00000 68.32530 134.59450 9.27570 0.14940 2.19210 2.47330 1.91600 1.90330 -999.25
 9339.00000 1120680.00000 68.10320 132.99510 9.26690 0.15100 2.29390 2.48210 2.07060 1.93480 -999.25
 9339.50000 1120740.00000 67.19220 132.18670 9.91170 0.13850 2.39470 2.49220 2.28660 2.18070 -999.25
 9340.00000 1120800.00000 66.53710 132.06440 10.48700 0.12580 2.52040 2.51230 2.62820 2.48520 -999.25
 9340.50000 1120860.00000 67.33320 133.19990 10.92150 0.12520 2.53260 2.53640 2.95650 2.98310 -999.25
 9341.00000 1120920.00000 68.20260 135.49360 11.27870 0.11990 2.67570 2.54770 3.07040 3.03500 -999.25
 9341.50000 1120980.00000 68.52210 136.65330 12.23180 0.12110 2.77500 2.54300 2.97360 2.98170 -999.25
 9342.00000 1121040.00000 68.15260 136.53770 12.79930 0.11890 2.83990 2.51580 2.85820 2.89320 -999.25
 9342.50000 1121100.00000 67.64420 135.14000 12.22720 0.12760 2.98440 2.50750 2.66210 2.61810 -999.25
 9343.00000 1121160.00000 67.61170 134.33240 12.67810 0.11700 3.02260 2.51080 2.81660 2.75510 -999.25
 9343.50000 1121220.00000 67.94810 134.21680 12.50680 0.11540 3.00760 2.54520 2.98410 2.95590 -999.25
 9344.00000 1121280.00000 68.14480 132.58110 13.10390 0.12170 2.93150 2.56220 3.06850 3.26120 -999.25
 9344.50000 1121340.00000 67.62660 130.24210 14.19810 0.12840 2.98940 2.54620 2.83770 3.03950 -999.25
 9345.00000 1121400.00000 65.82980 127.36740 13.60360 0.12820 3.17970 2.51450 2.56700 2.56080 -999.25
 9345.50000 1121460.00000 64.76440 125.19750 12.01270 0.12160 3.10950 2.49800 2.69110 2.64000 -999.25
 9346.00000 1121520.00000 64.84620 125.08420 8.87760 0.11710 3.11550 2.50440 2.96880 2.88600 -999.25
 9346.50000 1121580.00000 64.61630 125.90170 7.30710 0.11410 3.24050 2.52320 3.22870 3.17610 -999.25
 9347.00000 1121640.00000 64.55140 126.55220 8.36450 0.10910 3.45380 2.53310 3.48110 3.35810 -999.25
 9347.50000 1121700.00000 65.29820 127.39680 9.53870 0.09380 3.58120 2.54480 3.80090 3.53840 -999.25
 9348.00000 1121760.00000 66.15990 129.23500 11.34120 0.09220 3.53390 2.54400 3.91350 3.88190 -999.25
 9348.50000 1121820.00000 66.80720 131.68730 11.16460 0.09750 3.69050 2.55710 3.86470 3.82640 -999.25
 9349.00000 1121880.00000 66.28960 132.71330 11.81410 0.09430 3.86290 2.56740 3.71600 3.68920 -999.25
 9349.50000 1121940.00000 65.46180 131.51890 12.04980 0.09290 3.76140 2.57010 3.79990 3.73130 -999.25
 9350.00000 1122000.00000 65.47800 131.38670 12.69620 0.09460 3.74230 2.56640 3.91520 3.82460 -999.25
 9350.50000 1122060.00000 65.39620 131.14110 13.25560 0.09340 3.65850 2.56640 3.89320 3.82500 -999.25
 9351.00000 1122120.00000 65.74950 131.50150 12.83190 0.09780 3.60010 2.57220 3.84840 3.74770 -999.25
 9351.50000 1122180.00000 66.33970 132.05600 12.69380 0.08970 3.42060 2.57200 3.80280 3.60100 -999.25
 9352.00000 1122240.00000 66.75920 133.60410 11.96890 0.09850 3.25890 2.56800 3.59640 3.58260 -999.25
 9352.50000 1122300.00000 68.09620 135.97790 11.74070 0.09890 3.11530 2.55030 3.41460 3.34770 -999.25
 9353.00000 1122360.00000 69.30340 138.49220 12.14350 0.11490 2.93110 2.52920 3.19770 3.21050 -999.25
 9353.50000 1122420.00000 71.23900 140.53060 12.48870 0.12730 2.87930 2.50770 2.72780 2.70970 -999.25
 9354.00000 1122480.00000 72.24800 141.09270 12.64660 0.13400 2.72280 2.49600 2.37850 2.36570 -999.25
 9354.50000 1122540.00000 73.06040 141.25130 12.74610 0.14730 2.56410 2.48540 2.14580 2.15060 -999.25
 9355.00000 1122600.00000 73.60120 141.85800 12.97640 0.16290 2.45530 2.47540 2.07210 2.12390 -999.25
 9355.50000 1122660.00000 73.19860 142.19120 13.85350 0.15710 2.45510 2.48430 1.91910 1.80520 -999.25
 9356.00000 1122720.00000 72.23040 141.10850 14.37880 0.15090 2.42180 2.49070 2.01280 1.91750 -999.25
 9356.50000 1122780.00000 71.22910 138.84960 14.40240 0.14750 2.43260 2.50520 2.24320 2.18670 -999.25
 9357.00000 1122840.00000 70.03950 137.14440 13.93090 0.14440 2.48680 2.51500 2.33370 2.22070 -999.25
 9357.50000 1122900.00000 69.41690 136.08140 13.81680 0.12750 2.49300 2.51690 2.55400 2.60850 -999.25
 9358.00000 1122960.00000 69.77790 136.00280 14.07340 0.13310 2.60020 2.52090 2.67110 2.60620 -999.25
 9358.50000 1123020.00000 69.79340 136.45990 14.65040 0.12430 2.67910 2.52240 2.71260 2.67630 -999.25
 9359.00000 1123080.00000 69.11300 136.50300 14.07890 0.11940 2.72160 2.53100 2.78270 2.78020 -999.25
 9359.50000 1123140.00000 68.50440 135.50040 13.58270 0.12720 2.74710 2.52130 2.79030 2.78490 -999.25
 9360.00000 1123200.00000 67.01240 133.93500 11.87040 0.13160 2.77820 2.51690 2.77740 2.75750 -999.25
 9360.50000 1123260.00000 66.90590 132.70650 11.45220 0.11730 2.79550 2.51990 2.84900 2.83080 -999.25
 9361.00000 1123320.00000 67.44040 134.31650 10.43820 0.11190 2.78320 2.53720 3.11210 2.93170 -999.25
 9361.50000 1123380.00000 69.35270 137.57050 12.35450 0.11330 2.69760 2.53980 3.23820 3.06590 -999.25
 9362.00000 1123440.00000 71.49350 141.67520 13.67260 0.11360 2.62760 2.54180 2.95840 2.96880 -999.25
 9362.50000 1123500.00000 72.47720 144.17890 15.74300 0.11780 2.63970 2.52460 2.76730 2.77000 -999.25
 9363.00000 1123560.00000 72.42790 144.08900 15.81920 0.12260 2.52860 2.52050 2.53030 2.59390 -999.25
 9363.50000 1123620.00000 71.67970 141.37980 16.32510 0.15260 2.46840 2.51230 2.34050 2.36330 -999.25
