~Version ---------------------------------------------------
VERS. 2.0 : CWLS log ASCII Standard -VERSION 2.0
WRAP.  NO : One line per depth step
~Well ------------------------------------------------------
STRT     .M           239.8776 : START
STOP     .M          4186.7328 : STOP
STEP     .M 0.1524000000000001 : STEP
NULL     .             -999.25 : NULL VALUE
COMP     .        STATOILHYDRO : COMPANY
WELL     .           15/9-F-12 : WELL
FLD      .               VOLVE : FIELD
LOC      .             UNKNOWN : LOCATION
CNTY     .             UNKNOWN : COUNTY
STAT     .             UNKNOWN : STATE
CTRY     .              Norway : COUNTRY
SRVC     .             UNKNOWN : SERVICE COMPANY
DATE     .             UNKNOWN : LOG DATE
UWI      .        NO 15/9-F-12 : UNIQUE WELL ID
XCOORD   .           435050.17 : SURFACE X
YCOORD   .           6478574.7 : SURFACE Y
LAT      .           58.441713 : LATITUDE
LON      .             1.88748 : LONGITUDE
ELEV     .M               54.9 : SURFACE ELEV
ELEV_TYPE.                  KB : ELEV TYPE
~Curve Information -----------------------------------------
DEPTH    .M           UNKNOWN : Measured Depth
CARB_FLAG.UNKNOWN     UNKNOWN : CARB_FLAG:UNKNOWN:rC:NONE:v1
COAL_FLAG.UNKNOWN     UNKNOWN : COAL_FLAG:UNKNOWN:rC:NONE:v1
DT       .us/ft       UNKNOWN : DT:UNKNOWN:rC:NONE:v2
GR       .API         UNKNOWN : GR:UNKNOWN:rC:NONE:v1
NPHI     .v/v_decimal UNKNOWN : NPHI:UNKNOWN:rC:NONE:v1
RD       .UNKNOWN     UNKNOWN : RD:UNKNOWN:rC:NONE:v1
RHOB     .g/cm3       UNKNOWN : RHOB:UNKNOWN:rC:NONE:v1
ROP5_RM  .UNKNOWN     UNKNOWN : ROP5_RM:UNKNOWN:rC:NONE:v1
RS       .UNKNOWN     UNKNOWN : RS:UNKNOWN:rC:NONE:v1
RT       .ohm.m       UNKNOWN : RT:UNKNOWN:rC:NONE:v1
SAND_FLAG.UNKNOWN     UNKNOWN : SAND_FLAG:UNKNOWN:rC:NONE:v1
TVD      .M                   : True Vertical Depth from PyLasMech
~Params ----------------------------------------------------
~Other -----------------------------------------------------
~ASCII -----------------------------------------------------
# ...
 691.59120 -999.25 -999.25 -999.25 79.45880 -999.25 2.06450 -999.25 49.42480 15.09160 1.96180 -999.25 690.27818
 691.74360 -999.25 -999.25 -999.25 80.00900 -999.25 2.09000 -999.25 49.42220 31.74290 2.00030 -999.25 690.42972
 691.89600 -999.25 -999.25 -999.25 82.52400 -999.25 2.06940 -999.25 49.43090 25.89830 2.02990 -999.25 690.58126
 692.04840 -999.25 -999.25 -999.25 87.75060 -999.25 2.03840 -999.25 49.42660 43.76890 2.08090 -999.25 690.73279
 692.20080 -999.25 -999.25 -999.25 91.68030 -999.25 2.04120 -999.25 49.69640 37.77900 2.04740 -999.25 690.88433
 692.35320 -999.25 -999.25 -999.25 92.58410 -999.25 2.03980 -999.25 49.87190 50.07400 2.09710 -999.25 691.03587
 692.50560 -999.25 -999.25 -999.25 92.85920 -999.25 2.01860 -999.25 49.87190 46.34880 2.08790 -999.25 691.18740
 692.65800 -999.25 -999.25 -999.25 91.24800 -999.25 2.00020 -999.25 49.88050 66.85750 2.11130 -999.25 691.33894
 692.81040 -999.25 -999.25 -999.25 90.46210 -999.25 2.01490 -999.25 49.87670 93.91830 2.14090 -999.25 691.49047
 692.96280 -999.25 -999.25 -999.25 90.18700 -999.25 2.00780 -999.25 49.87640 66.01990 2.17750 -999.25 691.64201
 693.11520 -999.25 -999.25 -999.25 90.58000 -999.25 2.02640 -999.25 49.88140 76.56350 2.18120 -999.25 691.79355
 693.26760 -999.25 -999.25 -999.25 90.06910 -999.25 1.99470 -999.25 49.88300 138.16409 2.11110 -999.25 691.94508
 693.42000 -999.25 -999.25 -999.25 88.10420 -999.25 2.00520 -999.25 49.87190 149.98550 2.14020 -999.25 692.09662
 693.57240 -999.25 -999.25 -999.25 88.77230 -999.25 2.00660 -999.25 49.87190 27.70420 1.91350 -999.25 692.24816
 693.72480 -999.25 -999.25 -999.25 89.16530 -999.25 2.09220 -999.25 49.53470 25.82590 1.99930 -999.25 692.39969
 693.87720 -999.25 -999.25 -999.25 91.24800 -999.25 2.26040 -999.25 49.42220 68.03870 2.12470 -999.25 692.55123
 694.02960 -999.25 -999.25 -999.25 89.95120 -999.25 2.23610 -999.25 49.20690 20.28930 2.10860 -999.25 692.70277
 694.18200 -999.25 -999.25 -999.25 89.00810 -999.25 2.30620 -999.25 48.61770 20.62150 2.02580 -999.25 692.85430
 694.33440 -999.25 -999.25 -999.25 87.31830 -999.25 2.19100 -999.25 48.21500 15.97460 2.07850 -999.25 693.00584
 694.48680 -999.25 -999.25 -999.25 89.55830 -999.25 2.24080 -999.25 47.70180 20.56180 2.07440 -999.25 693.15737
 694.63920 -999.25 -999.25 -999.25 93.48800 -999.25 2.32310 -999.25 46.36320 44.56710 2.02700 -999.25 693.30891
 694.79160 -999.25 -999.25 -999.25 97.69280 -999.25 2.33640 -999.25 45.90870 24.47970 2.03460 -999.25 693.46045
 694.94400 -999.25 -999.25 -999.25 98.20370 -999.25 2.35770 -999.25 44.79010 27.37020 2.04750 -999.25 693.61198
 695.09640 -999.25 -999.25 -999.25 93.37010 -999.25 2.33730 -999.25 44.51560 15.22910 2.06260 -999.25 693.76352
 695.24880 -999.25 -999.25 -999.25 88.37930 -999.25 2.41310 -999.25 44.24550 17.01470 2.05260 -999.25 693.91506
 695.40120 -999.25 -999.25 -999.25 83.38860 -999.25 2.34820 -999.25 44.14510 17.80720 2.02030 -999.25 694.06659
 695.55360 -999.25 -999.25 -999.25 86.80740 -999.25 2.30440 -999.25 43.54250 15.55280 1.98410 -999.25 694.21813
 695.70600 -999.25 -999.25 -999.25 87.86850 -999.25 2.31750 -999.25 43.84140 19.96440 2.00770 -999.25 694.36967
 695.85840 -999.25 -999.25 -999.25 89.99050 -999.25 2.26590 -999.25 43.96210 17.89410 2.04810 -999.25 694.52120
 696.01080 -999.25 -999.25 -999.25 90.89440 -999.25 2.32330 -999.25 44.60850 20.74440 2.02090 -999.25 694.67274
 696.16320 -999.25 -999.25 -999.25 93.25220 -999.25 2.29990 -999.25 45.25780 28.46600 1.94250 -999.25 694.82428
 696.31560 -999.25 -999.25 -999.25 95.21710 -999.25 2.27470 -999.25 45.34360 13.99780 1.98540 -999.25 694.97581
 696.46800 -999.25 -999.25 -999.25 91.68030 -999.25 2.31630 -999.25 46.27410 18.91960 1.94690 -999.25 695.12735
 696.62040 -999.25 -999.25 -999.25 86.80740 -999.25 2.24210 -999.25 46.49760 12.74680 1.94220 -999.25 695.27888
 696.77280 -999.25 -999.25 -999.25 84.29240 -999.25 2.30740 -999.25 46.49760 21.11670 1.99080 -999.25 695.43042
 696.92520 -999.25 -999.25 -999.25 84.96050 -999.25 2.23840 -999.25 46.72490 26.33150 2.08590 -999.25 695.58196
 697.07760 -999.25 -999.25 -999.25 88.65440 -999.25 2.27170 -999.25 46.89540 69.80930 2.07780 -999.25 695.73349
 697.23000 -999.25 -999.25 -999.25 87.75060 -999.25 2.21840 -999.25 46.50100 62.52050 2.05970 -999.25 695.88503
 697.38240 -999.25 -999.25 -999.25 86.68960 -999.25 2.28290 -999.25 46.10650 28.01330 1.94810 -999.25 696.03657
 697.53480 -999.25 -999.25 -999.25 85.62850 -999.25 2.21250 -999.25 45.94160 15.91810 1.92720 -999.25 696.18810
 697.68720 -999.25 -999.25 -999.25 89.44040 -999.25 2.17140 -999.25 45.72190 11.99800 1.97360 -999.25 696.33964
 697.83960 -999.25 -999.25 -999.25 91.79820 -999.25 2.11540 -999.25 45.65730 9.49930 1.88570 -999.25 696.49118
 697.99200 -999.25 -999.25 -999.25 91.13010 -999.25 2.10610 -999.25 45.52820 11.91520 1.95970 -999.25 696.64271
 698.14440 -999.25 -999.25 -999.25 87.04320 -999.25 2.17570 -999.25 45.71390 12.18680 1.83340 -999.25 696.79425
 698.29680 -999.25 -999.25 -999.25 83.62440 -999.25 2.16390 -999.25 45.58960 11.11770 1.75630 -999.25 696.94578
 698.44920 -999.25 -999.25 -999.25 80.48060 -999.25 2.16670 -999.25 45.34360 13.24270 1.82920 -999.25 697.09732
 698.60160 -999.25 -999.25 -999.25 82.56330 -999.25 2.16480 -999.25 45.34360 10.78590 1.87910 -999.25 697.24886
 698.75400 -999.25 -999.25 -999.25 85.70710 -999.25 2.20440 -999.25 44.22380 10.92620 1.94200 -999.25 697.40039
 698.90640 -999.25 -999.25 -999.25 87.94710 -999.25 2.22040 -999.25 39.18450 16.81100 2.01730 -999.25 697.55193
 699.05880 -999.25 -999.25 -999.25 85.07840 -999.25 2.26810 -999.25 39.18760 24.96550 2.06030 -999.25 697.70347
 699.21120 -999.25 -999.25 -999.25 85.07840 -999.25 2.32980 -999.25 39.47220 68.33230 2.04460 -999.25 697.85500
 699.36360 -999.25 -999.25 -999.25 87.16110 -999.25 2.27100 -999.25 39.73180 129.25790 2.05120 -999.25 698.00654
 699.51600 -999.25 -999.25 -999.25 88.45790 -999.25 2.28980 -999.25 39.65700 98.11530 2.11430 -999.25 698.15808
 699.66840 -999.25 -999.25 -999.25 85.47130 -999.25 2.31150 -999.25 39.55510 1000.00000 1.99850 -999.25 698.30961
 699.82080 -999.25 -999.25 -999.25 85.07840 -999.25 2.36280 -999.25 39.51990 157.19679 1.98450 -999.25 698.46115
 699.97320 -999.25 -999.25 -999.25 86.02150 -999.25 2.37000 -999.25 39.49070 84.66910 2.05050 -999.25 698.61269
 700.12560 -999.25 -999.25 -999.25 84.80330 -999.25 2.45280 -999.25 39.47260 70.04240 2.06170 -999.25 698.76422
 700.27800 -999.25 -999.25 -999.25 81.81670 -999.25 2.43300 -999.25 39.84320 98.54190 2.07010 -999.25 698.91576
 700.43040 -999.25 -999.25 -999.25 79.18380 -999.25 2.34230 -999.25 40.88730 1000.00000 2.27570 -999.25 699.06729
 700.58280 -999.25 -999.25 -999.25 79.34100 -999.25 2.36020 -999.25 42.07220 1000.00000 2.24130 -999.25 699.21883
 700.73520 -999.25 -999.25 -999.25 81.69880 -999.25 2.32190 -999.25 42.25510 1000.00000 2.16610 -999.25 699.37037
 700.88760 -999.25 -999.25 -999.25 83.82080 -999.25 2.31810 -999.25 42.93780 1000.00000 2.23520 -999.25 699.52190
 701.04000 -999.25 -999.25 -999.25 88.14350 -999.25 2.29320 -999.25 44.18370 1000.00000 2.26960 -999.25 699.67344
 701.19240 -999.25 -999.25 -999.25 89.16530 -999.25 2.29290 -999.25 45.49120 1000.00000 2.24220 -999.25 699.82498
 701.34480 -999.25 -999.25 -999.25 88.10430 -999.25 2.19920 -999.25 45.71260 1000.00000 2.29560 -999.25 699.97651
 701.49720 -999.25 -999.25 -999.25 88.89020 -999.25 2.29190 -999.25 47.14050 1000.00000 2.10440 -999.25 700.12805
 701.64960 -999.25 -999.25 -999.25 91.91610 -999.25 2.33460 -999.25 48.68310 1000.00000 2.04960 -999.25 700.27959
 701.80200 -999.25 -999.25 -999.25 95.96370 -999.25 2.37030 -999.25 49.42560 113.57060 1.94580 -999.25 700.43112
 701.95440 -999.25 -999.25 -999.25 95.29560 -999.25 2.38390 -999.25 49.42220 1000.00000 2.03880 -999.25 700.58266
 702.10680 -999.25 -999.25 -999.25 93.44870 -999.25 2.32470 -999.25 48.98880 128.26800 2.04810 -999.25 700.73419
 702.25920 -999.25 -999.25 -999.25 92.15190 -999.25 2.27730 -999.25 48.98670 50.76870 2.11690 -999.25 700.88573
 702.41160 -999.25 -999.25 -999.25 95.05990 -999.25 2.36630 -999.25 48.99130 483.59280 2.11800 -999.25 701.03727
