~Version ---------------------------------------------------
VERS     .                             2.0 : CWLS log ASCII Standard -VERSION 2.0
WRAP     .                              NO : One Line per depth step
PROD     .                    Schlumberger : LAS Producer
PROG     .               DLIS to ASCII 2.3 : LAS Program name and version
CREA     .                   2019/04/03 19 : 51                          :LAS Creation date {YYYY/MM/DD hh:mm}
DLIS_CREA.                  2009-Feb-18 14 : 44                          :DLIS Creation date and time {YYYY-MMM-DD hh:mm}
SOURCE   . WLC_PETRO_COMPUTED_INPUT_1.DLIS : DLIS File Name
FILE-ID  .                   INPUT.logdata : File Identification Number
~Well ------------------------------------------------------
STRT.F                 1382.0 : START DEPTH
STOP.F                12441.0 : STOP DEPTH
STEP.F                    0.5 : STEP
NULL.                 -999.25 : NULL VALUE
COMP.                         : COMPANY
WELL.                15/9-F-5 : WELL
FLD .                   VOLVE : FIELD
LOC .                         : LOCATION
CNTY.         MAERSK INSPIRER : COUNTY
STAT.                         : STATE
CTRY.                         : COUNTRY
API .                         : API NUMBER
UWI .                         : UNIQUE WELL ID
DATE.                         : LOG DATE
SRVC. CROCKER DATA PROCESSING : SERVICE COMPANY
LATI.DEG                      : LATITUDE
LONG.DEG                      : LONGITUDE
GDAT.                         : GeoDetic Datum
~Curve Information -----------------------------------------
DEPTH.F            : DEPTH (BOREHOLE) {F10.1}
DEPTH..1IN         : Measured Depth {I11}
CALI .INCHES       : CALI:UNKNOWN:rC:NONE:v1 {F13.4}
DRHO .G/C3         : DRHO:UNKNOWN:rC:NONE:v1 {F13.4}
DT   .US/F         : DT:UNKNOWN:rC:NONE:v1 {F13.4}
GR   .API          : GR:UNKNOWN:rC:NONE:v1 {F13.4}
NPHI .V/V_DECIMAL  : NPHI:UNKNOWN:rC:NONE:v1 {F13.4}
RD   .UNKNOWN      : RD:UNKNOWN:rC:NONE:v1 {F13.4}
RHOB .G/C3         : RHOB:UNKNOWN:rC:NONE:v1 {F13.4}
RS   .UNKNOWN      : RS:UNKNOWN:rC:NONE:v1 {F13.4}
RT   .OHMM         : RT:UNKNOWN:rC:NONE:v1 {F13.4}
TVD  .M            : True Vertical Depth from PyLasMech
~Params ----------------------------------------------------
WN  .        15/9-F-5 : Well Name
FN  .           VOLVE : Field
CTRY.          NORWAY : Country
COUN. MAERSK INSPIRER : County or Rig name
PDAT.             MSL : Perm. Datum
ELZ .M            0.0 : Elev. Log Zero (wrt EPD)
RUN .                 : RUN NUMBER
EPD .                 : Elevation of Permanent Datum above Mean Sea Level
LMF .                 : Logging Measured From (Name of Logging Elevation Reference)
APD .                 : Elevation of Depth Reference (LMF) above Permanent Datum
~Other -----------------------------------------------------
~ASCII -----------------------------------------------------
# ...
 10744.00000 1289280.00000 8.53000 0.06990 68.52200 36.64210 0.10250 5.13000 2.63000 4.34180 4.27190 2898.36663
 10744.50000 1289340.00000 8.52880 0.05950 68.58160 33.18230 0.09390 5.19000 2.63000 4.58190 4.52370 2898.50043
 10745.00000 1289400.00000 8.48130 0.04050 66.77290 33.27750 0.08890 5.19000 2.63000 5.08680 5.10480 2898.63424
 10745.50000 1289460.00000 8.47000 0.03010 64.93690 31.22220 0.08320 5.29000 2.63000 5.30780 5.27830 2898.76804
 10746.00000 1289520.00000 8.51000 0.04010 64.14850 35.96670 0.07860 5.32000 2.63000 5.30920 5.50900 2898.90185
 10746.50000 1289580.00000 8.54080 0.06020 64.64150 37.20900 0.08780 5.45180 2.63040 5.15400 5.32120 2899.03566
 10747.00000 1289640.00000 8.57890 0.06970 65.08320 37.16140 0.08660 5.53760 2.64950 4.86820 4.90210 2899.16946
 10747.50000 1289700.00000 8.58000 0.06010 64.47250 32.48320 0.08130 5.48080 2.64010 5.30400 5.29450 2899.30327
 10748.00000 1289760.00000 8.59000 0.04000 64.31830 27.83000 0.08640 5.43000 2.63000 5.60000 5.44000 2899.43707
 10748.50000 1289820.00000 8.58050 0.03020 64.60250 23.37800 0.08410 5.32890 2.63000 5.69980 5.50970 2899.57088
 10749.00000 1289880.00000 8.60910 0.03970 63.54660 21.63490 0.07950 5.27180 2.63000 5.69030 5.49060 2899.70469
 10749.50000 1289940.00000 8.62970 0.04980 62.70160 19.73990 0.07800 5.12230 2.63980 5.71950 5.37190 2899.83849
 10750.00000 1290000.00000 8.60000 0.05000 63.29730 20.83000 0.07680 4.96000 2.63000 5.73000 5.35000 2899.97230
 10750.50000 1290060.00000 8.58050 0.06000 64.00400 21.06460 0.08880 4.74660 2.61980 5.65150 5.38620 2900.10610
 10751.00000 1290120.00000 8.61090 0.05970 64.56900 25.22510 0.10150 4.53230 2.60910 5.10450 5.13050 2900.23991
 10751.50000 1290180.00000 8.63950 0.05020 63.85700 31.10200 0.10450 4.29440 2.58050 4.29490 4.51140 2900.37371
 10752.00000 1290240.00000 8.68000 0.06000 64.15470 39.57000 0.12670 4.01000 2.58000 3.67000 4.01000 2900.50752
 10752.50000 1290300.00000 8.77000 0.08010 65.95820 46.65190 0.13200 3.90000 2.57990 3.08720 3.24600 2900.64133
 10753.00000 1290360.00000 8.80830 0.09000 70.25210 51.31440 0.13150 3.46310 2.57000 2.87970 2.94750 2900.77513
 10753.50000 1290420.00000 8.75120 0.09000 74.97710 54.23860 0.14400 3.22490 2.57000 2.87020 2.86180 2900.90894
 10754.00000 1290480.00000 8.76000 0.09000 77.02710 57.05520 0.14550 2.87000 2.55010 2.87000 2.76050 2901.04274
 10754.50000 1290540.00000 8.72000 0.09990 77.54760 60.10030 0.14560 2.71000 2.55000 2.89060 2.70120 2901.17655
 10755.00000 1290600.00000 8.69950 0.09000 77.47590 61.10150 0.14390 2.57540 2.55030 2.94720 2.80980 2901.31035
 10755.50000 1290660.00000 8.68050 0.09000 77.39510 62.68270 0.14430 2.39430 2.55980 2.84250 2.80020 2901.44416
 10756.00000 1290720.00000 8.70000 0.09000 77.77380 63.50370 0.14210 2.12000 2.56000 2.34400 2.54210 2901.57722
 10756.50000 1290780.00000 8.71000 0.11020 78.29130 67.87060 0.17900 1.91000 2.57010 1.93500 2.19080 2901.70974
 10757.00000 1290840.00000 8.72070 0.13040 81.19720 70.47620 0.25800 2.11270 2.58020 1.31460 1.04750 2901.84226
 10757.50000 1290900.00000 8.74930 0.14950 85.80560 72.85750 0.24170 1.80780 2.58980 1.08600 0.94270 2901.97478
 10758.00000 1290960.00000 8.70000 0.15000 89.16940 77.13460 0.29690 1.47000 2.54050 1.26800 1.51380 2902.10730
 10758.50000 1291020.00000 8.70000 0.18010 93.22670 84.11420 0.37440 1.60000 2.53990 1.21870 1.28780 2902.23982
 10759.00000 1291080.00000 8.76900 0.19000 95.29160 82.83340 0.24390 1.89550 2.52120 0.99020 0.88300 2902.37234
 10759.50000 1291140.00000 8.72140 0.19000 95.93610 73.47030 0.22550 1.67630 2.57840 1.47600 1.50210 2902.50486
 10760.00000 1291200.00000 8.62000 0.14070 95.38020 58.18290 0.24140 1.83000 2.58000 1.82550 1.82590 2902.63738
 10760.50000 1291260.00000 8.61000 0.12000 87.49580 48.57000 0.20510 1.99000 2.62000 2.03000 2.14000 2902.76990
 10761.00000 1291320.00000 8.61000 0.08970 81.64570 44.83810 0.20030 2.18460 2.61020 2.49820 2.40370 2902.90242
 10761.50000 1291380.00000 8.61000 0.07060 78.38630 40.92330 0.17540 2.43210 2.61970 2.94590 2.60370 2903.03494
 10762.00000 1291440.00000 8.55100 0.05030 75.29100 37.51340 0.15790 2.39080 2.63970 3.19620 3.03310 2903.16746
 10762.50000 1291500.00000 8.58000 0.04000 72.03550 35.99000 0.14730 2.45000 2.64000 3.33000 3.22000 2903.29998
 10763.00000 1291560.00000 8.61970 0.03020 70.10480 41.00210 0.16350 2.43060 2.62970 3.06070 3.14150 2903.43250
 10763.50000 1291620.00000 8.60090 0.04090 73.23220 51.33810 0.20140 2.46150 2.61030 2.47200 2.60440 2903.56502
 10764.00000 1291680.00000 8.62950 0.06950 78.93890 63.02530 0.23680 2.19510 2.61980 1.90050 2.10910 2903.69754
 10764.50000 1291740.00000 8.61000 0.09000 86.43030 73.12000 0.30340 2.34000 2.62000 1.42000 1.34000 2903.83006
 10765.00000 1291800.00000 8.59000 0.08990 92.29290 76.36350 0.31710 2.02940 2.61990 1.28080 1.32080 2903.96258
 10765.50000 1291860.00000 8.59270 0.08000 95.64040 74.21820 0.36610 1.99110 2.61000 1.34490 1.38360 2904.09510
 10766.00000 1291920.00000 8.68800 0.08000 92.61390 67.92220 0.36630 2.02920 2.61000 1.51640 1.50740 2904.22762
 10766.50000 1291980.00000 8.63000 0.08990 86.24350 58.33070 0.36930 2.03000 2.61990 1.45040 1.47020 2904.36014
 10767.00000 1292040.00000 8.61000 0.06980 82.08670 42.27930 0.36840 2.03000 2.62020 1.46000 1.46000 2904.49266
 10767.50000 1292100.00000 8.53950 0.04980 77.21200 28.18030 0.33300 2.04000 2.64000 1.46000 1.46000 2904.62518
 10768.00000 1292160.00000 8.52050 0.04020 70.28930 23.61780 0.57380 2.04000 2.64000 1.46000 1.46000 2904.75770
 10768.50000 1292220.00000 8.52000 0.04990 67.77430 28.62870 0.59730 2.04000 2.63010 1.46000 1.46000 2904.89022
 10769.00000 1292280.00000 8.54000 0.05010 70.49450 33.18110 0.15450 2.02000 2.61000 1.46000 1.46000 2905.02274
 10769.50000 1292340.00000 8.56000 0.06000 74.06700 37.09180 0.15700 2.02760 2.61020 1.47710 1.47710 2905.15526
 10770.00000 1292400.00000 8.56000 0.06000 76.65160 39.28250 0.15670 2.35160 2.61980 2.20100 2.20100 2905.28778
 10770.50000 1292460.00000 8.55000 0.06990 78.31350 43.27750 0.16990 2.38000 2.63980 2.22990 2.18040 2905.42030
 10771.00000 1292520.00000 8.54000 0.04990 79.25800 45.49010 0.18070 2.40000 2.62980 2.16960 2.08970 2905.55282
 10771.50000 1292580.00000 8.54000 0.03000 80.95530 49.37360 0.16520 2.36650 2.59960 2.09940 2.03620 2905.68534
 10772.00000 1292640.00000 8.54000 0.03000 82.87190 56.21260 0.17080 2.20470 2.58050 2.07080 2.33150 2905.81786
 10772.50000 1292700.00000 8.54000 0.02010 83.85530 62.09320 0.21780 2.00000 2.54050 1.97130 2.40910 2905.95038
 10773.00000 1292760.00000 8.54000 0.01000 83.27900 60.42000 0.23390 2.34000 2.56000 1.54000 1.45000 2906.08290
 10773.50000 1292820.00000 8.54000 0.01000 79.32140 51.31990 0.23730 2.21810 2.56980 1.61930 1.55030 2906.21542
 10774.00000 1292880.00000 8.54000 0.01000 74.09800 43.14740 0.20390 2.11320 2.56030 2.12410 2.11230 2906.34794
 10774.50000 1292940.00000 8.55970 0.00020 72.72050 39.59360 0.18910 2.17890 2.55020 2.31710 2.31700 2906.48046
 10775.00000 1293000.00000 8.55000 0.04000 73.81020 42.33000 0.17170 2.32000 2.56000 2.40000 2.29000 2906.61298
 10775.50000 1293060.00000 8.57000 0.04020 76.59540 43.55510 0.16310 2.35140 2.60000 2.37940 2.34940 2906.74550
 10776.00000 1293120.00000 8.56970 0.05000 77.77890 41.44600 0.16570 2.44060 2.60000 2.34030 2.31090 2906.87802
 10776.50000 1293180.00000 8.56020 0.05000 76.59410 42.58900 0.16890 2.45970 2.60000 2.34980 2.33950 2907.01054
 10777.00000 1293240.00000 8.57000 0.05000 75.64280 40.50000 0.16640 2.45000 2.60000 2.35000 2.32000 2907.14306
 10777.50000 1293300.00000 8.55000 0.04990 75.10540 40.80080 0.17030 2.48000 2.59000 2.30030 2.29000 2907.27558
 10778.00000 1293360.00000 8.51970 0.03970 74.54500 39.47650 0.16360 2.49110 2.59030 2.32080 2.29170 2907.40810
 10778.50000 1293420.00000 8.51020 0.03020 74.53760 42.81980 0.16930 2.52920 2.59980 2.34940 2.34880 2907.54062
 10779.00000 1293480.00000 8.52000 0.03000 74.73100 43.05910 0.17670 2.55000 2.60000 2.35990 2.36990 2907.67314
 10779.50000 1293540.00000 8.51000 0.03000 71.21980 38.57000 0.16200 2.54000 2.60010 2.37050 2.35090 2907.80566
