~Version ---------------------------------------------------
VERS. 2.0 : CWLS log ASCII Standard -VERSION 2.0
WRAP.  NO : One line per depth step
~Well ------------------------------------------------------
STRT     .M           239.8776 : START
STOP     .M          4186.7328 : STOP
STEP     .M 0.1524000000000001 : STEP
NULL     .             -999.25 : NULL VALUE
COMP     .        STATOILHYDRO : COMPANY
WELL     .           15/9-F-12 : WELL
FLD      .               VOLVE : FIELD
LOC      .             UNKNOWN : LOCATION
CNTY     .             UNKNOWN : COUNTY
STAT     .             UNKNOWN : STATE
CTRY     .              Norway : COUNTRY
SRVC     .             UNKNOWN : SERVICE COMPANY
DATE     .             UNKNOWN : LOG DATE
UWI      .        NO 15/9-F-12 : UNIQUE WELL ID
XCOORD   .           435050.17 : SURFACE X
YCOORD   .           6478574.7 : SURFACE Y
LAT      .           58.441713 : LATITUDE
LON      .             1.88748 : LONGITUDE
ELEV     .M               54.9 : SURFACE ELEV
ELEV_TYPE.                  KB : ELEV TYPE
~Curve Information -----------------------------------------
DEPTH    .M           UNKNOWN : Measured Depth
CARB_FLAG.UNKNOWN     UNKNOWN : CARB_FLAG:UNKNOWN:rC:NONE:v1
COAL_FLAG.UNKNOWN     UNKNOWN : COAL_FLAG:UNKNOWN:rC:NONE:v1
DT       .us/ft       UNKNOWN : DT:UNKNOWN:rC:NONE:v2
GR       .API         UNKNOWN : GR:UNKNOWN:rC:NONE:v1
NPHI     .v/v_decimal UNKNOWN : NPHI:UNKNOWN:rC:NONE:v1
RD       .UNKNOWN     UNKNOWN : RD:UNKNOWN:rC:NONE:v1
RHOB     .g/cm3       UNKNOWN : RHOB:UNKNOWN:rC:NONE:v1
ROP5_RM  .UNKNOWN     UNKNOWN : ROP5_RM:UNKNOWN:rC:NONE:v1
RS       .UNKNOWN     UNKNOWN : RS:UNKNOWN:rC:NONE:v1
RT       .ohm.m       UNKNOWN : RT:UNKNOWN:rC:NONE:v1
SAND_FLAG.UNKNOWN     UNKNOWN : SAND_FLAG:UNKNOWN:rC:NONE:v1
TVD      .M                   : True Vertical Depth from PyLasMech
~Params ----------------------------------------------------
~Other -----------------------------------------------------
~ASCII -----------------------------------------------------
# ...
 2821.22880 -999.25 -999.25 66.47680 18.71780 0.13630 1.99000 2.23740 12.10650 1.96750 2.00420 -999.25 2687.34564
 2821.38120 -999.25 -999.25 74.84790 17.39370 0.13920 1.90000 2.24080 12.28310 1.95340 1.93210 -999.25 2687.44847
 2821.53360 -999.25 -999.25 69.55480 16.88210 0.14210 1.95000 2.27960 12.43580 1.94520 1.86570 -999.25 2687.55130
 2821.68600 -999.25 -999.25 70.10230 18.80810 0.14620 1.94000 2.24780 12.62480 1.91200 1.82450 -999.25 2687.65413
 2821.83840 -999.25 -999.25 70.89530 19.80120 0.14220 2.06000 2.24160 12.78910 1.91890 1.77330 -999.25 2687.75697
 2821.99080 -999.25 -999.25 70.62210 22.20860 0.13940 2.11000 2.20590 12.93630 1.97240 1.89580 -999.25 2687.85980
 2822.14320 -999.25 -999.25 69.75580 22.81050 0.13600 2.16000 2.27290 13.14480 2.04390 1.96810 -999.25 2687.96263
 2822.29560 -999.25 -999.25 70.58870 23.02110 0.13400 2.19000 2.26840 13.32970 2.13840 2.02900 -999.25 2688.06546
 2822.44800 -999.25 -999.25 69.76260 23.53270 0.12070 2.30000 2.28710 13.55370 2.25300 2.12760 -999.25 2688.16829
 2822.60040 -999.25 -999.25 71.00210 23.62300 0.11590 2.38000 2.29420 13.72980 2.39460 2.28800 -999.25 2688.27112
 2822.75280 -999.25 -999.25 69.05640 24.43550 0.10770 2.41000 2.35560 13.77580 2.52170 2.39980 -999.25 2688.37396
 2822.90520 -999.25 -999.25 70.93380 23.62300 0.11050 2.43000 2.36440 13.75040 2.61170 2.50820 -999.25 2688.47679
 2823.05760 -999.25 -999.25 68.56030 23.71330 0.11250 2.44000 2.31850 13.73660 2.66600 2.55050 -999.25 2688.57962
 2823.21000 -999.25 -999.25 69.23480 24.10450 0.11630 2.44000 2.30450 13.70040 2.71360 2.56650 -999.25 2688.68245
 2823.36240 -999.25 -999.25 69.44220 24.82670 0.11580 2.49000 2.29970 13.66270 2.69770 2.55500 -999.25 2688.78528
 2823.51480 -999.25 -999.25 69.32960 24.13460 0.11490 2.58000 2.31040 13.60260 2.66920 2.52610 -999.25 2688.88812
 2823.66720 -999.25 -999.25 68.73940 24.04430 0.11430 2.60000 2.32970 13.58010 2.65890 2.56940 -999.25 2688.99095
 2823.81960 -999.25 -999.25 63.97370 23.44240 0.11520 2.58000 2.35300 13.52650 2.67110 2.60340 -999.25 2689.09378
 2823.97200 -999.25 -999.25 69.74250 23.86370 0.11990 2.57000 2.36580 13.48500 2.65350 2.60360 -999.25 2689.19661
 2824.12440 -999.25 -999.25 73.20470 23.35220 0.12740 2.60000 2.34230 13.48070 2.56020 2.49600 -999.25 2689.29944
 2824.27680 -999.25 -999.25 74.87560 24.13460 0.12910 2.74000 2.32730 13.44680 2.53480 2.42910 -999.25 2689.40228
 2824.42920 -999.25 -999.25 72.85480 21.90770 0.11990 2.81000 2.28970 13.47990 2.60040 2.51520 -999.25 2689.50511
 2824.58160 -999.25 -999.25 71.74830 21.99800 0.10260 2.85000 2.32050 13.51130 2.70990 2.66610 -999.25 2689.60794
 2824.73400 -999.25 -999.25 74.05570 20.19240 0.09670 2.80000 2.29730 13.42670 2.87750 2.85530 -999.25 2689.71077
 2824.88640 -999.25 -999.25 76.56210 24.19480 0.09890 2.66000 2.34720 13.30650 3.02130 2.96810 -999.25 2689.81360
 2825.03880 -999.25 -999.25 77.38520 24.19480 0.10640 2.74000 2.29630 13.01300 3.07840 2.89070 -999.25 2689.91644
 2825.19120 -999.25 -999.25 70.00040 25.48880 0.10470 2.90000 2.25290 12.98140 2.99240 2.78770 -999.25 2690.01927
 2825.34360 -999.25 -999.25 68.57410 22.29890 0.10250 2.95000 2.22760 12.85340 2.94470 2.80380 -999.25 2690.12210
 2825.49600 -999.25 -999.25 71.23420 21.51650 0.10320 3.13000 2.22950 12.81860 2.85830 2.73420 -999.25 2690.22493
 2825.64840 -999.25 -999.25 68.92140 20.13220 0.10740 3.20000 2.25890 12.67550 2.80840 2.77820 -999.25 2690.32776
 2825.80080 -999.25 -999.25 67.21650 21.03500 0.11260 3.38000 2.25210 12.59960 2.79490 2.72400 -999.25 2690.43059
 2825.95320 -999.25 -999.25 67.77260 21.93780 0.10680 3.70000 2.27380 12.40470 2.91580 2.83650 -999.25 2690.53343
 2826.10560 -999.25 -999.25 67.24540 22.84060 0.08720 4.20000 2.27820 12.32100 3.11070 3.11820 -999.25 2690.63626
 2826.25800 -999.25 -999.25 66.60060 22.62990 0.06780 4.27000 2.28070 12.29640 3.83750 3.91840 -999.25 2690.73909
 2826.41040 -999.25 -999.25 73.65240 21.60680 0.05870 3.86000 2.24740 11.76140 4.53090 4.67290 -999.25 2690.84192
 2826.56280 -999.25 -999.25 71.65220 20.19240 0.05960 3.82000 2.27410 10.18040 5.17560 4.91800 -999.25 2690.94475
 2826.71520 -999.25 -999.25 73.45430 19.80120 0.06510 3.86000 2.28370 8.79200 5.22920 4.81520 -999.25 2691.04759
 2826.86760 -999.25 -999.25 73.15380 20.52340 0.07070 3.98000 2.28750 8.27310 5.11280 4.47860 -999.25 2691.15042
 2827.02000 -999.25 -999.25 70.95940 22.41930 0.07210 4.09000 2.29390 8.12040 4.62240 4.32910 -999.25 2691.25325
 2827.17240 -999.25 -999.25 73.24260 23.32210 0.07400 4.21000 2.28530 7.98570 4.29080 4.09350 -999.25 2691.35608
 2827.32480 -999.25 -999.25 72.31260 23.41230 0.07200 4.35000 2.31240 7.75920 4.13630 4.11020 -999.25 2691.45891
 2827.47720 -999.25 -999.25 74.52140 21.81740 0.07330 4.51000 2.30690 7.66150 3.97660 3.76220 -999.25 2691.56175
 2827.62960 -999.25 -999.25 66.30050 20.91460 0.07320 4.21000 2.35160 7.52610 4.01840 4.30550 -999.25 2691.66458
 2827.78200 -999.25 -999.25 64.36990 19.83130 0.07280 4.07000 2.33840 7.28280 4.04900 4.31400 -999.25 2691.76741
 2827.93440 -999.25 -999.25 62.69290 20.43310 0.07060 4.47000 2.31100 7.37380 4.05980 3.87930 -999.25 2691.87024
 2828.08680 -999.25 -999.25 60.97800 20.13220 0.06670 4.56000 2.38420 8.59870 4.12450 3.95760 -999.25 2691.97307
 2828.23920 -999.25 -999.25 61.74340 20.40300 0.06490 4.54000 2.39440 8.82550 4.34490 4.33340 -999.25 2692.07591
 2828.39160 -999.25 -999.25 62.73620 20.61370 0.06580 4.41000 2.39560 8.89910 4.61130 4.57970 -999.25 2692.17874
 2828.54400 -999.25 -999.25 61.00070 20.01180 0.06790 4.48000 2.32620 8.72070 4.64710 4.62900 -999.25 2692.28157
 2828.69640 -999.25 -999.25 72.07810 22.02810 0.07250 4.56000 2.42450 8.57170 4.53490 4.32350 -999.25 2692.38440
 2828.84880 -999.25 -999.25 71.29010 22.93090 0.07770 4.54000 2.56000 8.30430 4.39820 4.25320 -999.25 2692.48723
 2829.00120 -999.25 -999.25 68.47770 23.92390 0.07800 4.87000 2.53570 8.26250 4.21070 4.10380 -999.25 2692.59006
 2829.15360 -999.25 -999.25 66.66830 25.03740 0.07400 5.04000 2.37530 8.06470 4.24370 4.32680 -999.25 2692.69290
 2829.30600 -999.25 -999.25 67.21580 24.22490 0.06570 5.37000 2.29870 8.14670 4.52250 4.58300 -999.25 2692.79573
 2829.45840 -999.25 -999.25 67.97030 22.93090 0.05930 5.38000 2.28460 8.15230 5.01260 5.20410 -999.25 2692.89856
 2829.61080 -999.25 -999.25 64.24960 21.30580 0.05620 5.56000 2.30740 7.79590 5.50910 5.50780 -999.25 2693.00139
 2829.76320 -999.25 -999.25 67.54050 21.09520 0.05500 5.63000 2.31890 7.47460 5.92020 5.87550 -999.25 2693.10422
 2829.91560 -999.25 -999.25 63.90550 21.09520 0.05490 6.01000 2.35920 6.91510 6.13920 5.87600 -999.25 2693.20706
 2830.06800 -999.25 -999.25 56.92740 19.59050 0.05900 6.13000 2.33650 6.86690 6.28450 6.02750 -999.25 2693.30989
 2830.22040 -999.25 -999.25 60.78560 20.10210 0.06060 6.48000 2.34120 6.71890 6.25300 6.09890 -999.25 2693.41272
 2830.37280 -999.25 -999.25 58.16340 20.49330 0.06000 6.76000 2.28900 6.46670 6.41010 6.47460 -999.25 2693.51555
 2830.52520 -999.25 -999.25 67.97570 22.11830 0.05410 7.07000 2.35220 6.22060 6.61860 6.71670 -999.25 2693.61838
 2830.67760 -999.25 -999.25 67.52000 22.23870 0.04950 7.32000 2.34730 6.12410 7.08210 7.18710 -999.25 2693.72122
 2830.83000 -999.25 -999.25 66.01260 21.93780 0.04490 7.28000 2.40670 5.88680 7.57490 7.83340 -999.25 2693.82405
 2830.98240 -999.25 -999.25 64.20230 19.92150 0.04300 7.82000 2.41180 5.41070 8.00150 7.90560 -999.25 2693.92688
 2831.13480 -999.25 -999.25 69.27330 19.80120 0.04290 7.83000 2.46250 5.15320 8.47520 8.37830 -999.25 2694.02971
 2831.28720 -999.25 -999.25 66.98480 21.12530 0.04420 8.01000 2.34840 5.09260 8.55170 8.48540 -999.25 2694.13254
 2831.43960 -999.25 -999.25 64.25530 20.52340 0.04600 8.10000 2.38220 5.00510 8.95630 8.71760 -999.25 2694.23538
 2831.59200 -999.25 -999.25 56.30690 19.62060 0.04390 8.03000 2.38400 4.97550 9.00130 8.89120 -999.25 2694.33821
 2831.74440 -999.25 -999.25 57.74860 20.01180 0.04170 7.98000 2.45510 4.91610 9.19260 8.96120 -999.25 2694.44104
 2831.89680 -999.25 -999.25 58.93780 21.00490 0.04120 7.88000 2.38330 4.86910 9.16990 9.07340 -999.25 2694.54387
