~Version ---------------------------------------------------
VERS     .                             2.0 : CWLS log ASCII Standard -VERSION 2.0
WRAP     .                              NO : One Line per depth step
PROD     .                    Schlumberger : LAS Producer
PROG     .               DLIS to ASCII 2.3 : LAS Program name and version
CREA     .                   2019/04/03 19 : 51                          :LAS Creation date {YYYY/MM/DD hh:mm}
DLIS_CREA.                  2009-Feb-18 14 : 44                          :DLIS Creation date and time {YYYY-MMM-DD hh:mm}
SOURCE   . WLC_PETRO_COMPUTED_INPUT_1.DLIS : DLIS File Name
FILE-ID  .                   INPUT.logdata : File Identification Number
~Well ------------------------------------------------------
STRT.F                 1382.0 : START DEPTH
STOP.F                12441.0 : STOP DEPTH
STEP.F                    0.5 : STEP
NULL.                 -999.25 : NULL VALUE
COMP.                         : COMPANY
WELL.                15/9-F-5 : WELL
FLD .                   VOLVE : FIELD
LOC .                         : LOCATION
CNTY.         MAERSK INSPIRER : COUNTY
STAT.                         : STATE
CTRY.                         : COUNTRY
API .                         : API NUMBER
UWI .                         : UNIQUE WELL ID
DATE.                         : LOG DATE
SRVC. CROCKER DATA PROCESSING : SERVICE COMPANY
LATI.DEG                      : LATITUDE
LONG.DEG                      : LONGITUDE
GDAT.                         : GeoDetic Datum
~Curve Information -----------------------------------------
DEPTH.F            : DEPTH (BOREHOLE) {F10.1}
DEPTH..1IN         : Measured Depth {I11}
CALI .INCHES       : CALI:UNKNOWN:rC:NONE:v1 {F13.4}
DRHO .G/C3         : DRHO:UNKNOWN:rC:NONE:v1 {F13.4}
DT   .US/F         : DT:UNKNOWN:rC:NONE:v1 {F13.4}
GR   .API          : GR:UNKNOWN:rC:NONE:v1 {F13.4}
NPHI .V/V_DECIMAL  : NPHI:UNKNOWN:rC:NONE:v1 {F13.4}
RD   .UNKNOWN      : RD:UNKNOWN:rC:NONE:v1 {F13.4}
RHOB .G/C3         : RHOB:UNKNOWN:rC:NONE:v1 {F13.4}
RS   .UNKNOWN      : RS:UNKNOWN:rC:NONE:v1 {F13.4}
RT   .OHMM         : RT:UNKNOWN:rC:NONE:v1 {F13.4}
TVD  .M            : True Vertical Depth from PyLasMech
~Params ----------------------------------------------------
WN  .        15/9-F-5 : Well Name
FN  .           VOLVE : Field
CTRY.          NORWAY : Country
COUN. MAERSK INSPIRER : County or Rig name
PDAT.             MSL : Perm. Datum
ELZ .M            0.0 : Elev. Log Zero (wrt EPD)
RUN .                 : RUN NUMBER
EPD .                 : Elevation of Permanent Datum above Mean Sea Level
LMF .                 : Logging Measured From (Name of Logging Elevation Reference)
APD .                 : Elevation of Depth Reference (LMF) above Permanent Datum
~Other -----------------------------------------------------
~ASCII -----------------------------------------------------
# ...
 10312.50000 1237500.00000 -999.25 0.06400 71.33070 19.79730 0.11590 -999.25 2.57500 2.43400 2.54600 2788.21458
 10313.00000 1237560.00000 -999.25 0.06000 70.30540 21.39100 0.11090 -999.25 2.58000 2.51070 2.57550 2788.33728
 10313.50000 1237620.00000 -999.25 0.06670 68.82420 19.93270 0.10600 -999.25 2.56670 2.58730 2.60500 2788.45999
 10314.00000 1237680.00000 -999.25 0.07330 68.49110 18.47430 0.11090 -999.25 2.55330 2.66400 2.63450 2788.58269
 10314.50000 1237740.00000 -999.25 0.08000 68.89450 17.01600 0.11570 -999.25 2.54000 2.66400 2.66400 2788.70540
 10315.00000 1237800.00000 -999.25 0.08100 69.10250 17.27780 0.12050 -999.25 2.54000 2.66400 2.70500 2788.82811
 10315.50000 1237860.00000 -999.25 0.08200 69.15180 17.53950 0.11900 -999.25 2.54000 2.66400 2.74600 2788.95081
 10316.00000 1237920.00000 -999.25 0.08300 68.21500 17.80130 0.11750 -999.25 2.54000 2.66400 2.78700 2789.07352
 10316.50000 1237980.00000 -999.25 0.08400 66.98660 18.06300 0.11590 -999.25 2.54000 2.69480 2.78700 2789.19622
 10317.00000 1238040.00000 -999.25 0.09100 66.56710 16.12530 0.11440 -999.25 2.54000 2.72550 2.78700 2789.31893
 10317.50000 1238100.00000 -999.25 0.09800 66.97040 14.18770 0.11570 -999.25 2.54000 2.75620 2.78700 2789.44163
 10318.00000 1238160.00000 -999.25 0.10500 67.99260 12.25000 0.11700 -999.25 2.54000 2.78700 2.78700 2789.56434
 10318.50000 1238220.00000 -999.25 0.11200 67.78550 12.94150 0.11820 -999.25 2.54000 2.82970 2.92170 2789.68705
 10319.00000 1238280.00000 -999.25 0.10800 66.63160 13.63300 0.11950 -999.25 2.55330 2.87230 3.05630 2789.80975
 10319.50000 1238340.00000 -999.25 0.10400 65.94420 14.32450 0.11420 -999.25 2.56670 2.91500 3.19100 2789.93246
 10320.00000 1238400.00000 -999.25 0.10000 65.42120 15.01600 0.10900 -999.25 2.58000 2.91500 3.12200 2790.05516
 10320.50000 1238460.00000 -999.25 0.09600 64.95390 15.51600 0.10370 -999.25 2.57500 2.91500 3.05300 2790.17787
 10321.00000 1238520.00000 -999.25 0.09600 65.42710 16.01600 0.10640 -999.25 2.57000 2.91500 2.98400 2790.30057
 10321.50000 1238580.00000 -999.25 0.09600 66.82220 16.51600 0.10920 -999.25 2.56500 2.91500 2.91500 2790.42328
 10322.00000 1238640.00000 -999.25 0.09600 68.27430 17.01600 0.11190 -999.25 2.56000 3.00700 3.05600 2790.54599
 10322.50000 1238700.00000 -999.25 0.09100 68.77680 17.36500 0.10980 -999.25 2.56250 3.09900 3.19700 2790.66869
 10323.00000 1238760.00000 -999.25 0.08600 68.65100 17.71400 0.10760 -999.25 2.56500 3.19100 3.33800 2790.79140
 10323.50000 1238820.00000 -999.25 0.08100 68.65740 18.06300 0.10550 -999.25 2.56750 3.05630 3.15430 2790.91410
 10324.00000 1238880.00000 -999.25 0.07600 69.39160 19.18800 0.10330 -999.25 2.57000 2.92170 2.97070 2791.03681
 10324.50000 1238940.00000 -999.25 0.06400 70.12960 20.31300 0.10040 -999.25 2.56670 2.78700 2.78700 2791.15952
 10325.00000 1239000.00000 -999.25 0.05200 69.83670 21.43800 0.09750 -999.25 2.56330 3.02230 3.02230 2791.28222
 10325.50000 1239060.00000 -999.25 0.04000 68.26030 22.56300 0.09460 -999.25 2.56000 3.25770 3.25770 2791.40493
 10326.00000 1239120.00000 -999.25 0.04800 66.54640 21.70750 0.09860 -999.25 2.56670 3.49300 3.49300 2791.52763
 10326.50000 1239180.00000 -999.25 0.05600 66.00330 20.85200 0.10270 -999.25 2.57330 3.39230 3.39230 2791.65034
 10327.00000 1239240.00000 -999.25 0.06400 67.07630 19.99650 0.10670 -999.25 2.58000 3.29170 3.29170 2791.77304
 10327.50000 1239300.00000 -999.25 0.07200 68.86460 19.14100 0.10450 -999.25 2.57500 3.19100 3.19100 2791.89575
 10328.00000 1239360.00000 -999.25 0.06400 70.41540 21.51600 0.10240 -999.25 2.57000 3.19100 3.19100 2792.01846
 10328.50000 1239420.00000 -999.25 0.05600 70.74770 23.89100 0.10030 -999.25 2.56500 3.19100 3.19100 2792.14116
 10329.00000 1239480.00000 -999.25 0.04800 70.89060 26.26600 0.10560 -999.25 2.56000 3.19100 3.19100 2792.26387
 10329.50000 1239540.00000 -999.25 0.06400 71.46890 26.69830 0.11100 -999.25 2.57670 3.01530 2.97600 2792.38657
 10330.00000 1239600.00000 -999.25 0.08000 71.19460 27.13070 0.11630 -999.25 2.59330 2.83970 2.76100 2792.50928
 10330.50000 1239660.00000 -999.25 0.09600 68.44380 27.56300 0.10820 -999.25 2.61000 2.66400 2.54600 2792.63198
 10331.00000 1239720.00000 -999.25 0.08400 65.92410 26.31300 0.10020 -999.25 2.60330 2.99400 2.91530 2792.75469
 10331.50000 1239780.00000 -999.25 0.07200 65.32470 25.06300 0.10100 -999.25 2.59670 3.32400 3.28470 2792.87740
 10332.00000 1239840.00000 -999.25 0.06000 65.58370 23.81300 0.10180 -999.25 2.59000 3.65400 3.65400 2793.00010
 10332.50000 1239900.00000 -999.25 0.06130 65.65450 22.56300 0.10260 -999.25 2.59000 3.76900 3.76900 2793.12281
 10333.00000 1239960.00000 -999.25 0.06270 65.67390 22.56300 0.09990 -999.25 2.59000 3.88400 3.88400 2793.24551
 10333.50000 1240020.00000 -999.25 0.06400 66.26620 22.56300 0.09710 -999.25 2.59000 3.99900 3.99900 2793.36822
 10334.00000 1240080.00000 -999.25 0.07200 67.29350 22.56300 0.09440 -999.25 2.60000 3.94030 3.94030 2793.49093
 10334.50000 1240140.00000 -999.25 0.08000 68.73500 22.96400 0.09500 -999.25 2.61000 3.88170 3.88170 2793.61363
 10335.00000 1240200.00000 -999.25 0.08800 69.81110 23.36500 0.09560 -999.25 2.62000 3.82300 3.82300 2793.73634
 10335.50000 1240260.00000 -999.25 0.09200 69.59770 23.76600 0.09870 -999.25 2.62330 3.65800 3.65800 2793.85904
 10336.00000 1240320.00000 -999.25 0.09600 69.00480 22.22430 0.10170 -999.25 2.62670 3.49300 3.49300 2793.98175
 10336.50000 1240380.00000 -999.25 0.10000 68.12810 20.68270 0.10480 -999.25 2.63000 3.45870 3.44700 2794.10445
 10337.00000 1240440.00000 -999.25 0.09600 68.03050 19.14100 0.10790 -999.25 2.61330 3.42430 3.40100 2794.22716
 10337.50000 1240500.00000 -999.25 0.09200 68.13990 19.51070 0.10940 -999.25 2.59670 3.39000 3.35500 2794.34987
 10338.00000 1240560.00000 -999.25 0.08800 68.14900 19.88030 0.10830 -999.25 2.58000 3.33800 3.43100 2794.47257
 10338.50000 1240620.00000 -999.25 0.08930 67.63090 20.25000 0.10370 -999.25 2.58330 3.33800 3.44100 2794.59528
 10339.00000 1240680.00000 -999.25 0.09070 67.21680 18.50530 0.10310 -999.25 2.58670 3.49300 3.55700 2794.71798
 10339.50000 1240740.00000 -999.25 0.09200 66.94140 16.76070 0.10390 -999.25 2.59000 3.55300 3.59700 2794.84069
 10340.00000 1240800.00000 -999.25 0.09330 66.11470 15.01600 0.09880 -999.25 2.59330 3.49300 3.45500 2794.96340
 10340.50000 1240860.00000 -999.25 0.09470 65.11300 15.01600 0.08920 -999.25 2.59670 3.82500 3.87400 2795.08610
 10341.00000 1240920.00000 -999.25 0.09600 65.22570 15.01600 0.08870 -999.25 2.60000 3.99900 3.99900 2795.20881
 10341.50000 1240980.00000 -999.25 0.09000 65.37780 15.01600 0.09760 -999.25 2.60000 4.13800 4.11000 2795.33151
 10342.00000 1241040.00000 -999.25 0.08400 65.24270 15.68270 0.08920 -999.25 2.60000 4.32900 4.32900 2795.45422
 10342.50000 1241100.00000 -999.25 0.11600 64.86190 16.34930 0.07580 -999.25 2.58330 4.57900 4.47800 2795.57692
 10343.00000 1241160.00000 -999.25 0.07600 64.15030 17.01600 0.08240 -999.25 2.56670 4.84600 4.79300 2795.69963
 10343.50000 1241220.00000 -999.25 0.03600 64.06000 17.01600 0.08370 -999.25 2.55000 5.01200 5.01200 2795.82234
 10344.00000 1241280.00000 -999.25 0.04800 64.44700 17.01600 0.08100 -999.25 2.59000 5.01200 5.16600 2795.94504
 10344.50000 1241340.00000 -999.25 0.05200 64.66050 17.01600 0.08610 -999.25 2.60000 5.24300 5.24300 2796.06775
 10345.00000 1241400.00000 -999.25 0.04400 64.58770 15.07850 0.08740 -999.25 2.62000 5.08900 5.24300 2796.19045
 10345.50000 1241460.00000 -999.25 0.04800 64.90960 13.14100 0.07900 -999.25 2.63000 5.01200 5.08900 2796.31316
 10346.00000 1241520.00000 -999.25 0.03200 65.32690 45.51070 0.08390 -999.25 2.55000 5.08900 5.16600 2796.43586
 10346.50000 1241580.00000 -999.25 0.05600 65.01830 77.88030 0.08770 -999.25 2.61000 5.16600 5.16600 2796.55857
 10347.00000 1241640.00000 -999.25 0.04800 64.13680 110.25000 0.08680 -999.25 2.60000 4.79100 4.68500 2796.68128
 10347.50000 1241700.00000 -999.25 0.04400 62.95900 13.14100 0.08240 -999.25 2.58000 4.79100 4.37700 2796.80398
 10348.00000 1241760.00000 -999.25 0.07200 62.91150 14.06300 0.08080 -999.25 2.60000 4.79100 5.01200 2796.92669
