~Version ---------------------------------------------------
VERS. 2.0 : CWLS log ASCII Standard -VERSION 2.0
WRAP.  NO : One line per depth step
~Well ------------------------------------------------------
STRT     .M           239.8776 : START
STOP     .M          4186.7328 : STOP
STEP     .M 0.1524000000000001 : STEP
NULL     .             -999.25 : NULL VALUE
COMP     .        STATOILHYDRO : COMPANY
WELL     .           15/9-F-12 : WELL
FLD      .               VOLVE : FIELD
LOC      .             UNKNOWN : LOCATION
CNTY     .             UNKNOWN : COUNTY
STAT     .             UNKNOWN : STATE
CTRY     .              Norway : COUNTRY
SRVC     .             UNKNOWN : SERVICE COMPANY
DATE     .             UNKNOWN : LOG DATE
UWI      .        NO 15/9-F-12 : UNIQUE WELL ID
XCOORD   .           435050.17 : SURFACE X
YCOORD   .           6478574.7 : SURFACE Y
LAT      .           58.441713 : LATITUDE
LON      .             1.88748 : LONGITUDE
ELEV     .M               54.9 : SURFACE ELEV
ELEV_TYPE.                  KB : ELEV TYPE
~Curve Information -----------------------------------------
DEPTH    .M           UNKNOWN : Measured Depth
CARB_FLAG.UNKNOWN     UNKNOWN : CARB_FLAG:UNKNOWN:rC:NONE:v1
COAL_FLAG.UNKNOWN     UNKNOWN : COAL_FLAG:UNKNOWN:rC:NONE:v1
DT       .us/ft       UNKNOWN : DT:UNKNOWN:rC:NONE:v2
GR       .API         UNKNOWN : GR:UNKNOWN:rC:NONE:v1
NPHI     .v/v_decimal UNKNOWN : NPHI:UNKNOWN:rC:NONE:v1
RD       .UNKNOWN     UNKNOWN : RD:UNKNOWN:rC:NONE:v1
RHOB     .g/cm3       UNKNOWN : RHOB:UNKNOWN:rC:NONE:v1
ROP5_RM  .UNKNOWN     UNKNOWN : ROP5_RM:UNKNOWN:rC:NONE:v1
RS       .UNKNOWN     UNKNOWN : RS:UNKNOWN:rC:NONE:v1
RT       .ohm.m       UNKNOWN : RT:UNKNOWN:rC:NONE:v1
SAND_FLAG.UNKNOWN     UNKNOWN : SAND_FLAG:UNKNOWN:rC:NONE:v1
TVD      .M                   : True Vertical Depth from PyLasMech
~Params ----------------------------------------------------
~Other -----------------------------------------------------
~ASCII -----------------------------------------------------
# ...
 2605.73520 -999.25 -999.25 -999.25 77.09870 0.35300 0.75000 2.23330 20.09680 0.60730 0.56890 -999.25 2512.14882
 2605.88760 -999.25 -999.25 -999.25 86.93910 0.39600 0.74000 2.20600 20.09680 0.61410 0.59690 -999.25 2512.28767
 2606.04000 -999.25 -999.25 -999.25 92.53650 0.40460 0.71000 2.22380 20.09680 0.63550 0.56540 -999.25 2512.42652
 2606.19240 -999.25 -999.25 -999.25 90.24940 0.40830 0.71000 2.23080 20.09680 0.64990 0.55310 -999.25 2512.56536
 2606.34480 -999.25 -999.25 -999.25 85.73540 0.38250 0.82000 2.22950 20.09680 0.64530 0.57010 -999.25 2512.70421
 2606.49720 -999.25 -999.25 -999.25 81.34180 0.35850 0.99000 2.25150 20.09640 0.83890 1.08390 -999.25 2512.84306
 2606.64960 -999.25 -999.25 -999.25 74.60090 0.33610 0.99000 2.25850 20.09620 1.32590 1.34810 -999.25 2512.98190
 2606.80200 -999.25 -999.25 -999.25 68.67260 0.33460 0.88000 2.28090 20.06760 1.37480 1.31620 -999.25 2513.12075
 2606.95440 -999.25 -999.25 -999.25 58.92240 0.31920 1.01000 2.28590 19.93740 1.35500 1.06360 -999.25 2513.25960
 2607.10680 -999.25 -999.25 -999.25 52.00090 0.30860 0.88000 2.30540 19.80640 1.33400 1.04730 -999.25 2513.39844
 2607.25920 -999.25 -999.25 -999.25 46.40360 0.30310 0.73000 2.28780 19.84550 1.21460 1.01940 -999.25 2513.53729
 2607.41160 -999.25 -999.25 -999.25 49.92450 0.30820 0.58000 2.25640 19.85860 1.15700 0.79250 -999.25 2513.67614
 2607.56400 -999.25 -999.25 -999.25 56.54500 0.36610 0.48000 2.18770 19.79800 0.97880 0.63530 -999.25 2513.81498
 2607.71640 -999.25 -999.25 -999.25 63.64700 0.45760 0.34000 2.13650 19.68730 0.61090 0.29690 -999.25 2513.95383
 2607.86880 -999.25 -999.25 -999.25 64.85070 0.48750 0.35000 2.10120 19.52500 0.52170 0.26950 -999.25 2514.09268
 2608.02120 -999.25 -999.25 128.70799 67.07760 0.41760 0.37000 2.10600 19.45570 0.56760 0.33540 -999.25 2514.23152
 2608.17360 -999.25 -999.25 125.40090 67.16790 0.35800 0.38000 2.12660 19.48680 0.58800 0.32160 -999.25 2514.37037
 2608.32600 -999.25 -999.25 124.43620 71.17030 0.35660 0.32000 2.14010 19.53750 0.67260 0.28080 -999.25 2514.50922
 2608.47840 -999.25 -999.25 114.78500 72.67500 0.37800 0.44000 2.13140 19.72910 0.59620 0.18380 -999.25 2514.64806
 2608.63080 -999.25 -999.25 109.93710 72.28380 0.42900 0.57000 2.11610 19.73590 0.55320 0.24260 -999.25 2514.78691
 2608.78320 -999.25 -999.25 107.42370 67.07760 0.39090 0.49000 2.11520 19.73560 0.48620 0.30170 -999.25 2514.92576
 2608.93560 -999.25 -999.25 105.07700 59.34370 0.34050 0.33000 2.13420 19.73500 0.51720 0.21430 -999.25 2515.06460
 2609.08800 -999.25 -999.25 105.21060 52.33200 0.30750 0.36000 2.14750 19.79020 0.54380 0.17860 -999.25 2515.20345
 2609.24040 -999.25 -999.25 99.45340 49.02170 0.28280 0.46000 2.15640 19.96430 0.53460 0.23370 -999.25 2515.34230
 2609.39280 -999.25 -999.25 95.28500 47.81800 0.26940 0.52000 2.15310 20.11300 0.51890 0.24120 -999.25 2515.48114
 2609.54520 -999.25 -999.25 94.29000 49.41290 0.25630 0.72000 2.16500 20.17080 0.51530 0.20900 -999.25 2515.61999
 2609.69760 -999.25 -999.25 90.67430 50.40600 0.26410 0.51000 2.16600 20.17080 0.53030 0.25110 -999.25 2515.75884
 2609.85000 -999.25 -999.25 89.27350 48.38980 0.26790 0.50000 2.18330 20.03230 0.51050 0.26610 -999.25 2515.89768
 2610.00240 -999.25 -999.25 88.14150 46.19300 0.27160 0.52000 2.17650 19.90890 0.49810 0.28150 -999.25 2516.03653
 2610.15480 -999.25 -999.25 90.07230 44.38740 0.27660 0.48000 2.17600 19.84340 0.48630 0.25920 -999.25 2516.17538
 2610.30720 -999.25 -999.25 87.94310 46.01240 0.26700 0.50000 2.15710 19.88480 0.50790 0.25090 -999.25 2516.31422
 2610.45960 -999.25 -999.25 87.56550 47.21610 0.26080 0.51000 2.16770 19.87820 0.51000 0.29590 -999.25 2516.45307
 2610.61200 -999.25 -999.25 87.96370 48.11890 0.24940 0.46000 2.18740 19.87820 0.49320 0.31460 -999.25 2516.59192
 2610.76440 -999.25 -999.25 86.92680 47.48700 0.23680 0.47000 2.20500 19.88530 0.49500 0.29190 -999.25 2516.73076
 2610.91680 -999.25 -999.25 87.24160 48.78100 0.23880 0.46000 2.20750 19.84300 0.50400 0.36800 -999.25 2516.86961
 2611.06920 -999.25 -999.25 89.51180 51.09810 0.24390 0.46000 2.20090 19.90750 0.51440 0.35120 -999.25 2517.00846
 2611.22160 -999.25 -999.25 90.95670 52.03100 0.24670 0.41000 2.20280 19.92450 0.55620 0.29550 -999.25 2517.14730
 2611.37400 -999.25 -999.25 87.68060 52.24170 0.24440 0.42000 2.20690 19.86940 0.54640 0.29610 -999.25 2517.28615
 2611.52640 -999.25 -999.25 87.53510 51.33890 0.23610 0.43000 2.22380 19.89320 0.56480 0.35280 -999.25 2517.42500
 2611.67880 -999.25 -999.25 88.87320 50.22540 0.23590 0.44000 2.22050 19.87360 0.56790 0.36900 -999.25 2517.56384
 2611.83120 -999.25 -999.25 87.01020 47.99850 0.23250 0.42000 2.21750 19.88330 0.54840 0.31190 -999.25 2517.70269
 2611.98360 -999.25 -999.25 85.34000 46.79480 0.24070 0.42000 2.20440 19.90310 0.57760 0.35400 -999.25 2517.84154
 2612.13600 -999.25 -999.25 86.69180 48.08880 0.24770 0.44000 2.21160 19.87820 0.57190 0.34550 -999.25 2517.98038
 2612.28840 -999.25 -999.25 94.18660 49.50320 0.23960 0.42000 2.20760 19.91440 0.56540 0.29670 -999.25 2518.11923
 2612.44080 -999.25 -999.25 94.19980 50.58660 0.23910 0.43000 2.20460 20.32700 0.56290 0.35570 -999.25 2518.25808
 2612.59320 -999.25 -999.25 94.96590 50.19530 0.23020 0.44000 2.20700 20.81750 0.58360 0.39990 -999.25 2518.39692
 2612.74560 -999.25 -999.25 96.69530 51.00790 0.24060 0.43000 2.21900 20.89560 0.58000 0.36440 -999.25 2518.53577
 2612.89800 -999.25 -999.25 88.49640 51.51950 0.24130 0.40000 2.22560 21.48100 0.57210 0.32450 -999.25 2518.67462
 2613.05040 -999.25 -999.25 88.72300 52.81350 0.25080 0.40000 2.21650 22.14440 0.57960 0.33620 -999.25 2518.81346
 2613.20280 -999.25 -999.25 89.97140 51.21850 0.24950 0.39000 2.20470 22.74710 0.58670 0.34320 -999.25 2518.95231
 2613.35520 -999.25 -999.25 89.41610 48.93140 0.24430 0.43000 2.20280 23.34130 0.58420 0.38500 -999.25 2519.09116
 2613.50760 -999.25 -999.25 89.52080 46.43370 0.23600 0.41000 2.20270 23.44650 0.56840 0.32710 -999.25 2519.23000
 2613.66000 -999.25 -999.25 88.62650 46.01240 0.23390 0.38000 2.19000 24.18340 0.56930 0.31630 -999.25 2519.36885
 2613.81240 -999.25 -999.25 91.10620 46.58420 0.23520 0.45000 2.18580 24.83490 0.56610 0.35120 -999.25 2519.50770
 2613.96480 -999.25 -999.25 93.49080 46.97540 0.22860 0.44000 2.20130 25.05270 0.60540 0.39580 -999.25 2519.64655
 2614.11720 -999.25 -999.25 92.44770 49.20230 0.23710 0.45000 2.25490 25.13790 0.66860 0.38580 -999.25 2519.78539
 2614.26960 -999.25 -999.25 93.40880 53.92690 0.24670 0.62000 2.31050 25.16640 0.82940 0.55570 -999.25 2519.92424
 2614.42200 -999.25 -999.25 85.48760 62.65390 0.26830 0.71000 2.33870 25.15370 0.98920 0.83840 -999.25 2520.06309
 2614.57440 -999.25 -999.25 83.34680 70.05680 0.26030 0.59000 2.33890 25.05270 1.15600 0.89420 -999.25 2520.20193
 2614.72680 -999.25 -999.25 88.09590 73.96900 0.24290 0.60000 2.31160 25.05200 1.17410 0.91120 -999.25 2520.34078
 2614.87920 -999.25 -999.25 88.04710 71.17030 0.23390 0.56000 2.28770 25.05130 1.15980 0.87570 -999.25 2520.47963
 2615.03160 -999.25 -999.25 90.64730 67.34850 0.22820 0.56000 2.25640 25.05260 1.09570 0.83310 -999.25 2520.61847
 2615.18400 -999.25 -999.25 88.16150 65.15170 0.22580 0.52000 2.23820 25.05270 0.89830 0.69690 -999.25 2520.75732
 2615.33640 -999.25 -999.25 87.66330 62.83450 0.22770 0.51000 2.24100 25.16740 0.87840 0.66500 -999.25 2520.89617
 2615.48880 -999.25 -999.25 83.75470 59.52420 0.23290 0.55000 2.24560 25.16640 0.87210 0.68180 -999.25 2521.03501
 2615.64120 -999.25 -999.25 85.96150 54.58900 0.24260 0.53000 2.23440 24.73900 0.85870 0.65380 -999.25 2521.17386
 2615.79360 -999.25 -999.25 90.49570 50.19540 0.25230 0.52000 2.23190 22.57210 0.84580 0.58680 -999.25 2521.31271
 2615.94600 -999.25 -999.25 97.04940 49.62360 0.26130 0.58000 2.22360 18.98400 0.85060 0.56870 -999.25 2521.45155
 2616.09840 -999.25 -999.25 99.88770 51.94080 0.27350 0.62000 2.26310 11.05360 0.84310 0.58590 -999.25 2521.59040
 2616.25080 -999.25 -999.25 103.89940 59.46400 0.28080 0.61000 2.27150 7.08840 0.82970 0.60420 -999.25 2521.72925
 2616.40320 -999.25 -999.25 104.82680 64.76040 0.30410 0.60000 2.29230 7.08840 0.80900 0.62550 -999.25 2521.86809
