~Version ---------------------------------------------------
VERS     .                             2.0 : CWLS log ASCII Standard -VERSION 2.0
WRAP     .                              NO : One Line per depth step
PROD     .                    Schlumberger : LAS Producer
PROG     .               DLIS to ASCII 2.3 : LAS Program name and version
CREA     .                   2019/04/03 19 : 51                          :LAS Creation date {YYYY/MM/DD hh:mm}
DLIS_CREA.                  2009-Feb-18 14 : 44                          :DLIS Creation date and time {YYYY-MMM-DD hh:mm}
SOURCE   . WLC_PETRO_COMPUTED_INPUT_1.DLIS : DLIS File Name
FILE-ID  .                   INPUT.logdata : File Identification Number
~Well ------------------------------------------------------
STRT.F                 1382.0 : START DEPTH
STOP.F                12441.0 : STOP DEPTH
STEP.F                    0.5 : STEP
NULL.                 -999.25 : NULL VALUE
COMP.                         : COMPANY
WELL.                15/9-F-5 : WELL
FLD .                   VOLVE : FIELD
LOC .                         : LOCATION
CNTY.         MAERSK INSPIRER : COUNTY
STAT.                         : STATE
CTRY.                         : COUNTRY
API .                         : API NUMBER
UWI .                         : UNIQUE WELL ID
DATE.                         : LOG DATE
SRVC. CROCKER DATA PROCESSING : SERVICE COMPANY
LATI.DEG                      : LATITUDE
LONG.DEG                      : LONGITUDE
GDAT.                         : GeoDetic Datum
~Curve Information -----------------------------------------
DEPTH.F            : DEPTH (BOREHOLE) {F10.1}
DEPTH..1IN         : Measured Depth {I11}
CALI .INCHES       : CALI:UNKNOWN:rC:NONE:v1 {F13.4}
DRHO .G/C3         : DRHO:UNKNOWN:rC:NONE:v1 {F13.4}
DT   .US/F         : DT:UNKNOWN:rC:NONE:v1 {F13.4}
GR   .API          : GR:UNKNOWN:rC:NONE:v1 {F13.4}
NPHI .V/V_DECIMAL  : NPHI:UNKNOWN:rC:NONE:v1 {F13.4}
RD   .UNKNOWN      : RD:UNKNOWN:rC:NONE:v1 {F13.4}
RHOB .G/C3         : RHOB:UNKNOWN:rC:NONE:v1 {F13.4}
RS   .UNKNOWN      : RS:UNKNOWN:rC:NONE:v1 {F13.4}
RT   .OHMM         : RT:UNKNOWN:rC:NONE:v1 {F13.4}
TVD  .M            : True Vertical Depth from PyLasMech
~Params ----------------------------------------------------
WN  .        15/9-F-5 : Well Name
FN  .           VOLVE : Field
CTRY.          NORWAY : Country
COUN. MAERSK INSPIRER : County or Rig name
PDAT.             MSL : Perm. Datum
ELZ .M            0.0 : Elev. Log Zero (wrt EPD)
RUN .                 : RUN NUMBER
EPD .                 : Elevation of Permanent Datum above Mean Sea Level
LMF .                 : Logging Measured From (Name of Logging Elevation Reference)
APD .                 : Elevation of Depth Reference (LMF) above Permanent Datum
~Other -----------------------------------------------------
~ASCII -----------------------------------------------------
# ...
 12202.00000 1464240.00000 8.55000 0.02000 52.17430 36.63000 0.07010 7.00000 2.61000 10.48000 11.43000 3202.55522
 12202.50000 1464300.00000 8.58000 0.04050 56.18710 36.45330 0.08060 6.43000 2.55920 13.24440 11.50760 3202.64413
 12203.00000 1464360.00000 8.64190 0.08060 60.23230 35.95640 0.08440 5.69470 2.49940 14.30310 13.54310 3202.73305
 12203.50000 1464420.00000 8.70870 0.09960 62.37090 35.83260 0.08790 5.17060 2.48040 14.06500 13.30500 3202.82196
 12204.00000 1464480.00000 8.65000 0.09010 64.37500 37.39160 0.08630 4.84000 2.49990 11.75240 11.44990 3202.91088
 12204.50000 1464540.00000 8.61000 0.07990 67.19910 38.56770 0.09210 4.56000 2.56020 7.97940 6.71580 3202.99980
 12205.00000 1464600.00000 8.65730 0.06950 69.61470 39.33050 0.09220 4.63650 2.57900 5.09950 4.45650 3203.08871
 12205.50000 1464660.00000 8.55250 0.05050 72.39040 41.25460 0.11260 4.11230 2.54090 3.55640 3.94220 3203.17763
 12206.00000 1464720.00000 8.51000 0.02020 75.71110 43.05580 0.13580 3.66000 2.46060 2.80580 3.63240 3203.26654
 12206.50000 1464780.00000 8.53000 0.03010 77.03880 44.67510 0.14780 3.07000 2.40980 2.23740 2.98450 3203.35546
 12207.00000 1464840.00000 8.51020 0.04020 74.22710 46.64180 0.15810 2.74720 2.39090 1.91820 2.28900 3203.44437
 12207.50000 1464900.00000 8.51970 0.04980 70.15780 50.52800 0.18220 2.63310 2.42900 1.84200 1.82230 3203.53329
 12208.00000 1464960.00000 8.54000 0.04010 68.16410 54.21140 0.15800 2.30000 2.52890 2.21590 1.97820 3203.62221
 12208.50000 1465020.00000 8.57000 0.04020 66.85770 53.40790 0.11620 2.30000 2.66030 3.06950 2.26350 3203.71112
 12209.00000 1465080.00000 8.58960 0.06960 65.55430 47.27080 0.10730 1.91840 2.71940 2.97260 2.91160 3203.80004
 12209.50000 1465140.00000 8.57050 0.05050 66.99480 39.68890 0.10770 1.84220 2.69080 2.62020 2.98780 3203.88895
 12210.00000 1465200.00000 8.53060 0.06970 71.03700 35.05960 0.10510 1.71180 2.63080 1.95880 2.24010 3203.97787
 12210.50000 1465260.00000 8.53000 0.05000 73.04500 31.62000 0.10830 1.38000 2.55000 1.52000 1.73000 3204.06678
 12211.00000 1465320.00000 8.51980 0.05020 74.45660 29.69960 0.11430 1.23760 2.45910 1.09560 1.17390 3204.15570
 12211.50000 1465380.00000 8.51030 0.05970 75.26510 27.49930 0.13730 1.11390 2.41150 0.85750 0.84050 3204.24462
 12212.00000 1465440.00000 8.49030 0.05020 75.21130 26.54440 0.16100 0.94270 2.39030 0.69260 0.63320 3204.33353
 12212.50000 1465500.00000 8.50000 0.07000 75.01530 25.27000 0.16990 0.67000 2.39000 0.58000 0.52000 3204.42245
 12213.00000 1465560.00000 8.51950 0.08000 74.29400 24.26300 0.16590 0.56940 2.40000 0.50970 0.52000 3204.51136
 12213.50000 1465620.00000 8.48970 0.07970 73.68370 21.32920 0.16890 0.52820 2.39940 0.49060 0.51910 3204.60028
 12214.00000 1465680.00000 8.48020 0.07020 73.85690 20.03380 0.17360 0.47110 2.38040 0.50960 0.49050 3204.68919
 12214.50000 1465740.00000 8.48000 0.05000 74.20390 17.56000 0.17400 0.48000 2.36000 0.51000 0.45000 3204.77985
 12215.00000 1465800.00000 8.48040 0.04990 74.47250 19.82160 0.17220 0.45960 2.36000 0.50030 0.45030 3204.87143
 12215.50000 1465860.00000 8.50950 0.04060 76.26900 20.74240 0.17670 0.43000 2.36080 0.52030 0.47060 3204.96301
 12216.00000 1465920.00000 8.49040 0.05960 74.83500 22.90460 0.17060 0.43000 2.38940 0.52980 0.48960 3205.05460
 12216.50000 1465980.00000 8.49000 0.05010 75.32890 23.78550 0.17630 0.47000 2.39000 0.60960 0.53970 3205.14618
 12217.00000 1466040.00000 8.48000 0.03990 76.90150 25.71200 0.18350 0.49000 2.37980 0.63970 0.53020 3205.23776
 12217.50000 1466100.00000 8.48130 0.03020 78.05450 25.88030 0.18670 0.58100 2.35980 0.60930 0.54970 3205.32934
 12218.00000 1466160.00000 8.52890 0.03980 78.76830 25.12780 0.18010 0.61910 2.35020 0.58070 0.54020 3205.42092
 12218.50000 1466220.00000 8.52000 0.04990 76.29630 25.14970 0.17370 0.68000 2.36980 0.54030 0.51020 3205.51250
 12219.00000 1466280.00000 8.51000 0.04990 72.62860 24.73020 0.18340 0.63000 2.38010 0.49950 0.54030 3205.60408
 12219.50000 1466340.00000 8.50000 0.03950 72.47990 23.44920 0.17270 0.59200 2.38950 0.43980 0.57780 3205.69566
 12220.00000 1466400.00000 8.50000 0.02050 73.61740 20.87750 0.17050 0.67780 2.37050 0.43020 0.48250 3205.78724
 12220.50000 1466460.00000 8.51000 0.02990 74.43100 19.58320 0.17590 1.07000 2.36010 0.42010 0.38110 3205.87883
 12221.00000 1466520.00000 8.51000 0.03010 74.22550 19.89780 0.17240 1.20000 2.37020 0.46050 0.57260 3205.97041
 12221.50000 1466580.00000 8.52020 0.04000 74.32530 21.41620 0.16180 1.41350 2.40000 0.55140 1.06160 3206.06199
 12222.00000 1466640.00000 8.52970 0.04000 73.34070 24.56900 0.16690 1.58500 2.40000 0.61810 1.61410 3206.15357
 12222.50000 1466700.00000 8.52000 0.04990 74.90860 27.70880 0.17270 1.91000 2.40990 0.74830 1.48200 3206.24515
 12223.00000 1466760.00000 8.51000 0.05000 75.76630 30.92000 0.17450 2.31000 2.41000 0.73000 1.83000 3206.33673
 12223.50000 1466820.00000 8.52040 0.04960 75.88290 32.52380 0.17390 2.16110 2.43020 0.79840 1.87560 3206.42831
 12224.00000 1466880.00000 8.53940 0.03060 76.85720 32.73340 0.16590 2.21820 2.43970 0.71270 2.72330 3206.51989
 12224.50000 1466940.00000 8.52030 0.03980 77.09720 32.27750 0.17590 2.45610 2.44980 0.66080 2.07100 3206.61147
 12225.00000 1467000.00000 8.52000 0.03000 77.39670 29.26000 0.18760 2.33000 2.41000 0.57000 1.38000 3206.70305
 12225.50000 1467060.00000 8.48020 0.05020 78.62670 27.26300 0.19040 2.41250 2.37000 0.57290 1.11100 3206.79464
 12226.00000 1467120.00000 8.49000 0.06030 81.58980 25.68550 0.21230 2.58960 2.37090 0.76050 1.19640 3206.88622
 12226.50000 1467180.00000 8.49000 0.06980 79.03910 28.40010 0.19990 3.20910 2.39950 1.09390 2.03460 3206.97780
 12227.00000 1467240.00000 8.50000 0.07000 76.81450 29.61000 0.20860 2.98000 2.44000 1.73000 2.88000 3207.06938
 12227.50000 1467300.00000 8.50000 0.07990 75.03990 33.34250 0.20670 3.55000 2.46050 2.72490 3.10250 3207.16096
 12228.00000 1467360.00000 8.50970 0.06970 71.47520 39.75690 0.19950 4.81650 2.50080 4.69710 4.03280 3207.25254
 12228.50000 1467420.00000 8.50020 0.06020 67.55580 50.38680 0.20880 4.69260 2.52940 9.09760 4.12800 3207.34412
 12229.00000 1467480.00000 8.52000 0.03020 64.99140 60.16880 0.18610 6.64000 2.57970 9.09050 5.25400 3207.43570
 12229.50000 1467540.00000 8.54000 0.03000 65.16880 64.45350 0.18900 6.74000 2.60000 5.67050 4.43800 3207.52728
 12230.00000 1467600.00000 8.57030 0.03020 66.33780 66.60450 0.17810 5.18340 2.60000 4.77780 4.24150 3207.61887
 12230.50000 1467660.00000 8.57980 0.03980 67.55790 65.63290 0.17210 4.18420 2.60000 4.31100 3.91760 3207.71045
 12231.00000 1467720.00000 8.57000 0.04000 65.88910 63.43750 0.15750 4.22000 2.59010 3.93300 3.71160 3207.80203
 12231.50000 1467780.00000 8.57000 0.04000 65.19540 60.93340 0.13870 3.91000 2.59990 3.91780 3.72860 3207.89361
 12232.00000 1467840.00000 8.56020 0.04000 66.67090 57.63930 0.13300 3.72420 2.58980 3.64730 3.54770 3207.98519
 12232.50000 1467900.00000 8.56980 0.04000 67.92160 57.61070 0.12740 3.04760 2.58030 3.53300 3.45250 3208.07677
 12233.00000 1467960.00000 8.55000 0.04000 69.54510 54.77060 0.12260 3.05000 2.55030 3.54980 3.45000 3208.16835
 12233.50000 1468020.00000 8.56000 0.04000 71.59480 53.49960 0.12310 2.90000 2.52000 3.60960 3.26950 3208.25993
 12234.00000 1468080.00000 8.56000 0.04000 72.98110 49.64200 0.11350 2.74980 2.51980 3.52520 3.17700 3208.35151
 12234.50000 1468140.00000 8.56000 0.04000 72.80850 46.87970 0.11020 2.74030 2.51030 3.29660 3.03410 3208.44310
 12235.00000 1468200.00000 8.59000 0.03010 72.55850 46.02050 0.10270 2.98000 2.50010 2.89530 2.65510 3208.53468
 12235.50000 1468260.00000 8.61000 0.03000 72.37570 45.39000 0.11030 3.05000 2.50000 2.76000 2.61000 3208.62626
 12236.00000 1468320.00000 8.64900 0.03020 71.70020 48.75300 0.10580 3.24400 2.48040 2.45440 2.44110 3208.71784
 12236.50000 1468380.00000 8.59180 0.03970 69.70590 51.63910 0.11160 3.46320 2.49940 2.69250 2.49820 3208.80942
 12237.00000 1468440.00000 8.57030 0.04980 69.11120 58.39170 0.11210 3.17490 2.50000 3.00500 2.95260 3208.90100
 12237.50000 1468500.00000 8.54000 0.05000 70.16600 63.64000 0.11120 2.89000 2.52000 3.17000 3.43000 3208.99258
