~Version ---------------------------------------------------
VERS     .                             2.0 : CWLS log ASCII Standard -VERSION 2.0
WRAP     .                              NO : One Line per depth step
PROD     .                    Schlumberger : LAS Producer
PROG     .               DLIS to ASCII 2.3 : LAS Program name and version
CREA     .                   2019/04/03 19 : 51                          :LAS Creation date {YYYY/MM/DD hh:mm}
DLIS_CREA.                  2009-Feb-18 14 : 44                          :DLIS Creation date and time {YYYY-MMM-DD hh:mm}
SOURCE   . WLC_PETRO_COMPUTED_INPUT_1.DLIS : DLIS File Name
FILE-ID  .                   INPUT.logdata : File Identification Number
~Well ------------------------------------------------------
STRT.F                 1382.0 : START DEPTH
STOP.F                12441.0 : STOP DEPTH
STEP.F                    0.5 : STEP
NULL.                 -999.25 : NULL VALUE
COMP.                         : COMPANY
WELL.                15/9-F-5 : WELL
FLD .                   VOLVE : FIELD
LOC .                         : LOCATION
CNTY.         MAERSK INSPIRER : COUNTY
STAT.                         : STATE
CTRY.                         : COUNTRY
API .                         : API NUMBER
UWI .                         : UNIQUE WELL ID
DATE.                         : LOG DATE
SRVC. CROCKER DATA PROCESSING : SERVICE COMPANY
LATI.DEG                      : LATITUDE
LONG.DEG                      : LONGITUDE
GDAT.                         : GeoDetic Datum
~Curve Information -----------------------------------------
DEPTH.F            : DEPTH (BOREHOLE) {F10.1}
DEPTH..1IN         : Measured Depth {I11}
CALI .INCHES       : CALI:UNKNOWN:rC:NONE:v1 {F13.4}
DRHO .G/C3         : DRHO:UNKNOWN:rC:NONE:v1 {F13.4}
DT   .US/F         : DT:UNKNOWN:rC:NONE:v1 {F13.4}
GR   .API          : GR:UNKNOWN:rC:NONE:v1 {F13.4}
NPHI .V/V_DECIMAL  : NPHI:UNKNOWN:rC:NONE:v1 {F13.4}
RD   .UNKNOWN      : RD:UNKNOWN:rC:NONE:v1 {F13.4}
RHOB .G/C3         : RHOB:UNKNOWN:rC:NONE:v1 {F13.4}
RS   .UNKNOWN      : RS:UNKNOWN:rC:NONE:v1 {F13.4}
RT   .OHMM         : RT:UNKNOWN:rC:NONE:v1 {F13.4}
TVD  .M            : True Vertical Depth from PyLasMech
~Params ----------------------------------------------------
WN  .        15/9-F-5 : Well Name
FN  .           VOLVE : Field
CTRY.          NORWAY : Country
COUN. MAERSK INSPIRER : County or Rig name
PDAT.             MSL : Perm. Datum
ELZ .M            0.0 : Elev. Log Zero (wrt EPD)
RUN .                 : RUN NUMBER
EPD .                 : Elevation of Permanent Datum above Mean Sea Level
LMF .                 : Logging Measured From (Name of Logging Elevation Reference)
APD .                 : Elevation of Depth Reference (LMF) above Permanent Datum
~Other -----------------------------------------------------
~ASCII -----------------------------------------------------
# ...
 11775.00000 1413000.00000 8.50000 0.04000 71.66390 44.16000 0.17780 7.49000 2.45000 6.70000 7.57000 3127.28603
 11775.50000 1413060.00000 8.48000 0.04000 74.27090 44.11000 0.18380 7.03700 2.38900 6.58660 6.74520 3127.37488
 11776.00000 1413120.00000 8.48060 0.04030 79.65240 45.39340 0.20830 6.85610 2.32880 6.37040 6.43980 3127.46374
 11776.50000 1413180.00000 8.49970 0.04980 80.00010 47.08880 0.24180 6.73230 2.29070 6.06560 6.11600 3127.55260
 11777.00000 1413240.00000 8.46000 0.04000 79.63750 50.14000 0.23570 6.75000 2.24000 5.93000 5.89000 3127.64146
 11777.50000 1413300.00000 8.49000 0.04010 83.91280 51.79050 0.25150 6.85000 2.20970 5.74830 5.73950 3127.73031
 11778.00000 1413360.00000 8.48920 0.04970 92.23620 50.27570 0.26230 6.72280 2.18970 5.61810 5.69750 3127.81917
 11778.50000 1413420.00000 8.46060 0.04020 92.05350 47.70400 0.26970 6.81800 2.18020 5.55140 5.61180 3127.90803
 11779.00000 1413480.00000 8.48000 0.04000 83.22920 47.31180 0.26800 7.32000 2.18000 5.55000 5.65970 3127.99689
 11779.50000 1413540.00000 8.47000 0.04000 83.11810 47.45910 0.25880 7.55000 2.18020 5.67070 5.94120 3128.08574
 11780.00000 1413600.00000 8.48950 0.04000 82.94820 47.35300 0.24380 7.81670 2.20080 5.74850 6.06270 3128.17460
 11780.50000 1413660.00000 8.47040 0.04000 79.86560 46.32430 0.23420 8.07400 2.22930 6.07240 6.54850 3128.26346
 11781.00000 1413720.00000 8.46000 0.04990 73.30090 46.15120 0.20950 8.28000 2.28950 6.25860 6.95680 3128.35232
 11781.50000 1413780.00000 8.50000 0.06000 69.42870 47.81200 0.20730 8.58000 2.34020 6.49100 7.29890 3128.44117
 11782.00000 1413840.00000 8.46020 0.05980 69.84750 46.84880 0.20650 8.86780 2.37000 6.63690 8.40990 3128.53003
 11782.50000 1413900.00000 8.46970 0.05030 73.00810 48.06800 0.20850 9.60050 2.37000 7.35130 8.82900 3128.61889
 11783.00000 1413960.00000 8.49000 0.04010 71.34280 47.92190 0.22290 10.21000 2.34030 8.68580 9.92830 3128.70775
 11783.50000 1414020.00000 8.47000 0.03000 62.63670 50.03610 0.17910 10.81000 2.32990 10.09800 11.05620 3128.79660
 11784.00000 1414080.00000 8.49060 0.02980 59.46100 51.13340 0.17310 12.11180 2.32060 11.62620 12.25300 3128.88546
 11784.50000 1414140.00000 8.51920 0.02030 58.46630 48.91410 0.16100 12.19760 2.34920 13.35020 14.30090 3128.97432
 11785.00000 1414200.00000 8.54000 0.01010 54.45390 47.94230 0.12810 12.09000 2.37960 15.06750 14.21200 3129.06318
 11785.50000 1414260.00000 8.52000 0.01000 52.58460 47.50000 0.11130 12.94000 2.44000 15.81000 11.26000 3129.15203
 11786.00000 1414320.00000 8.52980 0.02050 52.58460 50.27660 0.09770 12.41660 2.52160 14.74760 12.12930 3129.24089
 11786.50000 1414380.00000 8.52030 0.04910 52.58460 51.18150 0.09080 12.78830 2.60730 14.07130 11.54830 3129.32975
 11787.00000 1414440.00000 8.52980 0.05000 53.72130 49.69460 0.08340 13.26270 2.66900 12.04260 10.04420 3129.41861
 11787.50000 1414500.00000 8.53000 0.05000 56.80430 46.80000 0.07860 13.40000 2.70000 13.38000 11.04000 3129.50746
 11788.00000 1414560.00000 8.52030 0.03980 56.47780 44.21310 0.07430 12.80370 2.69980 14.13690 12.28580 3129.59632
 11788.50000 1414620.00000 8.53940 0.03000 55.04220 41.31020 0.06450 13.00320 2.68940 13.30750 12.02490 3129.68518
 11789.00000 1414680.00000 8.52040 0.03000 53.86580 40.68150 0.06270 12.17540 2.67040 12.59310 11.86300 3129.77404
 11789.50000 1414740.00000 8.53000 0.02000 53.06520 40.21000 0.07410 11.75000 2.67000 12.08000 11.39000 3129.86289
 11790.00000 1414800.00000 8.53000 0.01990 53.32240 41.47520 0.07840 11.36000 2.63960 11.44710 11.08240 3129.95175
 11790.50000 1414860.00000 8.52000 0.00970 58.22440 42.60550 0.08200 11.77000 2.60920 11.21760 11.25970 3130.04061
 11791.00000 1414920.00000 8.52000 0.00020 64.23030 42.79600 0.10620 11.77000 2.58060 10.78900 11.25020 3130.12947
 11791.50000 1414980.00000 8.56000 0.00990 67.28100 43.96380 0.10940 11.26000 2.54020 9.99420 11.79710 3130.21832
 11792.00000 1415040.00000 8.54000 0.01020 64.87870 43.21090 0.11720 10.91000 2.49990 9.30700 11.20950 3130.30718
 11792.50000 1415100.00000 8.53000 0.03020 60.92300 45.15920 0.13010 11.07340 2.49000 9.01520 10.22850 3130.39604
 11793.00000 1415160.00000 8.53000 0.03980 57.78340 45.51170 0.13710 11.20690 2.49000 8.45330 9.79030 3130.48489
 11793.50000 1415220.00000 8.56000 0.04990 60.19180 46.27390 0.12910 11.36000 2.49000 7.85470 8.87730 3130.57375
 11794.00000 1415280.00000 8.52000 0.04980 65.38780 46.12060 0.15510 11.26000 2.47980 7.44920 8.24210 3130.66261
 11794.50000 1415340.00000 8.57980 0.02000 68.25080 46.20980 0.15660 11.30110 2.45980 7.37430 8.54190 3130.75147
 11795.00000 1415400.00000 8.57030 0.02000 66.96460 47.04800 0.14220 10.93000 2.45020 8.40300 10.31350 3130.84032
 11795.50000 1415460.00000 8.56000 0.02000 59.90420 46.82270 0.15080 10.90000 2.48960 8.49930 10.34020 3130.92918
 11796.00000 1415520.00000 8.55000 0.03010 59.07500 46.14500 0.13310 11.11000 2.54040 8.85170 9.84370 3131.01804
 11796.50000 1415580.00000 8.51000 0.04000 63.48310 45.17100 0.12240 11.32850 2.60980 9.15840 10.53660 3131.10690
 11797.00000 1415640.00000 8.51000 0.04000 57.03610 42.83740 0.11070 11.73830 2.60030 9.08220 10.85090 3131.19575
 11797.50000 1415700.00000 8.52000 0.04000 64.03960 42.04970 0.11780 12.14000 2.58030 9.24770 11.49150 3131.28461
 11798.00000 1415760.00000 8.55000 0.03000 69.22300 39.42000 0.12220 12.32000 2.51000 10.03000 11.81000 3131.37347
 11798.50000 1415820.00000 8.55960 0.04020 60.31010 41.77390 0.12950 13.04770 2.45980 10.48950 12.31300 3131.46233
 11799.00000 1415880.00000 8.54060 0.04970 57.04150 40.89760 0.12990 13.45690 2.45030 10.46090 13.01780 3131.55118
 11799.50000 1415940.00000 8.54000 0.05980 57.08510 40.54530 0.12950 13.54870 2.46970 10.59780 12.88260 3131.64004
 11800.00000 1416000.00000 8.49000 0.06000 73.22150 37.97000 0.12780 14.13000 2.50000 11.20000 13.50000 3131.72890
 11800.50000 1416060.00000 8.51000 0.05980 83.69840 36.93140 0.12170 14.06300 2.55060 11.57640 12.88180 3131.81776
 11801.00000 1416120.00000 8.51030 0.05000 70.82280 40.10110 0.10610 14.25700 2.59180 12.00780 12.39440 3131.90661
 11801.50000 1416180.00000 8.51980 0.05000 66.72760 40.45350 0.10600 14.47590 2.64900 13.20790 12.85160 3131.99547
 11802.00000 1416240.00000 8.53000 0.05000 64.61280 41.22000 0.09760 14.56000 2.68000 14.65000 14.35000 3132.08433
 11802.50000 1416300.00000 8.53030 0.05000 54.43280 38.39650 0.08740 15.36170 2.71990 15.96400 15.09830 3132.17319
 11803.00000 1416360.00000 8.55030 0.05000 53.79600 38.14440 0.08850 15.48850 2.71030 17.04590 15.72180 3132.26204
 11803.50000 1416420.00000 8.55980 0.05000 60.04860 38.29680 0.08220 15.78390 2.71980 18.63660 16.13140 3132.35090
 11804.00000 1416480.00000 8.54000 0.04010 66.30110 38.21050 0.07760 16.12000 2.69020 19.29660 16.32900 3132.43976
 11804.50000 1416540.00000 8.54000 0.00990 67.70240 35.65020 0.09060 16.63000 2.61870 21.23940 17.38410 3132.52862
 11805.00000 1416600.00000 8.56950 0.00030 71.56030 34.72870 0.09150 17.58970 2.49700 19.32670 16.84200 3132.61747
 11805.50000 1416660.00000 8.55050 0.00980 70.88190 34.30010 0.10170 17.95130 2.38270 19.20290 16.91820 3132.70633
 11806.00000 1416720.00000 8.56000 0.02980 69.03610 38.48620 0.10840 17.75000 2.32050 19.36860 16.95970 3132.79519
 11806.50000 1416780.00000 8.53000 0.03990 69.33870 37.20520 0.10790 18.03000 2.26980 18.95670 16.95210 3132.88405
 11807.00000 1416840.00000 8.52960 0.03000 69.81310 36.57830 0.11070 18.51670 2.23980 18.53870 17.21070 3132.97290
 11807.50000 1416900.00000 8.51050 0.03000 69.20400 35.23520 0.11130 18.80260 2.23020 18.06250 17.23930 3133.06176
 11808.00000 1416960.00000 8.53000 0.03990 68.23920 35.23960 0.12110 18.85000 2.23000 17.19920 17.27960 3133.15062
 11808.50000 1417020.00000 8.50000 0.05010 64.91560 35.78540 0.15100 19.50000 2.23000 16.73740 16.55510 3133.23948
 11809.00000 1417080.00000 8.45120 0.05980 59.04560 34.95480 0.16300 21.20270 2.23000 16.24620 17.51560 3133.32833
 11809.50000 1417140.00000 8.50830 0.05030 55.52390 36.13590 0.17980 21.32640 2.23000 16.06520 18.25860 3133.41719
 11810.00000 1417200.00000 8.50000 0.04010 55.34440 35.56810 0.18830 22.52000 2.23990 15.55680 20.45070 3133.50605
