~Version ---------------------------------------------------
VERS     .                             2.0 : CWLS log ASCII Standard -VERSION 2.0
WRAP     .                              NO : One Line per depth step
PROD     .                    Schlumberger : LAS Producer
PROG     .               DLIS to ASCII 2.3 : LAS Program name and version
CREA     .                   2019/04/03 19 : 50                          :LAS Creation date {YYYY/MM/DD hh:mm}
DLIS_CREA.                  2009-Feb-18 14 : 26                          :DLIS Creation date and time {YYYY-MMM-DD hh:mm}
SOURCE   . WLC_PETRO_COMPUTED_INPUT_1.DLIS : DLIS File Name
FILE-ID  .                   INPUT.logdata : File Identification Number
~Well ------------------------------------------------------
STRT.F                  657.0 : START DEPTH
STOP.F                11567.5 : STOP DEPTH
STEP.F                    0.5 : STEP
NULL.                 -999.25 : NULL VALUE
COMP.            STATOILHYDRO : COMPANY
WELL.                15/9-F-4 : WELL
FLD .                   VOLVE : FIELD
LOC .                         : LOCATION
CNTY.         MAERSK INSPIRER : COUNTY
STAT.                         : STATE
CTRY.                         : COUNTRY
API .                         : API NUMBER
UWI .                         : UNIQUE WELL ID
DATE.                         : LOG DATE
SRVC. CROCKER DATA PROCESSING : SERVICE COMPANY
LATI.DEG                      : LATITUDE
LONG.DEG                      : LONGITUDE
GDAT.                         : GeoDetic Datum
~Curve Information -----------------------------------------
DEPTH.F            : DEPTH (BOREHOLE) {F10.1}
DEPTH..1IN         : {I11}
DT   .US/F         : {F13.4}
DTS  .US/F         : {F13.4}
GR   .API          : {F13.4}
NPHI .V/V_DECIMAL  : {F13.4}
RD   .UNKNOWN      : {F13.4}
RHOB .G/C3         : {F13.4}
RS   .UNKNOWN      : {F13.4}
RT   .OHMM         : {F13.4}
TVD  .M            : True Vertical Depth from PyLasMech
~Params ----------------------------------------------------
CN  .    STATOILHYDRO : Company
WN  .        15/9-F-4 : Well Name
FN  .           VOLVE : Field
CTRY.          NORWAY : Country
COUN. MAERSK INSPIRER : County or Rig name
PDAT.             MSL : Perm. Datum
ELZ .M            0.0 : Elev. Log Zero (wrt EPD)
RUN .                 : RUN NUMBER
EPD .                 : Elevation of Permanent Datum above Mean Sea Level
LMF .                 : Logging Measured From (Name of Logging Elevation Reference)
APD .                 : Elevation of Depth Reference (LMF) above Permanent Datum
~Other -----------------------------------------------------
~ASCII -----------------------------------------------------
# ...
 9522.00000 1142640.00000 67.89030 132.97700 14.59870 0.11730 3.99860 2.56600 3.38930 3.48450 -999.25
 9522.50000 1142700.00000 67.64420 131.89740 14.07700 0.10320 3.91070 2.55250 3.20210 3.22830 -999.25
 9523.00000 1142760.00000 66.92070 131.86040 13.58490 0.10870 3.76220 2.55450 3.36380 3.36340 -999.25
 9523.50000 1142820.00000 64.90260 129.84690 14.38700 0.10780 3.70050 2.55150 3.42020 3.24640 -999.25
 9524.00000 1142880.00000 63.99370 127.78140 14.24370 0.09980 3.57170 2.55850 3.50650 3.44270 -999.25
 9524.50000 1142940.00000 64.29550 126.40180 14.72790 0.10390 3.56590 2.55450 3.66030 3.54280 -999.25
 9525.00000 1143000.00000 63.37810 126.43880 13.76670 0.09740 3.47520 2.54510 3.55030 3.61380 -999.25
 9525.50000 1143060.00000 64.07550 127.79120 11.76590 0.10550 3.37380 2.52610 3.49130 3.47170 -999.25
 9526.00000 1143120.00000 64.58390 127.86220 10.30570 0.10680 3.45740 2.51450 3.26160 3.31690 -999.25
 9526.50000 1143180.00000 65.35670 128.58300 10.50420 0.11190 3.46940 2.51590 3.06240 3.05560 -999.25
 9527.00000 1143240.00000 66.79030 129.21610 12.39560 0.12150 3.45080 2.53050 3.19130 3.13330 -999.25
 9527.50000 1143300.00000 66.01950 129.38150 13.41170 0.12290 3.44400 2.53600 3.19130 3.19520 -999.25
 9528.00000 1143360.00000 65.24670 127.74590 13.08170 0.10860 3.38800 2.52900 3.25940 3.35770 -999.25
 9528.50000 1143420.00000 63.36890 126.49100 12.17040 0.11320 3.39000 2.52820 3.20120 3.35010 -999.25
 9529.00000 1143480.00000 63.18130 127.02590 11.40710 0.11290 3.64920 2.52500 3.12750 2.98360 -999.25
 9529.50000 1143540.00000 64.39630 127.05460 10.94230 0.10970 3.51830 2.52530 3.23580 3.41250 -999.25
 9530.00000 1143600.00000 66.15210 127.80630 10.48610 0.12100 3.60560 2.52800 3.28930 3.29080 -999.25
 9530.50000 1143660.00000 66.66610 126.19410 10.78460 0.11420 3.66780 2.53430 3.33450 3.35520 -999.25
 9531.00000 1143720.00000 65.01890 129.69210 12.63240 0.10760 3.74810 2.54440 3.70020 3.58850 -999.25
 9531.50000 1143780.00000 65.00130 130.24960 13.60520 0.09860 3.87440 2.54200 3.75740 3.61030 -999.25
 9532.00000 1143840.00000 63.54030 126.13130 13.18540 0.09450 3.91200 2.55680 4.26010 4.06650 -999.25
 9532.50000 1143900.00000 61.55460 124.06530 10.60000 0.09210 3.99730 2.55340 4.42110 4.24790 -999.25
 9533.00000 1143960.00000 60.18590 123.83520 9.12490 0.09030 4.03070 2.55730 4.25720 4.45610 -999.25
 9533.50000 1144020.00000 60.53070 123.89520 9.50370 0.09420 4.18350 2.53330 4.10860 4.02840 -999.25
 9534.00000 1144080.00000 61.19570 124.19240 10.39870 0.09490 4.24300 2.53630 3.85160 3.96770 -999.25
 9534.50000 1144140.00000 62.16380 124.85600 10.20800 0.10190 4.26570 2.53110 3.79030 3.83270 -999.25
 9535.00000 1144200.00000 62.96770 126.01580 10.30770 0.10230 4.34100 2.53810 3.76880 3.75400 -999.25
 9535.50000 1144260.00000 63.13900 126.08530 10.27430 0.10090 4.30710 2.55410 4.09410 4.03200 -999.25
 9536.00000 1144320.00000 62.17860 125.41740 11.18260 0.09170 4.37500 2.56400 4.35760 4.22530 -999.25
 9536.50000 1144380.00000 61.17030 124.76610 11.08790 0.08910 4.40770 2.58150 4.46340 4.38400 -999.25
 9537.00000 1144440.00000 61.22810 123.88820 12.12210 0.08370 4.41710 2.57200 4.57270 4.55240 -999.25
 9537.50000 1144500.00000 62.32110 124.32790 12.78080 0.09420 4.44780 2.57680 4.40940 4.41790 -999.25
 9538.00000 1144560.00000 64.05780 124.96110 12.53220 0.09770 4.48830 2.56900 4.30270 4.21710 -999.25
 9538.50000 1144620.00000 63.24620 125.41740 12.01030 0.08800 4.40000 2.57430 4.44470 4.38320 -999.25
 9539.00000 1144680.00000 62.51430 125.13630 11.36110 0.08100 4.34530 2.57050 4.50130 4.43250 -999.25
 9539.50000 1144740.00000 61.23730 125.13630 12.53510 0.08850 4.23710 2.56850 4.54010 4.43180 -999.25
 9540.00000 1144800.00000 62.79560 125.45370 12.86030 0.09590 4.16340 2.56040 4.23710 4.25050 -999.25
 9540.50000 1144860.00000 63.94500 126.56120 12.99500 0.09690 4.07030 2.55490 4.10020 4.13210 -999.25
 9541.00000 1144920.00000 64.83700 127.26390 12.20260 0.09490 3.96550 2.56260 3.96330 4.10230 -999.25
 9541.50000 1144980.00000 63.40130 126.52350 11.10110 0.09140 3.88430 2.56010 4.01120 3.84150 -999.25
 9542.00000 1145040.00000 62.45010 124.55610 9.92230 0.09580 3.55200 2.57560 4.22760 3.98680 -999.25
 9542.50000 1145100.00000 62.21250 124.52970 9.12360 0.09920 3.57610 2.55910 3.72440 3.56670 -999.25
 9543.00000 1145160.00000 62.67290 124.64450 8.72720 0.09820 3.34790 2.55190 3.43550 3.46520 -999.25
 9543.50000 1145220.00000 64.09240 126.14120 9.51530 0.10940 3.18220 2.52270 3.23050 3.27110 -999.25
 9544.00000 1145280.00000 65.84110 129.28710 10.24920 0.12680 3.11870 2.49750 2.79530 2.83360 -999.25
 9544.50000 1145340.00000 67.77530 130.81630 11.30370 0.13540 2.94950 2.49800 2.55760 2.59720 -999.25
 9545.00000 1145400.00000 67.36490 131.62460 10.63300 0.13000 2.99180 2.49050 2.32220 2.17700 -999.25
 9545.50000 1145460.00000 66.72470 131.64130 10.28310 0.13090 2.87270 2.50430 2.57920 2.59470 -999.25
 9546.00000 1145520.00000 65.79740 130.30400 9.93180 0.13430 2.84060 2.49900 2.50120 2.48620 -999.25
 9546.50000 1145580.00000 64.80460 128.14180 10.01820 0.12810 2.97150 2.51000 2.69630 2.53160 -999.25
 9547.00000 1145640.00000 64.08320 126.71840 9.37990 0.11630 2.88570 2.51270 2.87230 3.08100 -999.25
 9547.50000 1145700.00000 64.30530 126.45550 9.96040 0.11840 2.96460 2.51380 2.90140 3.18160 -999.25
 9548.00000 1145760.00000 65.19170 127.45880 10.05360 0.13040 3.13960 2.50510 2.78480 2.86120 -999.25
 9548.50000 1145820.00000 66.25010 129.32190 11.13750 0.12280 3.22290 2.51210 2.80940 2.89540 -999.25
 9549.00000 1145880.00000 66.84810 130.16500 11.10850 0.12230 3.35630 2.51400 3.00960 2.93690 -999.25
 9549.50000 1145940.00000 66.22400 129.58330 10.63150 0.11240 3.45860 2.52800 3.15100 3.04340 -999.25
 9550.00000 1146000.00000 64.57330 126.97980 9.43460 0.11260 3.52500 2.53660 3.48440 3.41880 -999.25
 9550.50000 1146060.00000 62.10530 123.74620 8.14200 0.09920 3.55290 2.54430 3.76750 3.69270 -999.25
 9551.00000 1146120.00000 61.62160 122.83350 8.59900 0.09140 3.64700 2.55350 4.06460 3.88360 -999.25
 9551.50000 1146180.00000 61.67940 123.68650 9.72890 0.09750 3.66960 2.55030 4.23520 4.14850 -999.25
 9552.00000 1146240.00000 62.37750 124.16850 11.08950 0.10540 3.70970 2.55470 4.19300 4.10900 -999.25
 9552.50000 1146300.00000 63.18840 123.50140 11.13560 0.10150 3.81550 2.55880 4.01260 3.99460 -999.25
 9553.00000 1146360.00000 62.87740 123.96760 11.20030 0.09070 3.75050 2.54850 4.09910 3.96390 -999.25
 9553.50000 1146420.00000 63.34490 124.32720 9.30480 0.10090 3.70150 2.55380 3.96830 3.89310 -999.25
 9554.00000 1146480.00000 63.54170 124.05520 8.54770 0.10960 3.64600 2.54220 3.84160 3.83840 -999.25
 9554.50000 1146540.00000 63.44290 124.26600 7.78410 0.10080 3.64640 2.53750 3.34920 3.36710 -999.25
 9555.00000 1146600.00000 63.20530 124.08090 9.90360 0.10770 3.36730 2.52000 3.33750 3.51870 -999.25
 9555.50000 1146660.00000 63.22150 123.93280 10.51550 0.11870 3.29040 2.49830 3.21750 3.17390 -999.25
 9556.00000 1146720.00000 63.31250 125.13710 10.86430 0.12620 3.25380 2.51040 2.82640 2.79220 -999.25
 9556.50000 1146780.00000 64.29760 126.91480 9.40000 0.12900 2.95450 2.49950 2.86560 2.96760 -999.25
 9557.00000 1146840.00000 65.54430 129.98140 9.84520 0.12940 2.98180 2.52110 2.67110 2.59560 -999.25
 9557.50000 1146900.00000 65.87150 131.51130 9.68210 0.13070 2.82250 2.51310 2.68340 2.72640 -999.25
 9558.00000 1146960.00000 66.28470 133.01400 10.73370 0.12620 2.76070 2.51860 2.66350 2.66830 -999.25
 9558.50000 1147020.00000 68.65320 133.88440 11.40690 0.13130 2.71140 2.51190 2.63850 2.62900 -999.25
 9559.00000 1147080.00000 68.54750 134.56960 11.79800 0.12910 2.68190 2.52290 2.61220 2.53680 -999.25
 9559.50000 1147140.00000 69.18700 134.76300 11.76460 0.11990 2.60440 2.53670 2.63450 2.54860 -999.25
 9560.00000 1147200.00000 69.49100 135.30020 11.96370 0.12330 2.58500 2.52930 2.60330 2.53160 -999.25
 9560.50000 1147260.00000 70.12280 136.64500 13.77070 0.12850 2.49020 2.52390 2.55170 2.51890 -999.25
 9561.00000 1147320.00000 70.63120 137.76160 14.76960 0.13800 2.46710 2.50230 2.45800 2.44610 -999.25
