~Version ---------------------------------------------------
VERS     .                             2.0 : CWLS log ASCII Standard -VERSION 2.0
WRAP     .                              NO : One Line per depth step
PROD     .                    Schlumberger : LAS Producer
PROG     .               DLIS to ASCII 2.3 : LAS Program name and version
CREA     .                   2019/04/03 19 : 51                          :LAS Creation date {YYYY/MM/DD hh:mm}
DLIS_CREA.                  2009-Feb-18 14 : 44                          :DLIS Creation date and time {YYYY-MMM-DD hh:mm}
SOURCE   . WLC_PETRO_COMPUTED_INPUT_1.DLIS : DLIS File Name
FILE-ID  .                   INPUT.logdata : File Identification Number
~Well ------------------------------------------------------
STRT.F                 1382.0 : START DEPTH
STOP.F                12441.0 : STOP DEPTH
STEP.F                    0.5 : STEP
NULL.                 -999.25 : NULL VALUE
COMP.                         : COMPANY
WELL.                15/9-F-5 : WELL
FLD .                   VOLVE : FIELD
LOC .                         : LOCATION
CNTY.         MAERSK INSPIRER : COUNTY
STAT.                         : STATE
CTRY.                         : COUNTRY
API .                         : API NUMBER
UWI .                         : UNIQUE WELL ID
DATE.                         : LOG DATE
SRVC. CROCKER DATA PROCESSING : SERVICE COMPANY
LATI.DEG                      : LATITUDE
LONG.DEG                      : LONGITUDE
GDAT.                         : GeoDetic Datum
~Curve Information -----------------------------------------
DEPTH.F            : DEPTH (BOREHOLE) {F10.1}
DEPTH..1IN         : Measured Depth {I11}
CALI .INCHES       : CALI:UNKNOWN:rC:NONE:v1 {F13.4}
DRHO .G/C3         : DRHO:UNKNOWN:rC:NONE:v1 {F13.4}
DT   .US/F         : DT:UNKNOWN:rC:NONE:v1 {F13.4}
GR   .API          : GR:UNKNOWN:rC:NONE:v1 {F13.4}
NPHI .V/V_DECIMAL  : NPHI:UNKNOWN:rC:NONE:v1 {F13.4}
RD   .UNKNOWN      : RD:UNKNOWN:rC:NONE:v1 {F13.4}
RHOB .G/C3         : RHOB:UNKNOWN:rC:NONE:v1 {F13.4}
RS   .UNKNOWN      : RS:UNKNOWN:rC:NONE:v1 {F13.4}
RT   .OHMM         : RT:UNKNOWN:rC:NONE:v1 {F13.4}
TVD  .M            : True Vertical Depth from PyLasMech
~Params ----------------------------------------------------
WN  .        15/9-F-5 : Well Name
FN  .           VOLVE : Field
CTRY.          NORWAY : Country
COUN. MAERSK INSPIRER : County or Rig name
PDAT.             MSL : Perm. Datum
ELZ .M            0.0 : Elev. Log Zero (wrt EPD)
RUN .                 : RUN NUMBER
EPD .                 : Elevation of Permanent Datum above Mean Sea Level
LMF .                 : Logging Measured From (Name of Logging Elevation Reference)
APD .                 : Elevation of Depth Reference (LMF) above Permanent Datum
~Other -----------------------------------------------------
~ASCII -----------------------------------------------------
# ...
 9915.50000 1189860.00000 -999.25 0.08800 72.26050 13.37150 0.15470 -999.25 2.54000 2.49150 2.54600 2691.61167
 9916.00000 1189920.00000 -999.25 0.08530 71.44490 13.14100 0.13660 -999.25 2.56000 2.43400 2.54600 2691.73400
 9916.50000 1189980.00000 -999.25 0.08270 68.59750 13.60200 0.11860 -999.25 2.58000 2.51070 2.58530 2691.85633
 9917.00000 1190040.00000 -999.25 0.08000 67.99430 14.06300 0.10050 -999.25 2.60000 2.58730 2.62470 2691.97865
 9917.50000 1190100.00000 -999.25 0.07330 72.11280 13.60970 0.12190 -999.25 2.56330 2.66400 2.66400 2692.10098
 9918.00000 1190160.00000 -999.25 0.06670 74.35880 13.15650 0.14330 -999.25 2.52670 2.60650 2.60650 2692.22331
 9918.50000 1190220.00000 -999.25 0.06000 71.14630 12.70320 0.16460 -999.25 2.49000 2.54900 2.54900 2692.34563
 9919.00000 1190280.00000 -999.25 0.05600 66.05790 12.25000 0.15350 -999.25 2.50000 2.49150 2.49150 2692.46796
 9919.50000 1190340.00000 -999.25 0.05200 61.76640 10.92200 0.14230 -999.25 2.51000 2.43400 2.43400 2692.59029
 9920.00000 1190400.00000 -999.25 0.04800 61.79400 9.59400 0.13120 -999.25 2.52000 2.51070 2.55170 2692.71261
 9920.50000 1190460.00000 -999.25 0.04700 62.96440 8.26600 0.12000 -999.25 2.52250 2.58730 2.66930 2692.83494
 9921.00000 1190520.00000 -999.25 0.04600 63.55600 9.30770 0.11510 -999.25 2.52500 2.66400 2.78700 2692.95727
 9921.50000 1190580.00000 -999.25 0.04500 64.91220 10.34930 0.11020 -999.25 2.52750 2.76050 2.85280 2693.07960
 9922.00000 1190640.00000 -999.25 0.04400 64.97350 11.39100 0.10520 -999.25 2.53000 2.85700 2.91850 2693.20192
 9922.50000 1190700.00000 -999.25 0.04530 64.49430 11.97430 0.10030 -999.25 2.54670 2.95350 2.98430 2693.32425
 9923.00000 1190760.00000 -999.25 0.04670 65.96290 12.55770 0.10120 -999.25 2.56330 3.05000 3.05000 2693.44658
 9923.50000 1190820.00000 -999.25 0.04800 66.52850 13.14100 0.10210 -999.25 2.58000 3.09700 3.09700 2693.56890
 9924.00000 1190880.00000 -999.25 0.05000 66.05090 13.14100 0.10310 -999.25 2.58000 3.14400 3.14400 2693.69123
 9924.50000 1190940.00000 -999.25 0.05200 65.94440 13.14100 0.10690 -999.25 2.58000 3.19100 3.19100 2693.81356
 9925.00000 1191000.00000 -999.25 0.05400 66.11200 13.14100 0.11080 -999.25 2.58000 3.15580 3.15580 2693.93588
 9925.50000 1191060.00000 -999.25 0.05600 65.52010 13.14100 0.11470 -999.25 2.58000 3.12050 3.12050 2694.05821
 9926.00000 1191120.00000 -999.25 0.05470 66.32990 13.44830 0.11560 -999.25 2.56330 3.08520 3.08520 2694.18054
 9926.50000 1191180.00000 -999.25 0.05330 68.46460 13.75570 0.11650 -999.25 2.54670 3.05000 3.05000 2694.30286
 9927.00000 1191240.00000 -999.25 0.05200 69.05290 14.06300 0.11740 -999.25 2.53000 2.68800 2.63700 2694.42519
 9927.50000 1191300.00000 -999.25 0.06000 72.54230 14.30130 0.13910 -999.25 2.51750 2.32600 2.22400 2694.54752
 9928.00000 1191360.00000 -999.25 0.06800 75.30140 14.53950 0.16080 -999.25 2.50500 2.18800 2.11150 2694.66984
 9928.50000 1191420.00000 -999.25 0.07600 75.65960 14.77780 0.18250 -999.25 2.49250 2.05000 1.99900 2694.79217
 9929.00000 1191480.00000 -999.25 0.08400 74.61800 15.01600 0.17970 -999.25 2.48000 1.91200 1.88650 2694.91450
 9929.50000 1191540.00000 -999.25 0.09330 70.92190 14.69830 0.17690 -999.25 2.49330 1.77400 1.77400 2695.03683
 9930.00000 1191600.00000 -999.25 0.10270 71.87970 14.38070 0.17410 -999.25 2.50670 1.74800 1.77400 2695.15915
 9930.50000 1191660.00000 -999.25 0.11200 74.30400 14.06300 0.16570 -999.25 2.52000 1.72200 1.77400 2695.28148
 9931.00000 1191720.00000 -999.25 0.09900 73.06100 14.30130 0.15740 -999.25 2.52250 1.69600 1.77400 2695.40381
 9931.50000 1191780.00000 -999.25 0.08600 71.78590 14.53950 0.14900 -999.25 2.52500 1.80800 1.89100 2695.52613
 9932.00000 1191840.00000 -999.25 0.07300 70.52340 14.77780 0.14060 -999.25 2.52750 1.92000 2.00800 2695.64846
 9932.50000 1191900.00000 -999.25 0.06000 69.77870 15.01600 0.14430 -999.25 2.53000 2.03200 2.12500 2695.77079
 9933.00000 1191960.00000 -999.25 0.06400 70.11230 14.39100 0.14800 -999.25 2.53000 2.13000 2.15800 2695.89311
 9933.50000 1192020.00000 -999.25 0.06800 70.97990 13.76600 0.14660 -999.25 2.53000 2.22800 2.19100 2696.01544
 9934.00000 1192080.00000 -999.25 0.08200 71.06180 13.14100 0.14510 -999.25 2.52250 2.32600 2.22400 2696.13777
 9934.50000 1192140.00000 -999.25 0.09600 71.62380 13.14100 0.14370 -999.25 2.51500 2.32600 2.25800 2696.26009
 9935.00000 1192200.00000 -999.25 0.11000 70.23890 13.14100 0.14220 -999.25 2.50750 2.32600 2.29200 2696.38242
 9935.50000 1192260.00000 -999.25 0.12400 66.55880 13.14100 0.13520 -999.25 2.50000 2.32600 2.32600 2696.50475
 9936.00000 1192320.00000 -999.25 0.10530 64.94080 13.14100 0.12810 -999.25 2.52000 2.39930 2.38100 2696.62708
 9936.50000 1192380.00000 -999.25 0.08670 68.02830 13.14100 0.12100 -999.25 2.54000 2.47270 2.43600 2696.74940
 9937.00000 1192440.00000 -999.25 0.06800 71.10370 13.14100 0.13280 -999.25 2.56000 2.54600 2.49100 2696.87173
 9937.50000 1192500.00000 -999.25 0.06270 72.25810 13.37150 0.14460 -999.25 2.53000 2.41750 2.54600 2696.99406
 9938.00000 1192560.00000 -999.25 0.05730 74.82770 13.60200 0.15650 -999.25 2.50000 2.28900 2.34470 2697.11638
 9938.50000 1192620.00000 -999.25 0.05200 76.22740 13.83250 0.16090 -999.25 2.47000 2.16050 2.14330 2697.23871
 9939.00000 1192680.00000 -999.25 0.06670 73.28680 14.06300 0.16540 -999.25 2.47670 2.03200 1.94200 2697.36104
 9939.50000 1192740.00000 -999.25 0.08130 70.42350 12.63070 0.16990 -999.25 2.48330 1.87130 1.81130 2697.48336
 9940.00000 1192800.00000 -999.25 0.09600 70.43640 11.19830 0.17030 -999.25 2.49000 1.71070 1.68070 2697.60569
 9940.50000 1192860.00000 -999.25 0.09330 72.68110 9.76600 0.17080 -999.25 2.49330 1.55000 1.55000 2697.72802
 9941.00000 1192920.00000 -999.25 0.09070 74.23690 10.89100 0.17130 -999.25 2.49670 1.57370 1.59870 2697.85034
 9941.50000 1192980.00000 -999.25 0.08800 74.42630 12.01600 0.17170 -999.25 2.50000 1.59730 1.64730 2697.97267
 9942.00000 1193040.00000 -999.25 0.08400 74.26380 13.14100 0.16660 -999.25 2.49330 1.62100 1.69600 2698.09500
 9942.50000 1193100.00000 -999.25 0.08000 73.68990 14.09400 0.16150 -999.25 2.48670 1.67970 1.75750 2698.21732
 9943.00000 1193160.00000 -999.25 0.07600 74.22470 15.04700 0.15640 -999.25 2.48000 1.73850 1.81900 2698.33965
 9943.50000 1193220.00000 -999.25 0.06800 74.35730 16.00000 0.15400 -999.25 2.49250 1.79730 1.88050 2698.46198
 9944.00000 1193280.00000 -999.25 0.06000 73.51050 15.35430 0.15160 -999.25 2.50500 1.85600 1.94200 2698.58431
 9944.50000 1193340.00000 -999.25 0.05200 71.70780 14.70870 0.14910 -999.25 2.51750 1.97100 2.14330 2698.70663
 9945.00000 1193400.00000 -999.25 0.04400 70.21670 14.06300 0.14670 -999.25 2.53000 2.08600 2.34470 2698.82896
 9945.50000 1193460.00000 -999.25 0.05870 69.21680 13.17230 0.14430 -999.25 2.53000 2.20100 2.54600 2698.95129
 9946.00000 1193520.00000 -999.25 0.07330 68.36920 12.28170 0.14190 -999.25 2.53000 2.31600 2.54600 2699.07361
 9946.50000 1193580.00000 -999.25 0.08800 68.50870 11.39100 0.13950 -999.25 2.53000 2.43100 2.54600 2699.19594
 9947.00000 1193640.00000 -999.25 0.08930 68.51820 12.05900 0.14050 -999.25 2.53000 2.54600 2.54600 2699.31827
 9947.50000 1193700.00000 -999.25 0.09070 69.75780 12.72700 0.14150 -999.25 2.53000 2.62630 2.62630 2699.44059
 9948.00000 1193760.00000 -999.25 0.09200 72.16350 13.39500 0.14250 -999.25 2.53000 2.70670 2.70670 2699.56292
 9948.50000 1193820.00000 -999.25 0.08600 71.53280 14.06300 0.11910 -999.25 2.55500 2.78700 2.78700 2699.68525
 9949.00000 1193880.00000 -999.25 0.08000 68.70920 13.17230 0.09560 -999.25 2.58000 2.96010 3.13630 2699.80757
 9949.50000 1193940.00000 -999.25 0.07400 65.46150 12.28170 0.07220 -999.25 2.60500 3.13330 3.48550 2699.92990
 9950.00000 1194000.00000 -999.25 0.06800 61.54250 11.39100 0.07500 -999.25 2.63000 3.30640 3.83470 2700.05223
 9950.50000 1194060.00000 -999.25 0.05600 60.92160 12.28170 0.07790 -999.25 2.61330 3.47960 4.18400 2700.17456
 9951.00000 1194120.00000 -999.25 0.04400 62.86250 13.17230 0.08070 -999.25 2.59670 3.65270 4.12230 2700.29688
 9951.50000 1194180.00000 -999.25 0.03200 66.06380 14.06300 0.08400 -999.25 2.58000 3.82590 4.06070 2700.41921
