~Version ---------------------------------------------------
VERS     .                             2.0 : CWLS log ASCII Standard -VERSION 2.0
WRAP     .                              NO : One Line per depth step
PROD     .                    Schlumberger : LAS Producer
PROG     .               DLIS to ASCII 2.3 : LAS Program name and version
CREA     .                   2019/04/03 19 : 56                          :LAS Creation date {YYYY/MM/DD hh:mm}
DLIS_CREA.                  2009-Feb-18 14 : 31                          :DLIS Creation date and time {YYYY-MMM-DD hh:mm}
SOURCE   . WLC_PETRO_COMPUTED_INPUT_1.DLIS : DLIS File Name
FILE-ID  .                   INPUT.logdata : File Identification Number
~Well ------------------------------------------------------
STRT.F                  566.0 : START DEPTH
STOP.F                12302.0 : STOP DEPTH
STEP.F                    0.5 : STEP
NULL.                 -999.25 : NULL VALUE
COMP.            STATOILHYDRO : COMPANY
WELL.               15/9-F-14 : WELL
FLD .                   VOLVE : FIELD
LOC .                         : LOCATION
CNTY.         MAERSK INSPIRER : COUNTY
STAT.                         : STATE
CTRY.                         : COUNTRY
API .                         : API NUMBER
UWI .                         : UNIQUE WELL ID
DATE.                         : LOG DATE
SRVC. CROCKER DATA PROCESSING : SERVICE COMPANY
LATI.DEG                      : LATITUDE
LONG.DEG                      : LONGITUDE
GDAT.                         : GeoDetic Datum
~Curve Information -----------------------------------------
DEPTH.F            : DEPTH (BOREHOLE) {F10.1}
DEPTH..1IN         : Measured Depth {I11}
DRHO .G/C3         : DRHO:UNKNOWN:rC:NONE:v1 {F13.4}
DT   .US/F         : DT:UNKNOWN:rC:NONE:v2 {F13.4}
DTS  .US/F         : DTS:UNKNOWN:rC:NONE:v1 {F13.4}
GR   .API          : GR:UNKNOWN:rC:NONE:v1 {F13.4}
NPHI .V/V_DECIMAL  : NPHI:UNKNOWN:rC:NONE:v1 {F13.4}
PEF  .B/ELEC       : PEF:UNKNOWN:rC:NONE:v1 {F13.4}
RD   .UNKNOWN      : RD:UNKNOWN:rC:NONE:v1 {F13.4}
RHOB .G/C3         : RHOB:UNKNOWN:rC:NONE:v1 {F13.4}
RS   .UNKNOWN      : RS:UNKNOWN:rC:NONE:v1 {F13.4}
RT   .OHMM         : RT:UNKNOWN:rC:NONE:v1 {F13.4}
TVD  .M            : True Vertical Depth from PyLasMech
~Params ----------------------------------------------------
CN  .    STATOILHYDRO : Company
WN  .       15/9-F-14 : Well Name
FN  .           VOLVE : Field
CTRY.          NORWAY : Country
COUN. MAERSK INSPIRER : County or Rig name
PDAT.             MSL : Perm. Datum
ELZ .M            0.0 : Elev. Log Zero (wrt EPD)
SRVC.         UNKNOWN : Service company
R2  .           INPUT : R2
RUN .                 : RUN NUMBER
EPD .                 : Elevation of Permanent Datum above Mean Sea Level
LMF .                 : Logging Measured From (Name of Logging Elevation Reference)
APD .                 : Elevation of Depth Reference (LMF) above Permanent Datum
~Other -----------------------------------------------------
~ASCII -----------------------------------------------------
# ...
 9330.50000 1119660.00000 0.03360 69.39150 132.17840 21.92620 0.09890 4.77850 4.85550 2.55890 4.93590 4.77930 -999.25
 9331.00000 1119720.00000 0.03420 68.44730 132.07190 21.47850 0.09620 4.94350 4.91740 2.54950 5.02690 4.72080 -999.25
 9331.50000 1119780.00000 0.03730 67.11040 130.92470 22.15540 0.09880 5.00360 4.89110 2.55710 5.03340 4.81430 -999.25
 9332.00000 1119840.00000 0.03650 66.42150 129.89200 20.24620 0.09410 5.08190 4.97320 2.56380 5.05850 4.98730 -999.25
 9332.50000 1119900.00000 0.03590 66.52940 129.58560 19.19610 0.09170 4.98420 4.86620 2.57080 4.96960 4.97390 -999.25
 9333.00000 1119960.00000 0.03210 67.71050 130.43780 18.61550 0.09720 4.95550 4.90370 2.56110 4.89530 4.92250 -999.25
 9333.50000 1120020.00000 0.03630 68.25980 130.93940 19.61490 0.09480 4.98590 4.79250 2.55960 4.55180 4.51470 -999.25
 9334.00000 1120080.00000 0.03840 68.05390 131.42140 19.67250 0.09610 4.98330 4.84590 2.56450 4.47860 4.31680 -999.25
 9334.50000 1120140.00000 0.03480 67.65330 130.51630 19.29430 0.09830 4.94690 4.83220 2.56160 4.51820 4.52230 -999.25
 9335.00000 1120200.00000 0.02590 68.40710 130.11210 19.57460 0.10280 4.83230 4.87700 2.55750 4.55850 4.58930 -999.25
 9335.50000 1120260.00000 0.01380 68.21890 129.73360 20.57290 0.10100 4.64650 4.83080 2.54720 4.55660 4.53090 -999.25
 9336.00000 1120320.00000 0.00970 68.21820 128.70460 22.20140 0.10840 4.41280 4.83140 2.54410 4.40330 4.47210 -999.25
 9336.50000 1120380.00000 0.00570 67.32330 127.35980 22.76110 0.11470 4.28420 4.84100 2.53680 4.42390 4.48190 -999.25
 9337.00000 1120440.00000 0.00680 66.46310 126.42830 23.20150 0.11000 4.32150 4.86910 2.53540 4.32200 4.32120 -999.25
 9337.50000 1120500.00000 0.00790 66.56880 125.53070 21.87080 0.10730 4.45760 4.96160 2.53800 4.42110 4.52270 -999.25
 9338.00000 1120560.00000 0.01020 65.95400 124.13380 20.35340 0.11050 4.56700 4.93800 2.53870 4.62670 4.65590 -999.25
 9338.50000 1120620.00000 0.01250 66.03650 124.54930 18.78640 0.11430 4.70340 4.93500 2.53880 4.61430 4.58240 -999.25
 9339.00000 1120680.00000 0.01650 66.28190 126.50760 17.61010 0.10340 4.71960 5.01270 2.53650 4.51100 4.57820 -999.25
 9339.50000 1120740.00000 0.02450 65.91310 126.50830 17.19920 0.10740 4.84720 5.03430 2.53400 4.42040 4.70110 -999.25
 9340.00000 1120800.00000 0.03060 66.49690 127.52000 16.26670 0.10450 4.85910 5.00060 2.53010 4.29460 4.53860 -999.25
 9340.50000 1120860.00000 0.03920 67.82470 129.05820 14.92440 0.10660 4.91230 5.03770 2.52700 4.23380 4.49030 -999.25
 9341.00000 1120920.00000 0.04710 67.42210 130.20960 14.12640 0.11540 4.97490 4.99920 2.53400 4.23950 4.42590 -999.25
 9341.50000 1120980.00000 0.04780 66.77470 130.70970 13.48310 0.11100 5.07910 5.13320 2.53570 4.22010 4.43600 -999.25
 9342.00000 1121040.00000 0.04060 67.11960 130.06760 14.15820 0.10960 5.03300 5.06470 2.53580 4.32330 4.50950 -999.25
 9342.50000 1121100.00000 0.02750 67.36490 129.50620 15.04660 0.10400 4.76050 5.05740 2.53840 4.48500 4.56720 -999.25
 9343.00000 1121160.00000 0.01690 66.99610 129.64520 17.03610 0.10150 4.59370 5.09160 2.55180 4.54980 4.59570 -999.25
 9343.50000 1121220.00000 0.01350 66.59280 128.75900 20.28500 0.09980 4.58870 5.03340 2.56400 4.58310 4.63600 -999.25
 9344.00000 1121280.00000 0.01210 64.95200 128.20140 22.91410 0.09730 4.67950 4.99540 2.55530 4.57960 4.78600 -999.25
 9344.50000 1121340.00000 0.01280 63.85330 124.29920 25.08700 0.10090 4.75030 5.00910 2.53870 4.53880 4.69990 -999.25
 9345.00000 1121400.00000 0.01430 63.72220 121.64440 24.46800 0.10150 4.92210 5.02230 2.52710 4.50800 4.60900 -999.25
 9345.50000 1121460.00000 0.02190 63.45070 119.73820 21.69440 0.10590 4.99020 5.07540 2.53080 4.50030 4.65510 -999.25
 9346.00000 1121520.00000 0.03210 62.77870 119.47460 20.32130 0.09950 4.91080 5.01100 2.53570 4.57290 4.49250 -999.25
 9346.50000 1121580.00000 0.03600 63.08260 119.62490 19.25530 0.10010 4.82170 5.10460 2.53520 4.52460 4.49020 -999.25
 9347.00000 1121640.00000 0.04030 63.73910 120.87380 21.15000 0.10550 4.86290 4.88830 2.53590 4.63800 4.74310 -999.25
 9347.50000 1121700.00000 0.03970 64.16500 122.05920 21.13910 0.10310 4.90140 4.94000 2.52240 4.75660 4.91320 -999.25
 9348.00000 1121760.00000 0.04280 63.85330 121.79550 22.56530 0.10460 4.78810 4.96690 2.52690 4.61910 5.03730 -999.25
 9348.50000 1121820.00000 0.03440 63.77150 121.89290 21.22820 0.10130 4.67700 4.97230 2.52660 4.73150 5.27620 -999.25
 9349.00000 1121880.00000 0.02980 64.12480 123.29210 21.58550 0.09840 4.73330 5.16010 2.54960 4.96190 4.97410 -999.25
 9349.50000 1121940.00000 0.02740 64.91250 126.41390 20.90200 0.09660 4.88660 4.70710 2.56160 5.04490 5.14700 -999.25
 9350.00000 1122000.00000 0.02840 66.05410 129.77060 23.52280 0.09550 4.97600 4.55960 2.57550 4.94710 4.63900 -999.25
 9350.50000 1122060.00000 0.02570 69.22370 132.96570 26.40900 0.10300 4.84840 4.62680 2.57810 4.93320 5.37910 -999.25
 9351.00000 1122120.00000 0.02410 74.27670 139.59880 33.23000 0.10810 4.66800 4.53880 2.58220 4.78560 5.01780 -999.25
 9351.50000 1122180.00000 0.04220 77.46750 142.89610 44.10660 0.13510 4.95990 4.77250 2.58450 3.89390 4.05500 -999.25
 9352.00000 1122240.00000 0.06070 78.82770 140.56890 57.78190 0.16520 5.33330 4.54320 2.55960 3.29520 3.84900 -999.25
 9352.50000 1122300.00000 0.07900 76.85470 138.08330 69.80040 0.15740 5.52680 4.36880 2.55150 2.77770 2.49010 -999.25
 9353.00000 1122360.00000 0.06760 71.67050 133.06180 71.05030 0.17810 5.36470 4.60690 2.54270 2.45120 2.20000 -999.25
 9353.50000 1122420.00000 0.06120 67.71470 126.77840 62.24400 0.15060 5.11380 4.32510 2.57250 3.76060 4.69560 -999.25
 9354.00000 1122480.00000 0.04530 63.13690 120.70760 48.16210 0.09160 5.04780 4.54810 2.57800 4.25960 4.30980 -999.25
 9354.50000 1122540.00000 0.03430 60.06180 115.54930 35.77770 0.08270 4.82180 4.75960 2.57410 4.73510 4.31760 -999.25
 9355.00000 1122600.00000 0.02990 59.03650 113.06580 27.82570 0.08080 4.81580 4.85350 2.56360 5.42850 5.24030 -999.25
 9355.50000 1122660.00000 0.02380 58.89830 112.32700 21.22420 0.08110 4.91570 4.79700 2.54750 5.27810 5.31430 -999.25
 9356.00000 1122720.00000 0.02890 60.02230 112.90120 17.74630 0.08190 5.06450 5.02600 2.55000 5.21570 5.26940 -999.25
 9356.50000 1122780.00000 0.02340 60.91640 114.60390 14.55620 0.08220 5.08850 5.10510 2.54300 5.36090 5.35300 -999.25
 9357.00000 1122840.00000 0.03040 61.79500 116.94960 12.26280 0.08190 5.14850 5.33560 2.56170 5.50540 5.59670 -999.25
 9357.50000 1122900.00000 0.02950 62.90990 118.66740 11.43350 0.08550 5.27570 5.58730 2.56800 5.55710 5.85420 -999.25
 9358.00000 1122960.00000 0.03330 63.20600 120.61760 13.17170 0.09090 5.33600 5.87260 2.56430 5.44310 5.80330 -999.25
 9358.50000 1123020.00000 0.04860 63.94360 122.09980 16.36780 0.08960 5.48680 6.15930 2.56540 5.42840 5.34670 -999.25
 9359.00000 1123080.00000 0.06990 64.15800 123.15920 18.23930 0.08840 5.79300 6.47450 2.56570 5.72150 6.13170 -999.25
 9359.50000 1123140.00000 0.08300 65.02670 124.17840 19.82500 0.09100 6.03730 6.41580 2.58030 5.69920 6.15230 -999.25
 9360.00000 1123200.00000 0.06570 64.69810 124.24790 21.05220 0.09200 5.91670 6.64980 2.57240 5.92150 6.26810 -999.25
 9360.50000 1123260.00000 0.04350 64.22280 123.55360 22.58980 0.08490 5.47360 6.86220 2.57780 6.03670 6.10180 -999.25
 9361.00000 1123320.00000 0.02920 64.08250 122.46180 21.21140 0.08470 5.23940 6.85890 2.58420 6.40450 6.40220 -999.25
 9361.50000 1123380.00000 0.03410 63.13900 119.75410 19.18890 0.08190 5.20170 7.05260 2.60310 6.95300 7.01690 -999.25
 9362.00000 1123440.00000 0.03840 62.20330 116.83480 17.45260 0.07560 5.26180 7.22680 2.61120 7.46090 7.33770 -999.25
 9362.50000 1123500.00000 0.04100 60.91500 113.02440 17.03080 0.07050 5.25660 7.29760 2.61410 7.87920 7.54370 -999.25
 9363.00000 1123560.00000 0.03890 60.15350 109.27690 16.50350 0.06660 5.19460 7.51050 2.61230 8.65300 8.02900 -999.25
 9363.50000 1123620.00000 0.03760 60.71900 108.12550 15.16250 0.06530 5.16540 7.51540 2.60410 9.05400 8.51540 -999.25
 9364.00000 1123680.00000 0.03080 60.45600 108.06020 13.68860 0.06640 5.11780 7.55750 2.59630 9.02320 8.54060 -999.25
