~Version ---------------------------------------------------
VERS     .                             2.0 : CWLS log ASCII Standard -VERSION 2.0
WRAP     .                              NO : One Line per depth step
PROD     .                    Schlumberger : LAS Producer
PROG     .               DLIS to ASCII 2.3 : LAS Program name and version
CREA     .                   2019/04/03 19 : 56                          :LAS Creation date {YYYY/MM/DD hh:mm}
DLIS_CREA.                  2009-Feb-18 14 : 31                          :DLIS Creation date and time {YYYY-MMM-DD hh:mm}
SOURCE   . WLC_PETRO_COMPUTED_INPUT_1.DLIS : DLIS File Name
FILE-ID  .                   INPUT.logdata : File Identification Number
~Well ------------------------------------------------------
STRT.F                  566.0 : START DEPTH
STOP.F                12302.0 : STOP DEPTH
STEP.F                    0.5 : STEP
NULL.                 -999.25 : NULL VALUE
COMP.            STATOILHYDRO : COMPANY
WELL.               15/9-F-14 : WELL
FLD .                   VOLVE : FIELD
LOC .                         : LOCATION
CNTY.         MAERSK INSPIRER : COUNTY
STAT.                         : STATE
CTRY.                         : COUNTRY
API .                         : API NUMBER
UWI .                         : UNIQUE WELL ID
DATE.                         : LOG DATE
SRVC. CROCKER DATA PROCESSING : SERVICE COMPANY
LATI.DEG                      : LATITUDE
LONG.DEG                      : LONGITUDE
GDAT.                         : GeoDetic Datum
~Curve Information -----------------------------------------
DEPTH.F            : DEPTH (BOREHOLE) {F10.1}
DEPTH..1IN         : Measured Depth {I11}
DRHO .G/C3         : DRHO:UNKNOWN:rC:NONE:v1 {F13.4}
DT   .US/F         : DT:UNKNOWN:rC:NONE:v2 {F13.4}
DTS  .US/F         : DTS:UNKNOWN:rC:NONE:v1 {F13.4}
GR   .API          : GR:UNKNOWN:rC:NONE:v1 {F13.4}
NPHI .V/V_DECIMAL  : NPHI:UNKNOWN:rC:NONE:v1 {F13.4}
PEF  .B/ELEC       : PEF:UNKNOWN:rC:NONE:v1 {F13.4}
RD   .UNKNOWN      : RD:UNKNOWN:rC:NONE:v1 {F13.4}
RHOB .G/C3         : RHOB:UNKNOWN:rC:NONE:v1 {F13.4}
RS   .UNKNOWN      : RS:UNKNOWN:rC:NONE:v1 {F13.4}
RT   .OHMM         : RT:UNKNOWN:rC:NONE:v1 {F13.4}
TVD  .M            : True Vertical Depth from PyLasMech
~Params ----------------------------------------------------
CN  .    STATOILHYDRO : Company
WN  .       15/9-F-14 : Well Name
FN  .           VOLVE : Field
CTRY.          NORWAY : Country
COUN. MAERSK INSPIRER : County or Rig name
PDAT.             MSL : Perm. Datum
ELZ .M            0.0 : Elev. Log Zero (wrt EPD)
SRVC.         UNKNOWN : Service company
R2  .           INPUT : R2
RUN .                 : RUN NUMBER
EPD .                 : Elevation of Permanent Datum above Mean Sea Level
LMF .                 : Logging Measured From (Name of Logging Elevation Reference)
APD .                 : Elevation of Depth Reference (LMF) above Permanent Datum
~Other -----------------------------------------------------
~ASCII -----------------------------------------------------
# ...
 11417.50000 1370100.00000 0.01340 74.99600 123.02000 57.27620 0.14560 3.36130 64.17890 2.41890 10.14350 19.76800 2999.57528
 11418.00000 1370160.00000 0.01410 75.02980 123.27790 54.97000 0.15450 3.29810 57.21890 2.40410 11.75930 20.04380 2999.64232
 11418.50000 1370220.00000 0.01470 75.96480 123.66180 54.11580 0.15470 3.33110 56.11010 2.38670 15.55700 24.46360 2999.70935
 11419.00000 1370280.00000 0.02560 77.29610 125.69230 49.85460 0.14820 3.31340 65.77730 2.39640 24.12740 35.41750 2999.77639
 11419.50000 1370340.00000 0.02760 80.17820 128.23260 42.14070 0.13120 3.23340 62.19150 2.39630 35.36760 51.29190 2999.84343
 11420.00000 1370400.00000 0.03240 81.21460 131.80290 31.32060 0.12610 3.05250 52.63290 2.39490 43.20080 66.75810 2999.91047
 11420.50000 1370460.00000 0.03000 80.99980 134.00560 23.01140 0.13800 2.90650 55.81680 2.35910 42.40290 84.13960 2999.97751
 11421.00000 1370520.00000 0.03720 80.42930 134.47430 17.23360 0.13250 2.89180 59.24350 2.32790 61.09880 87.40750 3000.04455
 11421.50000 1370580.00000 0.03400 80.04060 134.55730 16.46120 0.12810 2.92310 63.93540 2.29790 89.93820 101.60820 3000.11158
 11422.00000 1370640.00000 0.02940 78.50620 134.50230 16.29240 0.12980 2.98270 61.26810 2.28950 125.82780 114.63520 3000.17862
 11422.50000 1370700.00000 0.02460 77.68550 133.85580 16.91900 0.13940 2.98750 68.09120 2.28990 139.67180 154.26540 3000.24566
 11423.00000 1370760.00000 0.02380 79.00170 133.02160 16.34570 0.14290 3.05440 71.38920 2.29960 140.89030 180.11870 3000.31270
 11423.50000 1370820.00000 0.02060 79.38210 132.50360 15.32140 0.14600 3.11660 81.95160 2.30640 178.21500 189.47590 3000.37974
 11424.00000 1370880.00000 0.02210 80.60750 130.11890 14.79060 0.14480 3.17110 82.61990 2.31500 214.32630 190.28060 3000.44677
 11424.50000 1370940.00000 0.02630 80.53740 128.78850 13.78170 0.15800 3.20550 85.32280 2.31250 269.30340 208.77610 3000.51381
 11425.00000 1371000.00000 0.03440 81.42190 128.88140 13.96710 0.15420 3.16860 90.21280 2.30480 291.75600 230.78120 3000.58085
 11425.50000 1371060.00000 0.03830 83.09660 128.83760 13.87690 0.15160 3.08800 105.03750 2.29420 329.02200 244.44850 3000.64789
 11426.00000 1371120.00000 0.03750 83.82220 128.96070 14.74090 0.14800 2.93070 97.85910 2.27930 333.70690 264.88150 3000.71493
 11426.50000 1371180.00000 0.03680 81.01930 129.31280 16.62720 0.15070 2.82670 108.53720 2.27540 393.33010 284.26830 3000.78196
 11427.00000 1371240.00000 0.03260 81.49910 130.03350 17.40980 0.15490 2.74180 114.40550 2.26460 365.95930 308.87500 3000.84900
 11427.50000 1371300.00000 0.02790 81.56820 130.27000 17.84620 0.15040 2.74620 111.37800 2.25900 453.46860 321.36940 3000.91604
 11428.00000 1371360.00000 0.02780 81.16660 129.83110 16.80440 0.14840 2.85190 114.97930 2.25640 456.23930 321.13340 3000.98308
 11428.50000 1371420.00000 0.02820 81.33100 130.10380 15.04450 0.15490 2.92550 121.81270 2.26010 513.99380 364.58100 3001.05012
 11429.00000 1371480.00000 0.03210 81.71670 130.56090 14.04790 0.14670 2.96690 130.60640 2.26430 494.06640 363.00880 3001.11716
 11429.50000 1371540.00000 0.02750 82.51350 131.02710 13.52730 0.14540 2.84150 133.61640 2.26110 581.28830 351.72020 3001.18419
 11430.00000 1371600.00000 0.02550 83.63610 131.57180 14.26610 0.16780 2.78990 134.22160 2.25550 494.82750 387.17450 3001.25123
 11430.50000 1371660.00000 0.02380 83.37040 132.10890 15.72240 0.16200 2.74640 123.46080 2.25320 492.02790 383.71640 3001.31827
 11431.00000 1371720.00000 0.02480 83.99620 133.50660 16.80230 0.17410 2.83880 154.94780 2.24520 489.90150 408.86730 3001.38531
 11431.50000 1371780.00000 0.03180 85.03390 134.60510 16.72320 0.16780 2.88150 158.75160 2.25270 565.97780 408.88780 3001.45235
 11432.00000 1371840.00000 0.03410 84.99320 134.95150 14.58270 0.16600 2.85540 159.38180 2.25150 513.65300 430.51420 3001.51938
 11432.50000 1371900.00000 0.03630 85.90030 134.34030 13.07770 0.16960 2.75400 159.16000 2.25110 529.10850 396.99910 3001.58642
 11433.00000 1371960.00000 0.02990 84.54570 133.63730 12.92900 0.17060 2.69800 182.03290 2.23600 504.31110 425.83380 3001.65346
 11433.50000 1372020.00000 0.02880 82.86460 133.01250 14.92330 0.16520 2.73030 172.42170 2.23460 543.04690 392.08910 3001.72050
 11434.00000 1372080.00000 0.02890 82.67710 132.15200 17.16370 0.16440 2.80120 170.01660 2.23910 622.81290 435.30800 3001.78754
 11434.50000 1372140.00000 0.03000 82.75680 132.29250 18.30980 0.16560 2.85280 183.02340 2.24490 624.94340 432.05210 3001.85457
 11435.00000 1372200.00000 0.03410 81.81680 132.29250 18.10290 0.16430 2.81640 166.28590 2.25290 643.74710 398.75730 3001.92161
 11435.50000 1372260.00000 0.03240 84.19530 132.42470 17.60900 0.16460 2.79700 173.60990 2.25030 504.77690 437.96300 3001.98865
 11436.00000 1372320.00000 0.02860 84.24950 133.01400 17.37780 0.16750 2.75640 200.00000 2.26400 677.76790 404.48060 3002.05569
 11436.50000 1372380.00000 0.02490 82.12710 133.96370 16.57560 0.16530 3.04320 175.23490 2.25800 521.83590 406.28550 3002.12273
 11437.00000 1372440.00000 0.02850 82.85760 135.04480 14.90070 0.17110 3.14440 170.00430 2.26110 559.39530 404.37520 3002.18977
 11437.50000 1372500.00000 0.03040 83.52960 135.59790 13.46000 0.17070 3.15070 185.99170 2.24600 559.97720 414.11770 3002.25680
 11438.00000 1372560.00000 0.02660 83.57120 135.36060 13.47030 0.17420 2.83860 194.45900 2.24080 492.97630 425.72890 3002.32384
 11438.50000 1372620.00000 0.02020 83.93150 135.18460 14.42760 0.17600 2.58940 170.58090 2.23430 738.17110 428.13710 3002.39088
 11439.00000 1372680.00000 0.01990 83.61990 135.06220 16.69560 0.17990 2.49220 173.12280 2.22820 572.46330 434.14900 3002.45792
 11439.50000 1372740.00000 0.02510 83.93290 135.37800 17.06530 0.17260 2.39330 183.58680 2.23910 545.50660 426.20960 3002.52496
 11440.00000 1372800.00000 0.02130 84.37290 135.09700 17.01640 0.17600 2.37740 184.78540 2.24460 545.32640 416.08770 3002.59199
 11440.50000 1372860.00000 0.02310 82.57840 134.85900 15.91990 0.17310 2.35870 185.96940 2.26200 644.28230 405.00330 3002.65903
 11441.00000 1372920.00000 0.01780 83.72840 134.06800 16.53830 0.17120 2.39830 198.12590 2.25440 527.03610 399.87020 3002.72607
 11441.50000 1372980.00000 0.02220 85.62630 133.54060 16.93820 0.16430 2.45850 200.00000 2.25200 573.30220 417.94180 3002.79311
 11442.00000 1373040.00000 0.02220 85.25970 133.47110 17.28830 0.17100 2.48660 200.00000 2.24560 567.53080 417.69660 3002.86015
 11442.50000 1373100.00000 0.01870 83.87440 134.24480 16.66280 0.17000 2.51690 200.00000 2.24260 671.35210 411.87370 3002.92718
 11443.00000 1373160.00000 0.01910 83.98930 134.96550 16.33200 0.16130 2.52860 194.45900 2.24550 514.64120 397.29510 3002.99422
 11443.50000 1373220.00000 0.01680 84.02180 135.17550 15.85640 0.18240 2.58780 200.00000 2.24000 457.40660 386.49480 3003.06126
 11444.00000 1373280.00000 0.02320 84.42580 134.50770 15.47880 0.16180 2.66660 185.31860 2.24410 517.58040 404.20950 3003.12830
 11444.50000 1373340.00000 0.02780 85.55480 134.70260 14.87120 0.15610 2.78400 190.48450 2.24440 556.86890 409.57520 3003.19534
 11445.00000 1373400.00000 0.03320 83.03530 135.43850 15.56850 0.15900 2.92540 200.00000 2.24410 468.71640 395.86710 3003.26238
 11445.50000 1373460.00000 0.03540 80.94530 134.50920 15.33280 0.17400 3.03550 200.00000 2.24320 448.30670 370.21200 3003.32941
 11446.00000 1373520.00000 0.03620 81.48750 136.14410 15.24600 0.17770 3.05040 200.00000 2.24060 498.19230 374.88190 3003.39645
 11446.50000 1373580.00000 0.03170 84.33060 137.49800 15.83580 0.17370 2.99830 200.00000 2.23530 420.35680 387.77730 3003.46349
 11447.00000 1373640.00000 0.03320 90.11210 138.53450 16.54140 0.17290 2.97730 182.19030 2.23310 483.70490 381.26700 3003.53053
 11447.50000 1373700.00000 0.03080 91.61120 137.93460 17.86180 0.18640 3.01430 200.00000 2.23170 396.66490 360.96040 3003.59757
 11448.00000 1373760.00000 0.03220 89.87800 135.65000 17.53770 0.16790 3.07490 200.00000 2.23570 422.89080 365.85710 3003.66460
 11448.50000 1373820.00000 0.02780 86.84380 134.70110 16.48580 0.18590 3.02940 200.00000 2.23950 378.21810 391.77650 3003.73164
