~Version ---------------------------------------------------
VERS     .                             2.0 : CWLS log ASCII Standard -VERSION 2.0
WRAP     .                              NO : One Line per depth step
PROD     .                    Schlumberger : LAS Producer
PROG     .               DLIS to ASCII 2.3 : LAS Program name and version
CREA     .                   2019/04/03 19 : 56                          :LAS Creation date {YYYY/MM/DD hh:mm}
DLIS_CREA.                  2009-Feb-18 14 : 31                          :DLIS Creation date and time {YYYY-MMM-DD hh:mm}
SOURCE   . WLC_PETRO_COMPUTED_INPUT_1.DLIS : DLIS File Name
FILE-ID  .                   INPUT.logdata : File Identification Number
~Well ------------------------------------------------------
STRT.F                  566.0 : START DEPTH
STOP.F                12302.0 : STOP DEPTH
STEP.F                    0.5 : STEP
NULL.                 -999.25 : NULL VALUE
COMP.            STATOILHYDRO : COMPANY
WELL.               15/9-F-14 : WELL
FLD .                   VOLVE : FIELD
LOC .                         : LOCATION
CNTY.         MAERSK INSPIRER : COUNTY
STAT.                         : STATE
CTRY.                         : COUNTRY
API .                         : API NUMBER
UWI .                         : UNIQUE WELL ID
DATE.                         : LOG DATE
SRVC. CROCKER DATA PROCESSING : SERVICE COMPANY
LATI.DEG                      : LATITUDE
LONG.DEG                      : LONGITUDE
GDAT.                         : GeoDetic Datum
~Curve Information -----------------------------------------
DEPTH.F            : DEPTH (BOREHOLE) {F10.1}
DEPTH..1IN         : Measured Depth {I11}
DRHO .G/C3         : DRHO:UNKNOWN:rC:NONE:v1 {F13.4}
DT   .US/F         : DT:UNKNOWN:rC:NONE:v2 {F13.4}
DTS  .US/F         : DTS:UNKNOWN:rC:NONE:v1 {F13.4}
GR   .API          : GR:UNKNOWN:rC:NONE:v1 {F13.4}
NPHI .V/V_DECIMAL  : NPHI:UNKNOWN:rC:NONE:v1 {F13.4}
PEF  .B/ELEC       : PEF:UNKNOWN:rC:NONE:v1 {F13.4}
RD   .UNKNOWN      : RD:UNKNOWN:rC:NONE:v1 {F13.4}
RHOB .G/C3         : RHOB:UNKNOWN:rC:NONE:v1 {F13.4}
RS   .UNKNOWN      : RS:UNKNOWN:rC:NONE:v1 {F13.4}
RT   .OHMM         : RT:UNKNOWN:rC:NONE:v1 {F13.4}
TVD  .M            : True Vertical Depth from PyLasMech
~Params ----------------------------------------------------
CN  .    STATOILHYDRO : Company
WN  .       15/9-F-14 : Well Name
FN  .           VOLVE : Field
CTRY.          NORWAY : Country
COUN. MAERSK INSPIRER : County or Rig name
PDAT.             MSL : Perm. Datum
ELZ .M            0.0 : Elev. Log Zero (wrt EPD)
SRVC.         UNKNOWN : Service company
R2  .           INPUT : R2
RUN .                 : RUN NUMBER
EPD .                 : Elevation of Permanent Datum above Mean Sea Level
LMF .                 : Logging Measured From (Name of Logging Elevation Reference)
APD .                 : Elevation of Depth Reference (LMF) above Permanent Datum
~Other -----------------------------------------------------
~ASCII -----------------------------------------------------
# ...
 12029.00000 1443480.00000 0.03670 90.48860 158.03300 42.74080 0.21620 2.80700 9.12250 2.21610 9.38660 10.32250 -999.25
 12029.50000 1443540.00000 0.04040 91.61260 157.50910 41.75680 0.20490 2.77410 9.05590 2.22710 9.32440 10.29440 -999.25
 12030.00000 1443600.00000 0.03520 92.01320 156.18210 41.62770 0.23400 2.71400 8.86720 2.23030 9.38770 10.21120 -999.25
 12030.50000 1443660.00000 0.03810 91.11130 154.48100 40.59720 0.21600 2.85240 8.92570 2.24400 9.06550 9.86860 -999.25
 12031.00000 1443720.00000 0.03550 91.00480 153.54120 40.98630 0.22380 3.01210 8.82560 2.24700 8.80850 9.53950 -999.25
 12031.50000 1443780.00000 0.04660 91.09500 153.28580 40.33690 0.22350 3.21760 8.79760 2.26580 8.42290 9.03670 -999.25
 12032.00000 1443840.00000 0.04720 91.11130 152.55600 42.81260 0.20770 3.26190 8.88530 2.27140 7.85260 8.45880 -999.25
 12032.50000 1443900.00000 0.05170 90.70860 151.92360 44.90460 0.20910 3.24500 8.71390 2.27950 7.20900 8.31210 -999.25
 12033.00000 1443960.00000 0.04450 89.76520 151.79140 46.89300 0.21370 3.19420 8.63080 2.27360 6.93490 7.99490 -999.25
 12033.50000 1444020.00000 0.04230 88.80480 150.83460 46.37240 0.22110 3.13320 8.61320 2.27940 6.83050 7.83180 -999.25
 12034.00000 1444080.00000 0.03780 87.37680 148.18800 45.71910 0.20900 3.15510 8.54680 2.28280 6.58130 7.42560 -999.25
 12034.50000 1444140.00000 0.03820 86.07300 144.95800 46.89600 0.20260 3.13130 8.30380 2.29300 6.49830 7.24680 -999.25
 12035.00000 1444200.00000 0.03690 85.47370 143.62530 48.39560 0.20120 3.12770 8.10010 2.29840 6.46860 7.06700 -999.25
 12035.50000 1444260.00000 0.03820 84.97440 143.59570 47.88490 0.20230 3.04790 7.94060 2.30370 6.44940 7.04770 -999.25
 12036.00000 1444320.00000 0.04080 85.26850 144.55060 45.96760 0.20720 3.05570 7.80190 2.30610 6.51280 6.97530 -999.25
 12036.50000 1444380.00000 0.04270 84.43040 146.94740 45.68610 0.20310 3.02490 7.62280 2.30440 6.44020 6.72950 -999.25
 12037.00000 1444440.00000 0.04260 84.41050 149.86630 45.09990 0.20410 3.09040 7.48680 2.29990 6.41170 6.66750 -999.25
 12037.50000 1444500.00000 0.03980 84.89700 149.94350 46.33290 0.20160 3.03420 7.35720 2.29840 6.46440 6.58290 -999.25
 12038.00000 1444560.00000 0.03480 85.60070 150.20160 45.72240 0.19900 3.00430 7.23170 2.28420 6.34430 6.51620 -999.25
 12038.50000 1444620.00000 0.03340 85.85880 152.54990 46.94810 0.20530 2.92410 7.06420 2.27200 6.38880 6.54240 -999.25
 12039.00000 1444680.00000 0.03750 85.42640 155.45040 46.64330 0.20750 2.95740 6.95890 2.26230 6.29350 6.48770 -999.25
 12039.50000 1444740.00000 0.04330 87.35500 157.12000 47.05140 0.21290 3.02030 6.88370 2.26430 6.38620 6.46480 -999.25
 12040.00000 1444800.00000 0.04580 88.94510 158.11350 47.44200 0.21520 3.11220 6.76980 2.28020 6.34620 6.46140 -999.25
 12040.50000 1444860.00000 0.04390 89.08540 158.78060 47.22190 0.19580 3.15020 6.69380 2.29760 6.33500 6.45170 -999.25
 12041.00000 1444920.00000 0.04150 89.80680 158.20870 47.81060 0.20600 3.22070 6.70100 2.30660 6.37610 6.45750 -999.25
 12041.50000 1444980.00000 0.04380 89.58460 157.19780 48.74000 0.19220 3.37490 6.74810 2.29780 6.21430 6.42600 -999.25
 12042.00000 1445040.00000 0.05050 88.89570 156.64480 48.51690 0.20470 3.56040 6.74260 2.27950 6.23180 6.35110 -999.25
 12042.50000 1445100.00000 0.05910 88.55940 157.19940 48.60000 0.19610 3.68700 6.66830 2.27910 6.18870 6.55390 -999.25
 12043.00000 1445160.00000 0.06650 88.09120 157.92770 46.55640 0.20380 3.86200 6.65620 2.27790 6.27460 6.80930 -999.25
 12043.50000 1445220.00000 0.06860 87.44380 156.08720 47.57120 0.20670 3.93610 6.54100 2.28220 6.36500 6.62380 -999.25
 12044.00000 1445280.00000 0.06300 87.39380 152.58320 46.45040 0.19520 3.83610 6.60350 2.27350 6.37340 6.84450 -999.25
 12044.50000 1445340.00000 0.05320 86.68860 153.08490 46.55900 0.20800 3.58150 6.49900 2.26650 6.50230 6.68150 -999.25
 12045.00000 1445400.00000 0.04610 86.80430 153.83130 46.21470 0.23090 3.35530 6.51900 2.26270 6.55710 6.74210 -999.25
 12045.50000 1445460.00000 0.04580 87.70680 153.73460 47.75380 0.20550 3.26130 6.47650 2.26680 6.67600 6.84880 -999.25
 12046.00000 1445520.00000 0.04320 88.31330 153.47920 49.12110 0.21680 3.11570 6.43250 2.26960 6.77870 7.07550 -999.25
 12046.50000 1445580.00000 0.04400 88.23150 153.04030 49.10690 0.20980 3.09870 6.46710 2.27010 6.98990 7.10170 -999.25
 12047.00000 1445640.00000 0.04460 88.18990 153.28660 48.99360 0.21380 3.15900 6.43580 2.26910 6.98000 7.03090 -999.25
 12047.50000 1445700.00000 0.05800 87.73080 153.35610 48.19330 0.21550 3.47710 6.38720 2.27850 6.99680 6.96330 -999.25
 12048.00000 1445760.00000 0.06050 87.68150 152.10650 46.84510 0.20740 3.66650 6.37140 2.27170 7.03160 7.08220 -999.25
 12048.50000 1445820.00000 0.06350 87.50100 149.90950 46.92090 0.20590 3.75770 6.36870 2.26700 7.05470 7.00900 -999.25
 12049.00000 1445880.00000 0.05680 87.51790 148.74070 47.00840 0.21490 3.69950 6.29820 2.25590 7.04290 6.89210 -999.25
 12049.50000 1445940.00000 0.05570 87.96070 148.30170 50.71300 0.20540 3.52250 6.29910 2.25620 7.00410 6.86030 -999.25
 12050.00000 1446000.00000 0.05670 88.09190 148.90500 51.46440 0.19390 3.48570 6.21780 2.25770 6.94760 6.80740 -999.25
 12050.50000 1446060.00000 0.06640 88.04250 150.80890 52.77850 0.21260 3.60750 6.21400 2.26670 6.88220 6.73430 -999.25
 12051.00000 1446120.00000 0.07730 88.03470 152.94430 52.09830 0.20400 4.01360 6.20180 2.27530 6.89820 6.71440 -999.25
 12051.50000 1446180.00000 0.07620 88.31330 154.25440 53.62020 0.20640 4.22800 6.12040 2.27550 6.74200 6.62910 -999.25
 12052.00000 1446240.00000 0.07220 88.33020 155.59920 55.28420 0.20580 4.25450 6.09150 2.27490 6.74040 6.69390 -999.25
 12052.50000 1446300.00000 0.06670 88.79770 156.26630 56.72850 0.21490 4.18220 6.06680 2.27190 6.68440 6.64560 -999.25
 12053.00000 1446360.00000 0.06580 88.64890 155.80020 58.03070 0.21600 4.16850 5.96300 2.27730 6.68130 6.59340 -999.25
 12053.50000 1446420.00000 0.06410 87.43470 154.83240 60.77880 0.20730 4.10760 5.93070 2.27850 6.53130 6.53940 -999.25
 12054.00000 1446480.00000 0.05500 86.52430 153.46190 63.72460 0.20340 3.83740 5.83870 2.28170 6.48770 6.53440 -999.25
 12054.50000 1446540.00000 0.04720 86.39390 153.47170 64.40630 0.21060 3.53770 5.86200 2.27980 6.38810 6.53570 -999.25
 12055.00000 1446600.00000 0.03920 87.09130 154.35030 61.95550 0.22010 3.22440 5.71100 2.28020 6.41960 6.44420 -999.25
 12055.50000 1446660.00000 0.03770 87.45160 154.47270 61.74850 0.21990 3.08850 5.70790 2.27650 6.39020 6.40790 -999.25
 12056.00000 1446720.00000 0.03980 87.01650 153.83960 62.70030 0.20350 3.10290 5.69050 2.27190 6.32360 6.37000 -999.25
 12056.50000 1446780.00000 0.03900 86.40940 152.80150 64.90820 0.20890 3.12660 5.66580 2.26270 6.40090 6.41770 -999.25
 12057.00000 1446840.00000 0.04130 85.89250 151.58970 65.07140 0.21710 3.12780 5.58140 2.26470 6.33140 6.44340 -999.25
 12057.50000 1446900.00000 0.04090 85.73740 151.75670 63.15380 0.20050 3.11520 5.50220 2.26790 6.31370 6.34630 -999.25
 12058.00000 1446960.00000 0.04020 86.73940 151.95920 62.10430 0.21010 3.13080 5.46440 2.26930 6.26850 6.25540 -999.25
 12058.50000 1447020.00000 0.04140 88.28080 152.54840 59.84220 0.20400 3.18750 5.50480 2.26990 6.13080 6.29520 -999.25
 12059.00000 1447080.00000 0.04030 88.59250 153.86830 58.01920 0.21760 3.14770 5.43150 2.26920 5.93050 6.12710 -999.25
 12059.50000 1447140.00000 0.03940 88.67430 156.03890 57.19480 0.20800 3.01010 5.41510 2.27440 5.68940 6.07910 -999.25
 12060.00000 1447200.00000 0.03660 88.54320 156.74080 57.32730 0.21770 2.97240 5.20460 2.27660 5.51190 5.88370 -999.25
 12060.50000 1447260.00000 0.03430 88.49380 156.28440 57.98180 0.20650 3.00400 5.19600 2.27620 5.33390 5.79200 -999.25
 12061.00000 1447320.00000 0.03830 88.58470 156.01020 55.68310 0.21310 3.16530 5.05410 2.27690 5.25330 5.61730 -999.25
 12061.50000 1447380.00000 0.03770 89.00220 153.00100 52.81210 0.21910 3.19080 5.09980 2.27670 5.16630 5.57040 -999.25
 12062.00000 1447440.00000 0.04260 88.81460 149.21660 50.51770 0.21370 3.18070 5.04940 2.28280 4.99170 5.49010 -999.25
 12062.50000 1447500.00000 0.04100 89.09170 149.85730 51.58680 0.20730 3.08850 4.99470 2.28380 4.85150 5.44930 -999.25
