~Version ---------------------------------------------------
VERS     .                             2.0 : CWLS log ASCII Standard -VERSION 2.0
WRAP     .                              NO : One Line per depth step
PROD     .                    Schlumberger : LAS Producer
PROG     .               DLIS to ASCII 2.3 : LAS Program name and version
CREA     .                   2019/04/03 19 : 56                          :LAS Creation date {YYYY/MM/DD hh:mm}
DLIS_CREA.                  2009-Feb-18 14 : 31                          :DLIS Creation date and time {YYYY-MMM-DD hh:mm}
SOURCE   . WLC_PETRO_COMPUTED_INPUT_1.DLIS : DLIS File Name
FILE-ID  .                   INPUT.logdata : File Identification Number
~Well ------------------------------------------------------
STRT.F                  566.0 : START DEPTH
STOP.F                12302.0 : STOP DEPTH
STEP.F                    0.5 : STEP
NULL.                 -999.25 : NULL VALUE
COMP.            STATOILHYDRO : COMPANY
WELL.               15/9-F-14 : WELL
FLD .                   VOLVE : FIELD
LOC .                         : LOCATION
CNTY.         MAERSK INSPIRER : COUNTY
STAT.                         : STATE
CTRY.                         : COUNTRY
API .                         : API NUMBER
UWI .                         : UNIQUE WELL ID
DATE.                         : LOG DATE
SRVC. CROCKER DATA PROCESSING : SERVICE COMPANY
LATI.DEG                      : LATITUDE
LONG.DEG                      : LONGITUDE
GDAT.                         : GeoDetic Datum
~Curve Information -----------------------------------------
DEPTH.F            : DEPTH (BOREHOLE) {F10.1}
DEPTH..1IN         : Measured Depth {I11}
DRHO .G/C3         : DRHO:UNKNOWN:rC:NONE:v1 {F13.4}
DT   .US/F         : DT:UNKNOWN:rC:NONE:v2 {F13.4}
DTS  .US/F         : DTS:UNKNOWN:rC:NONE:v1 {F13.4}
GR   .API          : GR:UNKNOWN:rC:NONE:v1 {F13.4}
NPHI .V/V_DECIMAL  : NPHI:UNKNOWN:rC:NONE:v1 {F13.4}
PEF  .B/ELEC       : PEF:UNKNOWN:rC:NONE:v1 {F13.4}
RD   .UNKNOWN      : RD:UNKNOWN:rC:NONE:v1 {F13.4}
RHOB .G/C3         : RHOB:UNKNOWN:rC:NONE:v1 {F13.4}
RS   .UNKNOWN      : RS:UNKNOWN:rC:NONE:v1 {F13.4}
RT   .OHMM         : RT:UNKNOWN:rC:NONE:v1 {F13.4}
TVD  .M            : True Vertical Depth from PyLasMech
~Params ----------------------------------------------------
CN  .    STATOILHYDRO : Company
WN  .       15/9-F-14 : Well Name
FN  .           VOLVE : Field
CTRY.          NORWAY : Country
COUN. MAERSK INSPIRER : County or Rig name
PDAT.             MSL : Perm. Datum
ELZ .M            0.0 : Elev. Log Zero (wrt EPD)
SRVC.         UNKNOWN : Service company
R2  .           INPUT : R2
RUN .                 : RUN NUMBER
EPD .                 : Elevation of Permanent Datum above Mean Sea Level
LMF .                 : Logging Measured From (Name of Logging Elevation Reference)
APD .                 : Elevation of Depth Reference (LMF) above Permanent Datum
~Other -----------------------------------------------------
~ASCII -----------------------------------------------------
# ...
 10580.00000 1269600.00000 0.02930 106.31090 152.95090 50.92040 0.23620 3.32660 1.66070 2.28220 1.28140 1.31690 2928.36117
 10580.50000 1269660.00000 0.04550 103.77520 153.21040 51.84710 0.23420 3.67410 1.69060 2.28540 1.42070 1.44500 2928.38696
 10581.00000 1269720.00000 0.04290 95.07550 153.46990 48.54020 0.22170 3.71370 1.66730 2.25480 1.59070 1.63760 2928.41275
 10581.50000 1269780.00000 0.03560 93.23760 153.72940 44.69650 0.24130 3.27050 1.57810 2.23380 1.97240 1.92000 2928.43854
 10582.00000 1269840.00000 0.02690 91.46150 153.98890 41.36300 0.23990 3.04780 1.56660 2.22690 2.30300 2.11350 2928.46433
 10582.50000 1269900.00000 0.01790 89.54330 154.24840 40.74440 0.21680 3.26750 1.56990 2.24480 2.42640 2.09380 2928.49011
 10583.00000 1269960.00000 0.01340 86.80580 154.50790 42.74650 0.20540 3.87970 1.60550 2.29970 2.47150 2.04150 2928.51590
 10583.50000 1270020.00000 0.01150 87.14220 154.76750 43.34390 0.20370 4.40340 1.71800 2.35040 2.51570 1.95530 2928.54169
 10584.00000 1270080.00000 0.02890 87.06320 155.02700 43.57720 0.18940 4.29640 1.66300 2.38910 2.36160 2.16870 2928.56748
 10584.50000 1270140.00000 0.03700 87.21290 155.28650 43.68250 0.20950 3.81450 1.75580 2.37180 2.36120 2.27210 2928.59327
 10585.00000 1270200.00000 0.04010 89.45340 155.54600 42.87940 0.20980 3.47880 1.68210 2.34730 2.24250 2.15630 2928.61905
 10585.50000 1270260.00000 0.03480 88.63790 155.80550 43.10320 0.20910 3.41190 1.67650 2.33110 2.04380 2.01840 2928.64484
 10586.00000 1270320.00000 0.03460 86.78900 156.06500 44.68680 0.21730 3.49090 1.68250 2.32050 1.94670 1.89170 2928.67063
 10586.50000 1270380.00000 0.03530 86.10720 156.32450 45.65200 0.21240 3.46450 1.89890 2.30800 1.63370 1.62690 2928.69642
 10587.00000 1270440.00000 0.03390 86.86560 156.58410 47.25350 0.21240 3.30550 1.95500 2.30640 1.46260 1.46990 2928.72221
 10587.50000 1270500.00000 0.02510 84.44550 156.84360 46.84350 0.17910 3.04570 1.70670 2.32220 1.42450 1.49720 2928.74800
 10588.00000 1270560.00000 0.02030 80.77320 157.10310 46.01880 0.16930 2.98900 1.55560 2.35700 1.44470 1.46200 2928.77378
 10588.50000 1270620.00000 0.01890 81.82460 157.36260 46.64270 0.17170 3.10520 1.50770 2.39380 1.38630 1.46300 2928.79957
 10589.00000 1270680.00000 0.01990 83.47250 157.62210 47.19870 0.17530 3.21350 1.56610 2.41400 1.36830 1.30960 2928.82536
 10589.50000 1270740.00000 0.01540 84.63170 157.88160 51.07200 0.16940 3.16810 1.54280 2.41660 1.34890 1.34450 2928.85115
 10590.00000 1270800.00000 0.01130 87.11520 158.14110 55.14410 0.16620 3.32210 1.55700 2.41580 1.30290 1.40220 2928.87694
 10590.50000 1270860.00000 0.01690 87.21470 158.40070 55.31970 0.17470 3.39820 1.50130 2.43130 1.24660 1.36580 2928.90272
 10591.00000 1270920.00000 0.01820 88.24840 158.66020 56.02080 0.17480 3.37620 1.37670 2.43400 1.19480 1.40250 2928.92851
 10591.50000 1270980.00000 0.01770 89.08280 158.91970 52.03910 0.17350 3.07920 1.45000 2.42270 1.18850 1.40980 2928.95430
 10592.00000 1271040.00000 0.02040 90.25740 159.17920 54.01640 0.19180 2.96620 1.61080 2.40900 1.21070 1.37580 2928.98009
 10592.50000 1271100.00000 0.02220 92.64530 159.43870 51.59780 0.19530 2.97580 1.61260 2.39540 1.31250 1.57710 2929.00588
 10593.00000 1271160.00000 0.02620 92.95630 159.69820 51.49520 0.18480 3.06440 1.76720 2.39200 1.51430 1.51120 2929.03167
 10593.50000 1271220.00000 0.02320 89.22030 159.95770 46.23460 0.17390 3.10340 1.82120 2.37590 2.11100 2.23210 2929.05745
 10594.00000 1271280.00000 0.02000 84.83690 160.21730 42.90350 0.16770 3.05870 2.01740 2.37510 2.95010 2.66500 2929.08324
 10594.50000 1271340.00000 0.00830 76.99290 160.47680 36.33480 0.13320 3.14710 2.08470 2.39130 3.93460 2.99710 2929.10903
 10595.00000 1271400.00000 -0.00140 70.20100 160.73630 32.61520 0.12040 3.26730 2.35270 2.43650 4.85270 3.05620 2929.13482
 10595.50000 1271460.00000 -0.00070 65.90250 160.99580 28.85650 0.10500 3.54060 2.41920 2.49520 4.96920 2.86750 2929.16061
 10596.00000 1271520.00000 0.00620 64.82500 161.25530 27.28710 0.10240 3.51810 2.05870 2.53620 5.19910 3.35520 2929.18639
 10596.50000 1271580.00000 0.01750 69.37040 161.51480 28.42560 0.10570 3.48690 2.11690 2.54510 5.11010 3.83920 2929.21218
 10597.00000 1271640.00000 0.02640 75.39790 161.77440 30.30180 0.11060 3.39530 2.30810 2.52460 4.52320 3.48070 2929.23797
 10597.50000 1271700.00000 0.03090 83.05290 162.03390 33.53890 0.12430 3.44250 2.29670 2.49230 4.55850 3.62000 2929.26376
 10598.00000 1271760.00000 0.03790 82.67780 162.29340 36.50850 0.13550 3.32320 2.27510 2.46890 3.74960 3.38750 2929.28955
 10598.50000 1271820.00000 0.03460 83.72560 162.55290 41.96080 0.14580 3.25990 2.26050 2.43380 3.15890 3.05740 2929.31534
 10599.00000 1271880.00000 0.03950 82.97250 162.81240 46.78870 0.15760 3.26840 2.38670 2.42700 2.30990 2.34130 2929.34112
 10599.50000 1271940.00000 0.03570 83.71010 163.07190 52.83750 0.16000 3.35040 2.16310 2.42280 1.94670 1.92180 2929.36691
 10600.00000 1272000.00000 0.03970 83.67770 163.33140 56.55730 0.16170 3.35640 2.11680 2.45110 1.64610 1.78960 2929.39270
 10600.50000 1272060.00000 0.03260 84.68040 163.59090 61.87680 0.17370 3.30030 2.04400 2.44450 1.48700 1.63960 2929.41849
 10601.00000 1272120.00000 0.03400 86.40090 163.85050 64.29950 0.17400 3.22270 1.93370 2.41980 1.48480 1.47800 2929.44428
 10601.50000 1272180.00000 0.03720 85.17750 164.11000 66.43280 0.18080 3.10400 1.87380 2.39180 1.53060 1.53160 2929.47006
 10602.00000 1272240.00000 0.02910 83.49650 164.36950 66.46110 0.18440 3.00670 1.76350 2.39200 1.56370 1.83700 2929.49585
 10602.50000 1272300.00000 0.02010 83.30890 164.62900 62.23550 0.17590 3.02110 1.86860 2.42070 1.65830 2.18300 2929.52164
 10603.00000 1272360.00000 0.01700 84.12900 164.88850 58.80580 0.16820 3.16280 1.78320 2.45720 1.83340 2.08230 2929.54743
 10603.50000 1272420.00000 0.03120 84.24320 165.14800 53.16480 0.15450 3.28110 1.77450 2.48250 2.08250 2.30160 2929.57322
 10604.00000 1272480.00000 0.04310 83.62760 165.40750 50.97000 0.15980 3.45600 1.76960 2.49280 2.27740 2.65860 2929.59901
 10604.50000 1272540.00000 0.04820 83.03740 165.66710 44.93620 0.16040 3.65920 1.76150 2.47630 2.44370 2.92080 2929.62479
 10605.00000 1272600.00000 0.04330 83.37380 165.92660 42.27570 0.15070 3.67770 1.85040 2.44220 2.54930 2.98020 2929.65058
 10605.50000 1272660.00000 0.03730 83.55240 166.18610 40.09410 0.14620 3.59620 1.87040 2.42330 2.63620 2.81170 2929.67637
 10606.00000 1272720.00000 0.02370 82.34210 166.44560 38.21630 0.13810 3.88890 1.93750 2.42180 2.64760 2.86340 2929.70216
 10606.50000 1272780.00000 0.02250 84.04330 166.70510 35.41360 0.14450 4.00790 1.96080 2.44420 2.68010 2.97930 2929.72795
 10607.00000 1272840.00000 0.02520 83.63770 166.96460 32.17570 0.13800 4.18180 1.88820 2.45780 2.60000 3.04150 2929.75373
 10607.50000 1272900.00000 0.02890 83.28450 167.22420 34.30800 0.13610 4.24930 1.93380 2.46370 2.50880 2.69240 2929.77952
 10608.00000 1272960.00000 0.03230 83.44210 167.48370 36.02640 0.13700 4.05520 1.99630 2.46380 2.45080 2.61110 2929.80531
 10608.50000 1273020.00000 0.02330 85.74860 167.74320 39.01670 0.13780 3.74490 1.94720 2.44380 2.34400 2.53800 2929.83110
 10609.00000 1273080.00000 0.02540 86.64770 168.00270 39.58270 0.14390 3.05540 1.92670 2.43360 2.25300 2.43530 2929.85689
 10609.50000 1273140.00000 0.01950 87.15690 168.26220 41.46810 0.14690 2.80040 2.03780 2.40860 2.05600 2.26740 2929.88268
 10610.00000 1273200.00000 0.01800 88.28960 168.52170 43.22560 0.16040 2.66570 1.96370 2.38940 1.82460 2.09750 2929.90846
 10610.50000 1273260.00000 0.01080 88.16610 168.78120 48.53420 0.16280 2.65630 1.89700 2.37480 1.60910 1.89680 2929.93425
 10611.00000 1273320.00000 0.00980 86.14620 169.04070 54.00230 0.17000 2.66570 1.93230 2.38280 1.37260 1.52500 2929.96004
 10611.50000 1273380.00000 0.01580 84.30950 169.30030 60.61640 0.18250 2.67630 2.04080 2.40460 1.25570 1.42220 2929.98583
 10612.00000 1273440.00000 0.02400 84.74460 169.55980 61.72060 0.17350 2.75780 1.90290 2.41770 1.22180 1.41410 2930.01162
 10612.50000 1273500.00000 0.02470 85.82060 169.81930 61.81710 0.17930 2.75240 1.81060 2.41970 1.18430 1.43360 2930.03740
