~Version ---------------------------------------------------
VERS. 2.0 : CWLS log ASCII Standard -VERSION 2.0
WRAP.  NO : One line per depth step
~Well ------------------------------------------------------
STRT     .M           239.8776 : START
STOP     .M          4186.7328 : STOP
STEP     .M 0.1524000000000001 : STEP
NULL     .             -999.25 : NULL VALUE
COMP     .        STATOILHYDRO : COMPANY
WELL     .           15/9-F-12 : WELL
FLD      .               VOLVE : FIELD
LOC      .             UNKNOWN : LOCATION
CNTY     .             UNKNOWN : COUNTY
STAT     .             UNKNOWN : STATE
CTRY     .              Norway : COUNTRY
SRVC     .             UNKNOWN : SERVICE COMPANY
DATE     .             UNKNOWN : LOG DATE
UWI      .        NO 15/9-F-12 : UNIQUE WELL ID
XCOORD   .           435050.17 : SURFACE X
YCOORD   .           6478574.7 : SURFACE Y
LAT      .           58.441713 : LATITUDE
LON      .             1.88748 : LONGITUDE
ELEV     .M               54.9 : SURFACE ELEV
ELEV_TYPE.                  KB : ELEV TYPE
~Curve Information -----------------------------------------
DEPTH    .M           UNKNOWN : Measured Depth
CARB_FLAG.UNKNOWN     UNKNOWN : CARB_FLAG:UNKNOWN:rC:NONE:v1
COAL_FLAG.UNKNOWN     UNKNOWN : COAL_FLAG:UNKNOWN:rC:NONE:v1
DT       .us/ft       UNKNOWN : DT:UNKNOWN:rC:NONE:v2
GR       .API         UNKNOWN : GR:UNKNOWN:rC:NONE:v1
NPHI     .v/v_decimal UNKNOWN : NPHI:UNKNOWN:rC:NONE:v1
RD       .UNKNOWN     UNKNOWN : RD:UNKNOWN:rC:NONE:v1
RHOB     .g/cm3       UNKNOWN : RHOB:UNKNOWN:rC:NONE:v1
ROP5_RM  .UNKNOWN     UNKNOWN : ROP5_RM:UNKNOWN:rC:NONE:v1
RS       .UNKNOWN     UNKNOWN : RS:UNKNOWN:rC:NONE:v1
RT       .ohm.m       UNKNOWN : RT:UNKNOWN:rC:NONE:v1
SAND_FLAG.UNKNOWN     UNKNOWN : SAND_FLAG:UNKNOWN:rC:NONE:v1
TVD      .M                   : True Vertical Depth from PyLasMech
~Params ----------------------------------------------------
~Other -----------------------------------------------------
~ASCII -----------------------------------------------------
# ...
 1128.06480 -999.25 -999.25 -999.25 59.10270 0.56690 1.46150 -999.25 12.10250 3.43970 1.31730 -999.25 1115.69247
 1128.21720 -999.25 -999.25 -999.25 61.85350 0.56380 1.40170 -999.25 11.91160 2.54330 1.39940 -999.25 1115.83938
 1128.36960 -999.25 -999.25 -999.25 67.00150 0.56080 1.44580 -999.25 11.38830 4.50080 1.42720 -999.25 1115.98629
 1128.52200 -999.25 -999.25 -999.25 75.92190 0.56080 1.51880 -999.25 11.24230 3.15620 1.41560 -999.25 1116.13321
 1128.67440 -999.25 -999.25 -999.25 80.24460 0.56080 1.49780 -999.25 18.16680 3.29110 1.42920 -999.25 1116.28012
 1128.82680 -999.25 -999.25 -999.25 82.20950 0.56080 1.59140 -999.25 22.21240 6.20290 1.42750 -999.25 1116.42704
 1128.97920 -999.25 -999.25 -999.25 83.11330 0.56080 1.63180 -999.25 21.96050 6.02910 1.41560 -999.25 1116.57395
 1129.13160 -999.25 -999.25 -999.25 82.20950 0.56080 1.59580 -999.25 21.71100 6.41100 1.45980 -999.25 1116.72086
 1129.28400 -999.25 -999.25 -999.25 82.32740 0.56080 1.57940 -999.25 21.37910 6.40610 1.47510 -999.25 1116.86778
 1129.43640 -999.25 -999.25 -999.25 80.36250 0.56080 1.61990 -999.25 21.56820 10.23950 1.56280 -999.25 1117.01469
 1129.58880 -999.25 -999.25 -999.25 82.60250 0.56080 1.66450 -999.25 21.87300 10.38960 1.50960 -999.25 1117.16160
 1129.74120 -999.25 -999.25 -999.25 81.03060 0.56080 1.57320 -999.25 21.94560 5.31290 1.45780 -999.25 1117.30852
 1129.89360 -999.25 -999.25 -999.25 82.36670 0.56080 1.69580 -999.25 21.94560 13.18150 1.49310 -999.25 1117.45543
 1130.04600 -999.25 -999.25 -999.25 81.30570 0.56080 1.67690 -999.25 23.87920 8.26960 1.48190 -999.25 1117.60234
 1130.19840 -999.25 -999.25 -999.25 79.85170 0.56080 1.63700 -999.25 23.05530 6.13680 1.47480 -999.25 1117.74926
 1130.35080 -999.25 -999.25 -999.25 75.64690 0.56080 1.47310 -999.25 22.56430 3.32430 1.45490 -999.25 1117.89617
 1130.50320 -999.25 -999.25 -999.25 67.90530 0.56080 1.44830 -999.25 22.27550 2.99860 1.47760 -999.25 1118.04308
 1130.65560 -999.25 -999.25 -999.25 62.56090 0.56080 1.49410 -999.25 22.50340 2.70350 1.43490 -999.25 1118.19000
 1130.80800 -999.25 -999.25 -999.25 57.33430 0.56080 1.51150 -999.25 22.67540 2.46190 1.43550 -999.25 1118.33691
 1130.96040 -999.25 -999.25 -999.25 55.13370 0.56080 1.49150 -999.25 22.80230 2.76740 1.42440 -999.25 1118.48383
 1131.11280 -999.25 -999.25 -999.25 55.25160 0.56080 1.50730 -999.25 22.95670 2.46870 1.40000 -999.25 1118.63074
 1131.26520 -999.25 -999.25 -999.25 57.33430 0.56080 1.53660 -999.25 23.63480 2.44230 1.40660 -999.25 1118.77765
 1131.41760 -999.25 -999.25 -999.25 60.98900 0.56080 1.53490 -999.25 24.68370 2.32850 1.39890 -999.25 1118.92457
 1131.57000 -999.25 -999.25 -999.25 61.26400 0.56080 1.53940 -999.25 25.66710 2.46260 1.41370 -999.25 1119.07148
 1131.72240 -999.25 -999.25 -999.25 61.53910 0.56080 1.56140 -999.25 26.64400 2.88420 1.42400 -999.25 1119.21839
 1131.87480 -999.25 -999.25 -999.25 59.45640 0.56080 1.51480 -999.25 26.76230 3.60430 1.46790 -999.25 1119.36531
 1132.02720 -999.25 -999.25 -999.25 58.51320 0.56080 1.55520 -999.25 27.40560 4.07290 1.49410 -999.25 1119.51222
 1132.17960 -999.25 -999.25 -999.25 59.29920 0.56080 1.57350 -999.25 27.84750 3.79200 1.47110 -999.25 1119.65913
 1132.33200 -999.25 -999.25 -999.25 61.89280 0.56080 1.60090 -999.25 27.75680 3.66310 1.49100 -999.25 1119.80605
 1132.48440 -999.25 -999.25 -999.25 64.40780 0.56080 1.66490 -999.25 27.13500 3.94360 1.48180 -999.25 1119.95296
 1132.63680 -999.25 -999.25 -999.25 63.89700 0.56080 1.67240 -999.25 26.61920 3.49390 1.52440 -999.25 1120.09988
 1132.78920 -999.25 -999.25 -999.25 62.60020 0.56080 1.66520 -999.25 24.08170 3.47630 1.50530 -999.25 1120.24679
 1132.94160 -999.25 -999.25 -999.25 60.75320 0.56080 1.65420 -999.25 23.51650 4.12270 1.53200 -999.25 1120.39370
 1133.09400 -999.25 -999.25 -999.25 59.41710 0.56090 1.65600 -999.25 23.34780 5.37790 1.63030 -999.25 1120.54033
 1133.24640 -999.25 -999.25 -999.25 58.74900 0.56090 1.66500 -999.25 22.37130 5.95510 1.62080 -999.25 1120.68679
 1133.39880 -999.25 -999.25 -999.25 60.32090 0.56090 1.69280 -999.25 21.84430 7.08460 1.61480 -999.25 1120.83325
 1133.55120 -999.25 -999.25 -999.25 60.98900 0.56090 1.72400 -999.25 21.56860 6.77470 1.58660 -999.25 1120.97970
 1133.70360 -999.25 -999.25 -999.25 61.77490 0.56090 1.72980 -999.25 21.03630 6.02260 1.54110 -999.25 1121.12616
 1133.85600 -999.25 -999.25 -999.25 62.05000 0.56090 1.71120 -999.25 20.38700 6.29020 1.60540 -999.25 1121.27262
 1134.00840 -999.25 -999.25 -999.25 62.05000 0.56090 1.71600 -999.25 19.49830 6.56990 1.52740 -999.25 1121.41907
 1134.16080 -999.25 -999.25 -999.25 62.60020 0.56090 1.62320 -999.25 19.14280 7.26920 1.53000 -999.25 1121.56553
 1134.31320 -999.25 -999.25 -999.25 61.14620 0.56090 1.59740 -999.25 19.25150 6.79340 1.49030 -999.25 1121.71199
 1134.46560 -999.25 -999.25 -999.25 61.81420 0.56230 1.60560 -999.25 19.52420 8.73230 1.51830 -999.25 1121.85844
 1134.61800 -999.25 -999.25 -999.25 62.95380 0.56370 1.60100 -999.25 19.64720 8.57390 1.51780 -999.25 1122.00490
 1134.77040 -999.25 -999.25 -999.25 65.31170 0.56510 1.64170 -999.25 19.68370 7.30420 1.48700 -999.25 1122.15135
 1134.92280 -999.25 -999.25 -999.25 64.87940 0.56450 1.65720 -999.25 19.55930 6.41450 1.45540 -999.25 1122.29781
 1135.07520 -999.25 -999.25 -999.25 62.28580 0.56380 1.63010 -999.25 19.38600 5.94820 1.44870 -999.25 1122.44427
 1135.22760 -999.25 -999.25 -999.25 62.40370 0.56380 1.60310 -999.25 19.38600 7.08140 1.47950 -999.25 1122.59072
 1135.38000 -999.25 -999.25 -999.25 63.97560 0.56380 1.58350 -999.25 19.43530 13.15660 1.48620 -999.25 1122.73718
 1135.53240 -999.25 -999.25 -999.25 65.54740 0.56380 1.58770 -999.25 20.08870 12.80000 1.49330 -999.25 1122.88364
 1135.68480 -999.25 -999.25 -999.25 63.30750 0.56380 1.58090 -999.25 20.66180 12.17440 1.48650 -999.25 1123.03009
 1135.83720 -999.25 -999.25 -999.25 61.22480 0.56380 1.55970 -999.25 21.33090 11.69040 1.50280 -999.25 1123.17655
 1135.98960 -999.25 -999.25 -999.25 62.01070 0.56380 1.67470 -999.25 21.85950 8.64150 1.43300 -999.25 1123.32301
 1136.14200 -999.25 -999.25 -999.25 64.13270 0.56390 1.71450 -999.25 22.21240 5.60140 1.38880 -999.25 1123.46946
 1136.29440 -999.25 -999.25 -999.25 67.27650 0.56390 1.72130 -999.25 23.40310 5.40280 1.40070 -999.25 1123.61592
 1136.44680 -999.25 -999.25 -999.25 68.96630 0.56390 1.67120 -999.25 24.20200 7.37060 1.49400 -999.25 1123.76237
 1136.59920 -999.25 -999.25 -999.25 71.83500 0.56390 1.64000 -999.25 25.00160 6.29180 1.47290 -999.25 1123.90883
 1136.75160 -999.25 -999.25 -999.25 73.01390 0.56390 1.64520 -999.25 25.88080 7.04660 1.51700 -999.25 1124.05529
 1136.90400 -999.25 -999.25 -999.25 74.35000 0.56390 1.68570 -999.25 27.00100 6.88640 1.50290 -999.25 1124.20174
 1137.05640 -999.25 -999.25 -999.25 75.13600 0.56390 1.73500 -999.25 27.48550 8.77840 1.58020 -999.25 1124.34820
 1137.20880 -999.25 -999.25 -999.25 77.88680 0.56390 1.81830 -999.25 28.13610 9.01910 1.53270 -999.25 1124.49466
 1137.36120 -999.25 -999.25 -999.25 80.99130 0.56390 1.81040 -999.25 28.57620 8.48460 1.54920 -999.25 1124.64111
 1137.51360 -999.25 -999.25 -999.25 83.74210 0.56390 1.82520 -999.25 28.63460 11.84770 1.49370 -999.25 1124.78757
 1137.66600 -999.25 -999.25 -999.25 84.29220 0.56390 1.85070 -999.25 28.72290 9.63050 1.52450 -999.25 1124.93403
 1137.81840 -999.25 -999.25 -999.25 82.99540 0.56390 1.83570 -999.25 28.84700 12.10500 1.56110 -999.25 1125.08048
 1137.97080 -999.25 -999.25 -999.25 81.30560 0.56390 1.75340 -999.25 28.79710 19.23020 1.65090 -999.25 1125.22694
 1138.12320 -999.25 -999.25 -999.25 79.06570 0.56390 1.70380 -999.25 28.75550 23.77440 1.63880 -999.25 1125.37340
 1138.27560 -999.25 -999.25 -999.25 78.16190 0.56390 1.76040 -999.25 28.63360 15.39930 1.67120 -999.25 1125.51985
 1138.42800 -999.25 -999.25 -999.25 81.30560 0.56390 1.78030 -999.25 28.42790 14.44830 1.61620 -999.25 1125.66631
 1138.58040 -999.25 -999.25 -999.25 86.25710 0.56390 1.77100 -999.25 28.57620 14.65430 1.62130 -999.25 1125.81276
 1138.73280 -999.25 -999.25 -999.25 87.43600 0.56390 1.71100 -999.25 28.42790 9.55240 1.55950 -999.25 1125.95922
