~Version ---------------------------------------------------
VERS     .                             2.0 : CWLS log ASCII Standard -VERSION 2.0
WRAP     .                              NO : One Line per depth step
PROD     .                    Schlumberger : LAS Producer
PROG     .               DLIS to ASCII 2.3 : LAS Program name and version
CREA     .                   2019/04/03 19 : 51                          :LAS Creation date {YYYY/MM/DD hh:mm}
DLIS_CREA.                  2009-Feb-18 14 : 44                          :DLIS Creation date and time {YYYY-MMM-DD hh:mm}
SOURCE   . WLC_PETRO_COMPUTED_INPUT_1.DLIS : DLIS File Name
FILE-ID  .                   INPUT.logdata : File Identification Number
~Well ------------------------------------------------------
STRT.F                 1382.0 : START DEPTH
STOP.F                12441.0 : STOP DEPTH
STEP.F                    0.5 : STEP
NULL.                 -999.25 : NULL VALUE
COMP.                         : COMPANY
WELL.                15/9-F-5 : WELL
FLD .                   VOLVE : FIELD
LOC .                         : LOCATION
CNTY.         MAERSK INSPIRER : COUNTY
STAT.                         : STATE
CTRY.                         : COUNTRY
API .                         : API NUMBER
UWI .                         : UNIQUE WELL ID
DATE.                         : LOG DATE
SRVC. CROCKER DATA PROCESSING : SERVICE COMPANY
LATI.DEG                      : LATITUDE
LONG.DEG                      : LONGITUDE
GDAT.                         : GeoDetic Datum
~Curve Information -----------------------------------------
DEPTH.F            : DEPTH (BOREHOLE) {F10.1}
DEPTH..1IN         : Measured Depth {I11}
CALI .INCHES       : CALI:UNKNOWN:rC:NONE:v1 {F13.4}
DRHO .G/C3         : DRHO:UNKNOWN:rC:NONE:v1 {F13.4}
DT   .US/F         : DT:UNKNOWN:rC:NONE:v1 {F13.4}
GR   .API          : GR:UNKNOWN:rC:NONE:v1 {F13.4}
NPHI .V/V_DECIMAL  : NPHI:UNKNOWN:rC:NONE:v1 {F13.4}
RD   .UNKNOWN      : RD:UNKNOWN:rC:NONE:v1 {F13.4}
RHOB .G/C3         : RHOB:UNKNOWN:rC:NONE:v1 {F13.4}
RS   .UNKNOWN      : RS:UNKNOWN:rC:NONE:v1 {F13.4}
RT   .OHMM         : RT:UNKNOWN:rC:NONE:v1 {F13.4}
TVD  .M            : True Vertical Depth from PyLasMech
~Params ----------------------------------------------------
WN  .        15/9-F-5 : Well Name
FN  .           VOLVE : Field
CTRY.          NORWAY : Country
COUN. MAERSK INSPIRER : County or Rig name
PDAT.             MSL : Perm. Datum
ELZ .M            0.0 : Elev. Log Zero (wrt EPD)
RUN .                 : RUN NUMBER
EPD .                 : Elevation of Permanent Datum above Mean Sea Level
LMF .                 : Logging Measured From (Name of Logging Elevation Reference)
APD .                 : Elevation of Depth Reference (LMF) above Permanent Datum
~Other -----------------------------------------------------
~ASCII -----------------------------------------------------
# ...
 9479.50000 1137540.00000 -999.25 0.52000 -999.25 33.18000 0.42980 -999.25 2.35000 0.40000 0.40000 2581.53624
 9480.00000 1137600.00000 -999.25 0.52000 -999.25 40.32900 0.42960 -999.25 2.21000 0.41800 0.38200 2581.66683
 9480.50000 1137660.00000 -999.25 0.52000 -999.25 26.60200 0.42940 -999.25 2.21000 0.40000 0.34900 2581.79743
 9481.00000 1137720.00000 -999.25 0.52000 -999.25 34.91300 0.42910 -999.25 2.08000 0.41800 0.38200 2581.92802
 9481.50000 1137780.00000 -999.25 0.52000 -999.25 34.91300 0.42890 -999.25 2.28000 0.40000 0.40000 2582.05861
 9482.00000 1137840.00000 -999.25 0.52000 -999.25 34.91300 0.42870 -999.25 2.34000 0.41800 0.40000 2582.18921
 9482.50000 1137900.00000 -999.25 0.52000 -999.25 36.68300 0.42840 -999.25 2.29000 0.41800 0.40000 2582.31980
 9483.00000 1137960.00000 -999.25 0.52000 -999.25 33.18000 0.42820 -999.25 1.82000 0.41800 0.40000 2582.45040
 9483.50000 1138020.00000 -999.25 0.52000 -999.25 36.68300 0.42800 -999.25 2.11000 0.40000 0.38200 2582.58099
 9484.00000 1138080.00000 -999.25 0.52000 -999.25 38.48800 0.42770 -999.25 2.19000 0.43800 0.41800 2582.71158
 9484.50000 1138140.00000 -999.25 0.52000 -999.25 40.32900 0.42750 -999.25 1.77000 0.45800 0.40000 2582.84218
 9485.00000 1138200.00000 -999.25 0.52000 -999.25 33.18000 0.42730 -999.25 2.06000 0.45800 0.43800 2582.97277
 9485.50000 1138260.00000 -999.25 0.52000 -999.25 34.91300 0.42710 -999.25 2.25000 0.43800 0.41800 2583.10336
 9486.00000 1138320.00000 -999.25 0.52000 -999.25 33.18000 0.42680 -999.25 2.29000 0.43800 0.41800 2583.23396
 9486.50000 1138380.00000 -999.25 0.52000 -999.25 31.48200 0.42660 -999.25 2.02000 0.43800 0.43800 2583.36455
 9487.00000 1138440.00000 -999.25 0.52000 -999.25 34.91300 0.42640 -999.25 2.06000 0.43800 0.43800 2583.49515
 9487.50000 1138500.00000 -999.25 0.52000 -999.25 40.32900 0.42610 -999.25 2.13000 0.45800 0.40000 2583.62574
 9488.00000 1138560.00000 -999.25 0.52000 -999.25 33.18000 0.42590 -999.25 2.31000 0.40000 0.36500 2583.75633
 9488.50000 1138620.00000 -999.25 0.52000 -999.25 38.48800 0.42570 -999.25 2.20000 0.38200 0.38200 2583.88693
 9489.00000 1138680.00000 -999.25 0.52000 -999.25 42.20600 0.42540 -999.25 2.28000 0.38200 0.36500 2584.01752
 9489.50000 1138740.00000 -999.25 0.52000 -999.25 34.91300 0.42520 -999.25 1.64000 0.38200 0.36500 2584.14811
 9490.00000 1138800.00000 -999.25 0.52000 -999.25 38.48800 0.42500 -999.25 1.85000 0.36500 0.34900 2584.27871
 9490.50000 1138860.00000 -999.25 0.52000 -999.25 34.91300 0.42480 -999.25 1.87000 0.38200 0.38200 2584.40930
 9491.00000 1138920.00000 -999.25 0.52000 -999.25 36.68300 0.42450 -999.25 1.88000 0.36500 0.30500 2584.53990
 9491.50000 1138980.00000 -999.25 0.52000 -999.25 38.48800 0.42430 -999.25 1.69000 0.34900 0.31900 2584.67049
 9492.00000 1139040.00000 -999.25 0.52000 -999.25 38.48800 0.42410 -999.25 1.69000 0.34900 0.29200 2584.80108
 9492.50000 1139100.00000 -999.25 0.52000 -999.25 36.68300 0.42380 -999.25 1.72000 0.36500 0.34900 2584.93168
 9493.00000 1139160.00000 -999.25 0.52000 -999.25 34.91300 0.42360 -999.25 2.52000 0.33400 0.30500 2585.06227
 9493.50000 1139220.00000 -999.25 0.52000 -999.25 42.20600 0.42340 -999.25 1.87500 0.34900 0.34900 2585.19286
 9494.00000 1139280.00000 -999.25 0.52000 -999.25 38.48800 0.42320 -999.25 1.23000 0.33400 0.30500 2585.32346
 9494.50000 1139340.00000 -999.25 0.52000 -999.25 44.11800 0.42290 -999.25 2.29000 0.36500 0.29200 2585.45405
 9495.00000 1139400.00000 -999.25 0.52000 -999.25 48.05000 0.42270 -999.25 2.57000 0.34900 0.33400 2585.58465
 9495.50000 1139460.00000 -999.25 0.52000 -999.25 44.11800 0.42250 -999.25 2.02000 0.33400 0.27900 2585.71524
 9496.00000 1139520.00000 -999.25 0.52000 -999.25 38.48800 0.42220 -999.25 1.47000 0.34900 0.34900 2585.84583
 9496.50000 1139580.00000 -999.25 0.52000 -999.25 31.48200 0.42200 -999.25 1.17000 0.33400 0.29200 2585.97643
 9497.00000 1139640.00000 -999.25 0.52000 -999.25 34.91300 0.42180 -999.25 1.44000 0.34900 0.30500 2586.10702
 9497.50000 1139700.00000 -999.25 0.52000 -999.25 38.48800 0.42150 -999.25 1.50000 0.34900 0.31900 2586.23761
 9498.00000 1139760.00000 -999.25 0.52000 -999.25 42.20600 0.42130 -999.25 1.64330 0.31900 0.27900 2586.36821
 9498.50000 1139820.00000 -999.25 0.52000 -999.25 40.32900 0.42110 -999.25 1.78670 0.34900 0.33400 2586.49880
 9499.00000 1139880.00000 -999.25 0.52000 -999.25 44.11800 0.42090 -999.25 1.93000 0.34900 0.27900 2586.62940
 9499.50000 1139940.00000 -999.25 0.52000 -999.25 36.68300 0.42060 -999.25 1.97000 0.31900 0.33400 2586.75999
 9500.00000 1140000.00000 -999.25 0.52000 -999.25 38.48800 0.42040 -999.25 2.01000 0.33400 0.31900 2586.89058
 9500.50000 1140060.00000 -999.25 0.52000 -999.25 31.48200 0.42020 -999.25 2.05000 0.31900 0.33400 2587.02118
 9501.00000 1140120.00000 -999.25 0.52000 -999.25 34.91300 0.41990 -999.25 2.09000 0.31900 0.31900 2587.15177
 9501.50000 1140180.00000 -999.25 0.52000 -999.25 42.20600 0.41970 -999.25 2.13000 0.34900 0.34900 2587.28236
 9502.00000 1140240.00000 -999.25 0.52000 -999.25 38.48800 0.41950 -999.25 1.85000 0.34900 0.34900 2587.41296
 9502.50000 1140300.00000 -999.25 0.52000 -999.25 36.68300 0.41920 -999.25 1.57000 0.36500 0.33400 2587.54355
 9503.00000 1140360.00000 -999.25 0.52000 -999.25 36.68300 0.41900 -999.25 1.86000 0.52400 0.50100 2587.67415
 9503.50000 1140420.00000 -999.25 0.52000 -999.25 58.50600 0.41880 -999.25 1.51000 1.03200 1.13000 2587.80474
 9504.00000 1140480.00000 -999.25 0.52000 -999.25 69.85500 0.41860 -999.25 2.04000 1.48100 1.62100 2587.93533
 9504.50000 1140540.00000 -999.25 0.52000 -999.25 79.57800 0.41830 -999.25 1.76000 1.29300 1.29300 2588.06593
 9505.00000 1140600.00000 -999.25 0.52000 -999.25 84.65400 0.41810 -999.25 2.22000 1.18200 1.13000 2588.19652
 9505.50000 1140660.00000 -999.25 0.52000 -999.25 69.85500 0.41790 -999.25 1.76000 1.23600 1.23600 2588.32711
 9506.00000 1140720.00000 -999.25 0.52000 -999.25 69.85500 0.41760 -999.25 1.86000 1.23600 1.29300 2588.45771
 9506.50000 1140780.00000 -999.25 0.52000 -999.25 67.51400 0.41740 -999.25 2.04000 1.18200 1.41600 2588.58830
 9507.00000 1140840.00000 -999.25 0.52000 -999.25 50.07000 0.41720 -999.25 1.93000 1.23600 1.29300 2588.71890
 9507.50000 1140900.00000 -999.25 0.52000 -999.25 60.70400 0.41700 -999.25 2.29000 0.90100 0.94300 2588.84949
 9508.00000 1140960.00000 -999.25 0.52000 -999.25 56.34300 0.41670 -999.25 1.93000 0.75200 0.75200 2588.98008
 9508.50000 1141020.00000 -999.25 0.52000 -999.25 60.70400 0.41650 -999.25 2.36000 0.82400 0.86200 2589.11068
 9509.00000 1141080.00000 -999.25 0.52000 -999.25 58.50600 0.41630 -999.25 1.91000 0.86200 0.90100 2589.24127
 9509.50000 1141140.00000 -999.25 0.52000 -999.25 48.05000 0.41600 -999.25 2.23000 0.94300 0.98700 2589.37187
 9510.00000 1141200.00000 -999.25 0.52000 -999.25 46.06600 0.41580 -999.25 2.22000 1.13000 1.18200 2589.50246
 9510.50000 1141260.00000 -999.25 0.52000 -999.25 38.48800 0.41560 -999.25 2.07000 1.18200 1.23600 2589.63305
 9511.00000 1141320.00000 -999.25 0.52000 -999.25 31.48200 0.41530 -999.25 1.96500 1.35300 1.48100 2589.76365
 9511.50000 1141380.00000 -999.25 0.52000 -999.25 16.46800 0.41510 -999.25 1.86000 1.55000 1.62100 2589.89424
 9512.00000 1141440.00000 -999.25 0.52000 -999.25 15.16400 0.41490 -999.25 1.76000 1.48100 1.55000 2590.02483
 9512.50000 1141500.00000 -999.25 0.52000 -999.25 11.46400 0.41470 -999.25 1.66000 1.41600 1.41600 2590.15543
 9513.00000 1141560.00000 -999.25 0.52000 -999.25 9.17600 0.41440 -999.25 2.20000 1.35300 1.35300 2590.28602
 9513.50000 1141620.00000 -999.25 0.52000 -999.25 11.46400 0.41420 -999.25 1.67000 1.35300 1.41600 2590.41662
 9514.00000 1141680.00000 -999.25 0.52000 -999.25 15.16400 0.41400 -999.25 1.68000 1.41600 1.55000 2590.54721
 9514.50000 1141740.00000 -999.25 0.52000 -999.25 20.59700 0.41370 -999.25 1.76000 1.55000 1.69600 2590.67780
 9515.00000 1141800.00000 -999.25 0.52000 -999.25 9.77000 0.41350 -999.25 1.75000 1.77400 1.85600 2590.80840
 9515.50000 1141860.00000 -999.25 0.52000 -999.25 13.14000 0.41330 -999.25 2.33000 1.77400 1.94200 2590.93899
