~Version ---------------------------------------------------
VERS     .                             2.0 : CWLS log ASCII Standard -VERSION 2.0
WRAP     .                              NO : One Line per depth step
PROD     .                    Schlumberger : LAS Producer
PROG     .               DLIS to ASCII 2.3 : LAS Program name and version
CREA     .                   2019/04/03 19 : 50                          :LAS Creation date {YYYY/MM/DD hh:mm}
DLIS_CREA.                  2009-Feb-18 14 : 26                          :DLIS Creation date and time {YYYY-MMM-DD hh:mm}
SOURCE   . WLC_PETRO_COMPUTED_INPUT_1.DLIS : DLIS File Name
FILE-ID  .                   INPUT.logdata : File Identification Number
~Well ------------------------------------------------------
STRT.F                  657.0 : START DEPTH
STOP.F                11567.5 : STOP DEPTH
STEP.F                    0.5 : STEP
NULL.                 -999.25 : NULL VALUE
COMP.            STATOILHYDRO : COMPANY
WELL.                15/9-F-4 : WELL
FLD .                   VOLVE : FIELD
LOC .                         : LOCATION
CNTY.         MAERSK INSPIRER : COUNTY
STAT.                         : STATE
CTRY.                         : COUNTRY
API .                         : API NUMBER
UWI .                         : UNIQUE WELL ID
DATE.                         : LOG DATE
SRVC. CROCKER DATA PROCESSING : SERVICE COMPANY
LATI.DEG                      : LATITUDE
LONG.DEG                      : LONGITUDE
GDAT.                         : GeoDetic Datum
~Curve Information -----------------------------------------
DEPTH.F            : DEPTH (BOREHOLE) {F10.1}
DEPTH..1IN         : {I11}
DT   .US/F         : {F13.4}
DTS  .US/F         : {F13.4}
GR   .API          : {F13.4}
NPHI .V/V_DECIMAL  : {F13.4}
RD   .UNKNOWN      : {F13.4}
RHOB .G/C3         : {F13.4}
RS   .UNKNOWN      : {F13.4}
RT   .OHMM         : {F13.4}
TVD  .M            : True Vertical Depth from PyLasMech
~Params ----------------------------------------------------
CN  .    STATOILHYDRO : Company
WN  .        15/9-F-4 : Well Name
FN  .           VOLVE : Field
CTRY.          NORWAY : Country
COUN. MAERSK INSPIRER : County or Rig name
PDAT.             MSL : Perm. Datum
ELZ .M            0.0 : Elev. Log Zero (wrt EPD)
RUN .                 : RUN NUMBER
EPD .                 : Elevation of Permanent Datum above Mean Sea Level
LMF .                 : Logging Measured From (Name of Logging Elevation Reference)
APD .                 : Elevation of Depth Reference (LMF) above Permanent Datum
~Other -----------------------------------------------------
~ASCII -----------------------------------------------------
# ...
 9986.00000 1198320.00000 64.96040 126.59300 26.75460 0.08050 5.29520 2.59300 4.99140 5.34930 2975.78299
 9986.50000 1198380.00000 63.63050 123.14780 25.04540 0.07410 5.60650 2.60100 5.76500 5.82440 2975.78710
 9987.00000 1198440.00000 62.06440 121.19710 23.27700 0.06820 5.72390 2.60390 6.22800 6.28120 2975.79121
 9987.50000 1198500.00000 61.41570 120.75890 22.41910 0.06640 5.91740 2.60560 6.56740 6.82930 2975.79532
 9988.00000 1198560.00000 60.68660 121.40870 21.03230 0.06770 6.22050 2.60290 6.74460 7.14860 2975.79943
 9988.50000 1198620.00000 61.28590 121.95570 20.70400 0.06950 6.39930 2.60000 6.87390 7.08670 2975.80354
 9989.00000 1198680.00000 62.25410 123.78250 21.34600 0.06710 6.48880 2.60250 6.88840 6.95380 2975.80765
 9989.50000 1198740.00000 63.08260 123.33290 21.62660 0.06540 6.61250 2.60730 6.96240 7.00300 2975.81175
 9990.00000 1198800.00000 63.12210 122.48220 22.02240 0.06520 6.71400 2.61120 7.15300 7.49220 2975.81586
 9990.50000 1198860.00000 61.98260 123.18410 21.80460 0.06640 6.81830 2.61140 7.30490 7.55960 2975.81997
 9991.00000 1198920.00000 61.94170 122.67490 22.25310 0.06340 6.90080 2.61310 7.44640 7.48390 2975.82408
 9991.50000 1198980.00000 62.15540 122.78900 22.56280 0.06340 6.84680 2.61410 7.49910 7.53610 2975.82819
 9992.00000 1199040.00000 62.54880 122.66580 22.05700 0.06590 6.81390 2.61530 7.49370 7.67180 2975.83230
 9992.50000 1199100.00000 62.22800 122.12870 22.36440 0.06510 6.91860 2.61180 7.35560 7.44250 2975.83641
 9993.00000 1199160.00000 61.25210 121.12760 22.08800 0.06360 6.78470 2.60960 7.19790 7.24860 2975.84052
 9993.50000 1199220.00000 60.99820 122.19360 21.58190 0.06230 6.74950 2.60840 7.11830 7.25260 2975.84462
 9994.00000 1199280.00000 61.58980 125.60480 20.98140 0.06340 6.64450 2.60410 6.80580 7.12300 2975.84873
 9994.50000 1199340.00000 63.10800 128.71590 21.42310 0.06650 6.45660 2.60300 6.51970 6.80910 2975.85284
 9995.00000 1199400.00000 64.84760 130.10310 23.59440 0.07120 6.41360 2.59920 6.16920 6.22870 2975.85695
 9995.50000 1199460.00000 65.81360 129.52280 25.23570 0.07440 6.26840 2.60060 6.07180 6.01720 2975.86106
 9996.00000 1199520.00000 64.62410 128.88970 25.54540 0.07510 6.13860 2.60400 6.00580 6.14970 2975.86517
 9996.50000 1199580.00000 63.95210 128.30120 24.83450 0.07530 6.03860 2.60140 5.89300 6.08370 2975.86928
 9997.00000 1199640.00000 64.35470 128.41600 24.02800 0.07250 5.90880 2.60260 5.81320 5.78410 2975.87339
 9997.50000 1199700.00000 65.12540 129.01360 23.24830 0.07400 5.81670 2.59980 5.56020 5.34730 2975.87750
 9998.00000 1199760.00000 65.38000 129.79710 23.43740 0.07380 5.60330 2.60270 5.40410 5.54700 2975.88160
 9998.50000 1199820.00000 65.88060 131.44940 24.15100 0.07820 5.54800 2.60390 5.18680 5.30840 2975.88571
 9999.00000 1199880.00000 66.61110 132.47760 25.70300 0.08180 5.31640 2.60430 4.95190 5.08380 2975.88982
 9999.50000 1199940.00000 67.25850 132.86370 26.73000 0.08030 5.39190 2.60650 4.68800 4.70880 2975.89393
 10000.00000 1200000.00000 66.91370 132.68840 26.92340 0.08390 5.22360 2.60280 4.56420 4.57370 2975.89804
 10000.50000 1200060.00000 66.91510 133.02230 27.98910 0.08580 5.03010 2.60400 4.61720 4.87550 2975.90215
 10001.00000 1200120.00000 67.66820 132.97780 28.34220 0.08590 5.02480 2.60030 4.37260 4.31720 2975.90626
 10001.50000 1200180.00000 66.73310 132.43300 27.25920 0.08230 5.02600 2.60310 4.44100 4.54690 2975.91037
 10002.00000 1200240.00000 66.63580 132.29250 26.28230 0.07920 4.81090 2.60060 4.64450 4.90810 2975.91447
 10002.50000 1200300.00000 67.12660 132.23960 25.91210 0.08170 4.75090 2.60460 4.52410 4.76710 2975.91858
 10003.00000 1200360.00000 66.21630 132.23130 26.95630 0.08310 4.78490 2.60600 4.51460 4.45750 2975.92269
 10003.50000 1200420.00000 66.06110 133.03220 26.73760 0.08050 4.68380 2.60870 4.56870 4.44240 2975.92680
 10004.00000 1200480.00000 66.29810 133.98860 26.41770 0.07730 4.58860 2.60760 4.61810 4.72270 2975.93091
 10004.50000 1200540.00000 65.97930 133.30340 26.54000 0.07940 4.55230 2.60420 4.48990 4.57540 2975.93502
 10005.00000 1200600.00000 66.92280 133.40080 27.11170 0.08510 4.45620 2.60450 4.59840 4.70150 2975.93913
 10005.50000 1200660.00000 67.56240 134.37700 27.10790 0.08490 4.53790 2.60630 4.32620 4.30250 2975.94324
 10006.00000 1200720.00000 67.74290 135.71350 27.73340 0.08140 4.58210 2.60660 4.19520 4.01420 2975.94735
 10006.50000 1200780.00000 67.77530 137.04920 27.40860 0.08760 4.33810 2.60490 4.28780 4.26770 2975.95145
 10007.00000 1200840.00000 68.10530 138.14020 28.80260 0.08670 4.32160 2.59470 4.19220 4.29600 2975.95556
 10007.50000 1200900.00000 69.75330 139.38670 29.26200 0.08860 4.35860 2.58990 3.94690 4.00380 2975.95967
 10008.00000 1200960.00000 70.04870 139.22960 31.01730 0.09640 4.40910 2.58520 3.74890 3.56700 2975.96378
 10008.50000 1201020.00000 70.26170 139.66780 31.08250 0.10210 4.17450 2.58560 3.62230 3.60090 2975.96789
 10009.00000 1201080.00000 70.00710 138.67430 30.05770 0.09900 4.14350 2.58570 3.47800 3.53470 2975.97200
 10009.50000 1201140.00000 69.43240 137.42540 27.94780 0.10100 4.16230 2.59100 3.55440 3.77330 2975.97611
 10010.00000 1201200.00000 68.28300 135.52610 26.27490 0.09260 4.17340 2.59840 3.76700 3.59140 2975.98022
 10010.50000 1201260.00000 66.62600 133.25800 24.98810 0.09030 4.17240 2.60350 3.92330 3.89150 2975.98432
 10011.00000 1201320.00000 65.48570 131.65940 23.62410 0.08770 4.16830 2.60020 4.06850 4.26260 2975.98843
 10011.50000 1201380.00000 65.04360 131.01650 22.33010 0.08480 4.20200 2.59230 4.14910 4.38780 2975.99254
 10012.00000 1201440.00000 65.90600 130.42190 22.78190 0.08560 4.19830 2.58760 4.29020 4.38310 2975.99665
 10012.50000 1201500.00000 67.34940 132.83870 24.93930 0.08580 4.32520 2.59150 4.22160 4.42440 2976.00076
 10013.00000 1201560.00000 67.77530 134.13900 27.31750 0.08400 4.46270 2.59900 4.20650 4.11230 2976.00487
 10013.50000 1201620.00000 67.51300 134.55220 27.89770 0.08470 4.59340 2.60350 4.16100 3.97620 2976.00898
 10014.00000 1201680.00000 67.66110 134.87710 27.04790 0.08330 4.35130 2.60090 4.32650 4.92040 2976.01309
 10014.50000 1201740.00000 67.95580 135.33570 25.51330 0.08850 4.45300 2.59710 4.31310 4.51070 2976.01720
 10015.00000 1201800.00000 67.79230 136.87320 25.99380 0.09210 4.68590 2.59310 4.08510 4.02050 2976.02130
 10015.50000 1201860.00000 67.83250 136.64270 26.77690 0.09020 4.72680 2.59440 4.15070 4.29280 2976.02541
 10016.00000 1201920.00000 66.60060 134.11860 27.62140 0.08780 4.74300 2.59580 4.33420 4.48560 2976.02952
 10016.50000 1201980.00000 64.42660 130.22320 26.44070 0.08280 4.75610 2.60090 4.60010 4.68480 2976.03363
 10017.00000 1202040.00000 63.23000 126.22500 24.53740 0.07790 4.73020 2.59940 4.83470 4.86960 2976.03774
 10017.50000 1202100.00000 63.38580 124.80240 22.51900 0.08180 4.76630 2.59950 4.94820 4.93260 2976.04185
 10018.00000 1202160.00000 63.57480 125.60400 21.27390 0.07820 4.72730 2.59840 5.03450 5.10940 2976.04596
 10018.50000 1202220.00000 64.00140 127.84190 22.03990 0.07540 4.79530 2.59890 5.07750 4.97900 2976.05007
 10019.00000 1202280.00000 64.38710 129.65500 22.41380 0.07470 4.70140 2.59840 5.08670 4.97830 2976.05417
 10019.50000 1202340.00000 65.20860 131.87280 24.02640 0.08080 4.63560 2.59880 4.93820 5.00440 2976.05828
 10020.00000 1202400.00000 67.16190 134.97840 25.91110 0.08450 4.67170 2.59940 4.43330 4.90920 2976.06239
 10020.50000 1202460.00000 69.03970 138.15270 30.07510 0.09390 4.58280 2.59760 4.36830 4.73910 2976.06650
 10021.00000 1202520.00000 69.10380 139.32480 31.90690 0.09320 4.78350 2.59460 3.93210 3.94720 2976.07061
 10021.50000 1202580.00000 67.85710 136.92150 32.53030 0.08910 4.63830 2.59090 4.07420 4.14620 2976.07472
 10022.00000 1202640.00000 66.83890 131.90340 30.66130 0.08890 4.56910 2.59340 4.45810 4.61660 2976.07883
 10022.50000 1202700.00000 65.52730 129.53190 29.31900 0.08330 4.33200 2.59950 4.69580 4.68090 2976.08294
 10023.00000 1202760.00000 65.62610 130.31680 27.68330 0.08190 4.36040 2.60620 4.64270 4.53790 2976.08705
 10023.50000 1202820.00000 66.25860 133.62220 27.56550 0.08200 4.18080 2.60740 4.61070 4.58470 2976.09115
