~Version ---------------------------------------------------
VERS     .                             2.0 : CWLS log ASCII Standard -VERSION 2.0
WRAP     .                              NO : One Line per depth step
PROD     .                    Schlumberger : LAS Producer
PROG     .               DLIS to ASCII 2.3 : LAS Program name and version
CREA     .                   2019/04/03 19 : 51                          :LAS Creation date {YYYY/MM/DD hh:mm}
DLIS_CREA.                  2009-Feb-18 14 : 44                          :DLIS Creation date and time {YYYY-MMM-DD hh:mm}
SOURCE   . WLC_PETRO_COMPUTED_INPUT_1.DLIS : DLIS File Name
FILE-ID  .                   INPUT.logdata : File Identification Number
~Well ------------------------------------------------------
STRT.F                 1382.0 : START DEPTH
STOP.F                12441.0 : STOP DEPTH
STEP.F                    0.5 : STEP
NULL.                 -999.25 : NULL VALUE
COMP.                         : COMPANY
WELL.                15/9-F-5 : WELL
FLD .                   VOLVE : FIELD
LOC .                         : LOCATION
CNTY.         MAERSK INSPIRER : COUNTY
STAT.                         : STATE
CTRY.                         : COUNTRY
API .                         : API NUMBER
UWI .                         : UNIQUE WELL ID
DATE.                         : LOG DATE
SRVC. CROCKER DATA PROCESSING : SERVICE COMPANY
LATI.DEG                      : LATITUDE
LONG.DEG                      : LONGITUDE
GDAT.                         : GeoDetic Datum
~Curve Information -----------------------------------------
DEPTH.F            : DEPTH (BOREHOLE) {F10.1}
DEPTH..1IN         : Measured Depth {I11}
CALI .INCHES       : CALI:UNKNOWN:rC:NONE:v1 {F13.4}
DRHO .G/C3         : DRHO:UNKNOWN:rC:NONE:v1 {F13.4}
DT   .US/F         : DT:UNKNOWN:rC:NONE:v1 {F13.4}
GR   .API          : GR:UNKNOWN:rC:NONE:v1 {F13.4}
NPHI .V/V_DECIMAL  : NPHI:UNKNOWN:rC:NONE:v1 {F13.4}
RD   .UNKNOWN      : RD:UNKNOWN:rC:NONE:v1 {F13.4}
RHOB .G/C3         : RHOB:UNKNOWN:rC:NONE:v1 {F13.4}
RS   .UNKNOWN      : RS:UNKNOWN:rC:NONE:v1 {F13.4}
RT   .OHMM         : RT:UNKNOWN:rC:NONE:v1 {F13.4}
TVD  .M            : True Vertical Depth from PyLasMech
~Params ----------------------------------------------------
WN  .        15/9-F-5 : Well Name
FN  .           VOLVE : Field
CTRY.          NORWAY : Country
COUN. MAERSK INSPIRER : County or Rig name
PDAT.             MSL : Perm. Datum
ELZ .M            0.0 : Elev. Log Zero (wrt EPD)
RUN .                 : RUN NUMBER
EPD .                 : Elevation of Permanent Datum above Mean Sea Level
LMF .                 : Logging Measured From (Name of Logging Elevation Reference)
APD .                 : Elevation of Depth Reference (LMF) above Permanent Datum
~Other -----------------------------------------------------
~ASCII -----------------------------------------------------
# ...
 10528.00000 1263360.00000 -999.25 0.05200 71.46580 37.51600 0.12340 -999.25 2.59000 3.19100 3.19100 2842.08915
 10528.50000 1263420.00000 -999.25 0.07200 71.92740 35.02770 0.11980 -999.25 2.58000 2.78700 2.78700 2842.21713
 10529.00000 1263480.00000 -999.25 0.04400 73.36190 32.53950 0.11690 -999.25 2.56000 2.66400 2.54600 2842.34512
 10529.50000 1263540.00000 -999.25 0.05200 73.43600 30.05130 0.09730 -999.25 2.59000 2.66400 2.66400 2842.47311
 10530.00000 1263600.00000 -999.25 0.04400 74.54240 27.56300 0.09950 -999.25 2.58000 2.66400 2.78700 2842.60110
 10530.50000 1263660.00000 -999.25 0.03600 75.64500 30.25000 0.10470 -999.25 2.58000 2.66400 2.66400 2842.72909
 10531.00000 1263720.00000 -999.25 0.03200 75.53240 36.00000 0.13430 -999.25 2.56000 2.38000 2.38000 2842.85708
 10531.50000 1263780.00000 -999.25 0.03600 73.81140 36.00000 0.12860 -999.25 2.58000 2.32600 2.27500 2842.98507
 10532.00000 1263840.00000 -999.25 0.05200 70.74130 39.06300 0.10940 -999.25 2.59000 2.47100 2.43400 2843.11305
 10532.50000 1263900.00000 -999.25 0.06000 68.34650 31.64100 0.09760 -999.25 2.59000 2.66600 2.54800 2843.24104
 10533.00000 1263960.00000 -999.25 0.06800 66.92530 26.26600 0.09040 -999.25 2.62000 2.98300 2.98300 2843.36903
 10533.50000 1264020.00000 -999.25 0.06400 66.58650 22.56300 0.08250 -999.25 2.60000 3.26500 3.41500 2843.49702
 10534.00000 1264080.00000 -999.25 0.06000 68.47370 22.56300 0.09080 -999.25 2.60000 3.33800 3.39000 2843.62501
 10534.50000 1264140.00000 -999.25 0.05600 71.03600 21.39100 0.09170 -999.25 2.60000 3.19100 3.41500 2843.75300
 10535.00000 1264200.00000 -999.25 0.03600 72.71370 22.56300 0.10010 -999.25 2.57000 3.19100 3.33800 2843.88098
 10535.50000 1264260.00000 -999.25 0.04400 72.63050 27.56300 0.11330 -999.25 2.58000 3.05000 3.19100 2844.00897
 10536.00000 1264320.00000 -999.25 0.06800 71.47900 27.56300 0.12490 -999.25 2.58000 2.78700 2.91500 2844.13696
 10536.50000 1264380.00000 -999.25 0.06000 70.50360 33.06300 0.12640 -999.25 2.55000 2.72500 2.72500 2844.26495
 10537.00000 1264440.00000 -999.25 0.08800 69.45970 34.51600 0.10460 -999.25 2.61000 2.91500 2.91500 2844.39294
 10537.50000 1264500.00000 -999.25 0.05600 69.13990 31.64100 0.08820 -999.25 2.58000 3.49600 3.74600 2844.52093
 10538.00000 1264560.00000 -999.25 0.04400 70.87620 26.26600 0.09950 -999.25 2.54000 3.65400 3.82300 2844.64891
 10538.50000 1264620.00000 -999.25 0.06000 73.84370 31.64100 0.12250 -999.25 2.56000 3.19100 3.19100 2844.77690
 10539.00000 1264680.00000 -999.25 0.06800 75.76300 34.51600 0.14260 -999.25 2.56000 2.70800 2.47500 2844.90489
 10539.50000 1264740.00000 -999.25 0.09600 75.86890 37.51600 0.13370 -999.25 2.58000 2.32600 2.22400 2845.03288
 10540.00000 1264800.00000 -999.25 0.08000 75.15250 37.51600 0.12530 -999.25 2.59000 2.43600 2.49000 2845.16087
 10540.50000 1264860.00000 -999.25 0.06000 74.49920 39.06300 0.11540 -999.25 2.57000 2.54600 2.66400 2845.28886
 10541.00000 1264920.00000 -999.25 0.05600 74.09020 34.51600 0.11790 -999.25 2.56000 2.43400 2.46200 2845.41685
 10541.50000 1264980.00000 -999.25 0.07600 72.47320 31.64100 0.10250 -999.25 2.57000 2.49000 2.38000 2845.54483
 10542.00000 1265040.00000 -999.25 0.08800 70.68660 26.26600 0.10870 -999.25 2.59000 2.72500 2.72500 2845.67282
 10542.50000 1265100.00000 -999.25 0.07200 70.59720 25.00000 0.10890 -999.25 2.58000 2.91500 2.91500 2845.80081
 10543.00000 1265160.00000 -999.25 0.10000 70.35430 27.56300 0.10810 -999.25 2.56000 3.05000 2.98300 2845.92880
 10543.50000 1265220.00000 -999.25 0.10400 70.13270 25.00000 0.10700 -999.25 2.59000 3.05000 3.05000 2846.05679
 10544.00000 1265280.00000 -999.25 0.09200 70.42700 30.25000 0.10980 -999.25 2.55000 3.05000 3.05000 2846.18478
 10544.50000 1265340.00000 -999.25 0.09200 71.05360 23.76600 0.11120 -999.25 2.61000 3.05000 2.91500 2846.31276
 10545.00000 1265400.00000 -999.25 0.06400 71.70930 25.00000 0.10330 -999.25 2.58000 3.19100 3.19100 2846.44075
 10545.50000 1265460.00000 -999.25 0.06800 72.16650 26.26600 0.09750 -999.25 2.60000 3.05000 3.12100 2846.56874
 10546.00000 1265520.00000 -999.25 0.06400 72.00660 27.56300 0.11000 -999.25 2.58000 3.05000 3.19100 2846.69673
 10546.50000 1265580.00000 -999.25 0.06800 71.52080 27.56300 0.10260 -999.25 2.60000 3.00500 3.05000 2846.82472
 10547.00000 1265640.00000 -999.25 0.04800 70.36340 27.56300 0.10750 -999.25 2.58000 2.91500 2.91500 2846.95271
 10547.50000 1265700.00000 -999.25 0.04800 67.86140 36.00000 0.11350 -999.25 2.57000 3.12100 3.12100 2847.08070
 10548.00000 1265760.00000 -999.25 0.11600 65.50440 34.51600 0.11340 -999.25 2.61000 3.99900 3.52000 2847.20868
 10548.50000 1265820.00000 -999.25 0.12400 64.07120 31.64100 0.08770 -999.25 2.65000 4.37700 3.91900 2847.33667
 10549.00000 1265880.00000 -999.25 0.03200 63.23940 28.89100 0.07770 -999.25 2.59000 4.79100 4.79100 2847.46466
 10549.50000 1265940.00000 -999.25 0.02400 63.52130 27.56300 0.07230 -999.25 2.60000 5.24300 5.01200 2847.59265
 10550.00000 1266000.00000 -999.25 0.06400 64.36080 23.76600 0.07550 -999.25 2.62000 5.01200 5.24300 2847.72064
 10550.50000 1266060.00000 -999.25 0.07200 65.17400 28.89100 0.08070 -999.25 2.63000 5.24300 5.24300 2847.84863
 10551.00000 1266120.00000 -999.25 0.06800 65.16920 27.56300 0.08620 -999.25 2.62000 5.01200 5.48500 2847.97661
 10551.50000 1266180.00000 -999.25 0.08800 65.37990 26.26600 0.08850 -999.25 2.64000 5.01200 5.01200 2848.10460
 10552.00000 1266240.00000 -999.25 0.08400 66.29230 26.26600 0.09250 -999.25 2.63000 5.01200 4.57900 2848.23259
 10552.50000 1266300.00000 -999.25 0.05600 68.12610 31.64100 0.09850 -999.25 2.63000 4.68500 4.79100 2848.36058
 10553.00000 1266360.00000 -999.25 0.04000 70.92080 27.56300 0.10590 -999.25 2.59000 4.25400 4.57900 2848.48857
 10553.50000 1266420.00000 -999.25 0.05600 72.87670 31.64100 0.12090 -999.25 2.60000 3.82300 4.37700 2848.61656
 10554.00000 1266480.00000 -999.25 0.05400 73.33360 31.64100 0.15230 -999.25 2.59000 3.49300 3.65400 2848.74455
 10554.50000 1266540.00000 -999.25 0.05200 72.30390 31.64100 0.14960 -999.25 2.58000 2.91500 2.91500 2848.87253
 10555.00000 1266600.00000 -999.25 0.09600 70.37980 40.64100 0.11840 -999.25 2.60000 2.66400 2.66400 2849.00052
 10555.50000 1266660.00000 -999.25 0.09600 69.04640 31.64100 0.09170 -999.25 2.57000 3.07850 3.15900 2849.12851
 10556.00000 1266720.00000 -999.25 0.05600 69.41240 27.56300 0.09720 -999.25 2.59000 3.49300 3.65400 2849.25650
 10556.50000 1266780.00000 -999.25 0.04400 70.74190 27.56300 0.10280 -999.25 2.58000 3.49300 3.33800 2849.38449
 10557.00000 1266840.00000 -999.25 0.05600 71.78590 31.64100 0.10140 -999.25 2.59000 3.19100 3.19100 2849.51248
 10557.50000 1266900.00000 -999.25 0.07200 72.86580 30.25000 0.11330 -999.25 2.57000 3.19100 3.19100 2849.64046
 10558.00000 1266960.00000 -999.25 0.07200 73.69060 31.64100 0.11740 -999.25 2.60000 3.05000 3.19100 2849.76845
 10558.50000 1267020.00000 -999.25 0.07600 74.76590 30.25000 0.12340 -999.25 2.57000 2.98300 3.05000 2849.89644
 10559.00000 1267080.00000 -999.25 0.08800 76.10260 34.51600 0.13320 -999.25 2.56500 2.66400 2.66400 2850.02443
 10559.50000 1267140.00000 -999.25 0.06800 76.95060 33.06300 0.13910 -999.25 2.56000 2.43400 2.43400 2850.15242
 10560.00000 1267200.00000 -999.25 0.05600 77.41180 37.51600 0.13950 -999.25 2.57000 2.43400 2.43400 2850.28041
 10560.50000 1267260.00000 -999.25 0.08000 78.18930 42.25000 0.13990 -999.25 2.57000 2.22400 2.22400 2850.40840
 10561.00000 1267320.00000 -999.25 0.06800 77.56740 42.25000 0.15100 -999.25 2.56000 2.22400 2.12500 2850.53638
 10561.50000 1267380.00000 -999.25 0.06600 75.91050 40.64100 0.13790 -999.25 2.56000 2.22400 2.17450 2850.66437
 10562.00000 1267440.00000 -999.25 0.06400 74.07260 43.89100 0.13150 -999.25 2.56000 2.22400 2.22400 2850.79236
 10562.50000 1267500.00000 -999.25 0.06800 71.79220 40.64100 0.12520 -999.25 2.62000 2.43400 2.43400 2850.92035
 10563.00000 1267560.00000 -999.25 0.05200 69.61910 36.00000 0.11800 -999.25 2.61000 2.66400 2.78700 2851.04834
 10563.50000 1267620.00000 -999.25 0.04600 67.58290 34.51600 0.10260 -999.25 2.58000 2.91500 2.91500 2851.17633
