~Version ---------------------------------------------------
VERS     .                             2.0 : CWLS log ASCII Standard -VERSION 2.0
WRAP     .                              NO : One Line per depth step
PROD     .         CROCKER DATA PROCESSING : LAS Producer
PROG     .                   LAS Viewer v0 : LAS Program name and version
CREA     .                2019/04/03 21-01 : LAS Creation date {YYYY/MM/DD hh-mm}
DLIS_CREA.               2009-Aug-25 10-08 : DLIS Creation date and time {YYYY-MMM-DD hh-mm}
SOURCE   . WLC_PETRO_COMPUTED_INPUT_1.DLIS : DLIS File Name
FILE-ID  .               CPI_INPUT.logdata : File Identification Number
~Well ------------------------------------------------------
STRT .m               2560.0152 : START DEPTH
STOP .m               3222.1932 : STOP DEPTH
STEP .m       0.152400000000398 : STEP
NULL .                  -999.25 : NULL VALUE
COMP .             STATOILHYDRO : COMPANY
WELL .              15/9-F-15 C : WELL
FIELD.                    VOLVE : FIELD
LOC  .                          : LOCATION
CNTY .                          : COUNTY
STAT .                          : STATE
NATI .                          : COUNTRY
API  .                          : API NUMBER
UWI  .                          : UNIQUE WELL ID
SRVC .                          : SERVICE COMPANY
LATI . 058 26' 29.706" N    DMS : LATITUDE
LONG . 001 53' 15.149" E    DMS : LONGITUDE
GDAT .                      MSL : GeoDetic Datum
~Curve Information -----------------------------------------
DEPTH.m      : Measured Depth
CALI .IN     : 
DRHO .G/CC   : 
DRHU .G/CC   : 
DT   .US/FT  : 
GR   .GAPI   : 
NPHI .V/V    : 
RD   .OHMM   : 
RHOB .G/CC   : 
ROBU .G/CC   : 
RS   .OHMM   : 
RT   .OHMM   : 
TVD  .M      : True Vertical Depth from PyLasMech
~Params ----------------------------------------------------
RUN . MWD RUN 12-13 : Run number
PDAT.           MSL : Perm. Datum
~Other -----------------------------------------------------
~ASCII -----------------------------------------------------
# ...
 2964.02760 8.67370 0.05390 0.05390 64.11890 22.88260 0.10870 5.06230 2.54740 2.54740 3.97350 4.21970 2790.89295
 2964.18000 8.67370 0.05190 0.05190 64.24490 23.62930 0.09580 5.32800 2.55740 2.55740 3.68440 3.59310 2791.03810
 2964.33240 8.67370 0.05070 0.05070 64.39610 21.22960 0.07970 5.06780 2.58230 2.58230 4.82660 4.63910 2791.18324
 2964.48480 8.67370 0.05000 0.05000 63.92070 17.02600 0.08030 5.06830 2.59340 2.59340 5.74530 5.81440 2791.32838
 2964.63720 8.67370 0.05280 0.05280 63.52350 14.96280 0.07580 5.28250 2.59190 2.59190 5.83560 6.28830 2791.47352
 2964.78960 8.67370 0.05440 0.05440 62.42600 17.43630 0.08290 5.42320 2.57670 2.57670 5.09740 5.55960 2791.61867
 2964.94200 8.67370 0.05710 0.05710 61.99480 17.84560 0.08190 5.84170 2.57580 2.57580 4.87040 4.58510 2791.76381
 2965.09440 8.67370 0.06250 0.06250 62.90600 16.31180 0.08010 5.70010 2.58600 2.58600 6.04420 6.08370 2791.90895
 2965.24680 8.67370 0.06430 0.06430 63.50530 12.77250 0.07390 5.75460 2.59390 2.59390 6.06470 6.21080 2792.05410
 2965.39920 8.67370 0.06720 0.06720 63.30040 11.78370 0.07570 5.84100 2.60250 2.60250 5.73870 6.18040 2792.19924
 2965.55160 8.67370 0.06830 0.06830 63.12380 12.99360 0.07520 5.95410 2.59860 2.59860 5.43010 5.91650 2792.34438
 2965.70400 8.67370 0.06820 0.06820 62.64740 14.60400 0.07490 6.06570 2.58960 2.58960 5.05240 5.34240 2792.48952
 2965.85640 8.72920 0.06570 0.06570 61.40210 14.87940 0.07150 6.13720 2.59020 2.59020 5.42100 5.43090 2792.63467
 2966.00880 8.72910 0.05750 0.05750 60.94270 12.84030 0.07400 6.15870 2.59360 2.59360 6.09240 6.06670 2792.77981
 2966.16120 8.70530 0.05640 0.05640 60.73440 10.65670 0.06970 6.32780 2.59780 2.59780 6.05260 6.11940 2792.92495
 2966.31360 8.70710 0.03070 0.10880 60.91950 8.45940 0.06290 6.50190 2.58980 2.60990 6.46860 6.47230 2793.07010
 2966.46600 8.73990 0.04950 0.11690 60.89020 7.37160 0.06300 6.57020 2.60450 2.62320 7.13150 7.14250 2793.21524
 2966.61840 8.72780 0.04940 0.12430 61.48570 7.16830 0.06490 6.69060 2.60300 2.62900 6.95990 7.17160 2793.36038
 2966.77080 8.75250 0.03870 0.14070 60.75480 8.70420 0.06350 6.77060 2.59410 2.63100 6.74080 6.95770 2793.50552
 2966.92320 8.74700 0.01890 0.14310 59.94890 9.74780 0.06230 6.79260 2.57990 2.61350 6.61950 6.88750 2793.65067
 2967.07560 8.69480 0.01110 0.13520 59.90710 9.88530 0.06270 6.81550 2.57780 2.60260 6.53400 6.79370 2793.79581
 2967.22800 8.68660 0.01670 0.12460 59.79060 9.75450 0.06420 6.82690 2.58720 2.60530 6.46020 6.70490 2793.94095
 2967.38040 8.68650 0.01680 0.12060 59.96780 8.08180 0.06210 6.73270 2.58590 2.61160 6.52820 6.77360 2794.08610
 2967.53280 8.69610 0.01950 0.12200 60.10250 7.63390 0.06380 6.71850 2.58790 2.61570 6.64360 6.89450 2794.23124
 2967.68520 8.69290 0.01380 0.12060 60.64570 6.95330 0.06570 6.71300 2.57580 2.60920 6.55490 6.81080 2794.37638
 2967.83760 8.68530 0.01340 0.11650 60.94500 8.62770 0.06410 6.63260 2.57860 2.60900 6.58900 6.71140 2794.52152
 2967.99000 8.66750 0.01520 0.10520 61.37040 8.23370 0.06570 6.44520 2.58660 2.60160 6.68100 6.76880 2794.66667
 2968.14240 8.62430 0.01870 0.09360 61.52090 8.64220 0.06680 6.42700 2.59820 2.60190 6.53050 6.68600 2794.81181
 2968.29480 8.62570 0.02340 0.08630 61.40970 8.44670 0.06720 6.24570 2.60090 2.60290 6.17740 6.30510 2794.95695
 2968.44720 8.64170 0.02290 0.08030 60.72530 9.85480 0.06650 6.11860 2.59370 2.60090 5.90830 5.98660 2795.10210
 2968.59960 8.63890 0.03020 0.07220 60.51590 9.83970 0.06680 5.90380 2.60520 2.59820 5.85430 5.98410 2795.24724
 2968.75200 8.65530 0.02700 0.06870 61.04780 10.13590 0.06500 5.67210 2.60150 2.60060 5.73530 5.88750 2795.39238
 2968.90440 8.59840 0.02510 0.06580 61.23640 8.40140 0.06710 5.46980 2.60240 2.60610 5.29260 5.52450 2795.53752
 2969.05680 8.61560 0.02240 0.07220 60.34180 7.31210 0.07010 5.42030 2.58940 2.61590 4.77090 5.02630 2795.68267
 2969.20920 8.65020 0.02480 0.06700 60.19450 6.73680 0.07260 5.32280 2.59400 2.60460 4.71600 4.85240 2795.82781
 2969.36160 8.68000 0.03280 0.06660 60.38780 8.34150 0.07260 5.20230 2.60550 2.60460 4.88050 4.97430 2795.97295
 2969.51400 8.71150 0.03240 0.05690 60.52250 9.53500 0.07200 5.11460 2.60230 2.59750 4.94590 5.16860 2796.11810
 2969.66640 8.65850 0.04000 0.04990 61.34230 9.43930 0.07000 5.11870 2.59580 2.59680 4.87630 5.18250 2796.26324
 2969.81880 8.65160 0.03830 0.03830 61.12870 8.56660 0.07430 5.10110 2.57380 2.58700 4.60460 4.92380 2796.40838
 2969.97120 8.66640 0.04910 0.02700 60.26200 7.86580 0.07430 5.07830 2.58310 2.57610 4.57600 4.82750 2796.55352
 2970.12360 8.61420 0.04240 0.02530 59.56290 8.07810 0.07250 5.19180 2.57790 2.57980 4.72250 4.90210 2796.69867
 2970.27600 8.60670 0.04080 0.02610 59.86690 8.32410 0.07220 5.24530 2.59440 2.58480 4.86640 5.02830 2796.84381
 2970.42840 8.61940 0.03060 0.03350 60.60240 8.65970 0.07380 5.26260 2.59380 2.59680 5.11280 5.24880 2796.98895
 2970.58080 8.61690 0.03190 0.03070 60.73730 8.01090 0.07030 5.40550 2.60540 2.59640 5.25210 5.46260 2797.13410
 2970.73320 8.59190 0.03320 0.03310 59.91810 6.37720 0.06980 5.48630 2.60010 2.59970 5.31490 5.54030 2797.27924
 2970.88560 8.58830 0.03100 0.02770 59.42020 5.61640 0.07070 5.59350 2.59210 2.58880 5.31610 5.55750 2797.42438
 2971.03800 8.59160 0.02890 0.03330 59.59790 6.24290 0.07010 5.67790 2.58800 2.59150 5.38890 5.61070 2797.56952
 2971.19040 8.61310 0.02680 0.03430 59.84180 7.89920 0.06760 5.83080 2.59230 2.59220 5.49800 5.65640 2797.71467
 2971.34280 8.58750 0.02540 0.03660 59.90540 8.95090 0.06750 6.03000 2.59350 2.60210 5.72380 5.86760 2797.85981
 2971.49520 8.60070 0.02270 0.03600 59.41060 8.79410 0.06610 6.13540 2.59220 2.60630 5.95340 6.15190 2798.00495
 2971.64760 8.61820 0.02070 0.03280 60.09650 8.54760 0.06500 6.27660 2.59130 2.60290 5.98320 6.35190 2798.15010
 2971.80000 8.61460 0.02410 0.03720 60.80840 8.43530 0.06290 6.44120 2.59650 2.60970 5.96050 6.37550 2798.29524
 2971.95240 8.61480 0.02990 0.04790 60.05310 8.34600 0.06240 6.54150 2.59660 2.61550 5.94560 6.29820 2798.44038
 2972.10480 8.62920 0.03450 0.06050 59.52950 8.41330 0.06470 6.73500 2.59790 2.62200 5.97490 6.25150 2798.58552
 2972.25720 8.67660 0.04190 0.06650 60.63410 8.30180 0.06360 6.90930 2.60910 2.61970 6.30450 6.43930 2798.73067
 2972.40960 8.65730 0.03970 0.06540 60.95620 9.19720 0.06380 7.12900 2.61600 2.61580 6.98150 6.98440 2798.87581
 2972.56200 8.67280 0.03250 0.06530 60.41330 9.86840 0.06150 7.33890 2.61410 2.61200 7.62820 7.65160 2799.02095
 2972.71440 8.68310 0.02060 0.07340 59.83820 9.35380 0.06160 7.61490 2.60550 2.61300 7.82940 8.10780 2799.16610
 2972.86680 8.67780 0.01830 0.07710 59.74300 8.86130 0.06120 7.82490 2.60560 2.61430 8.04520 8.53490 2799.31124
 2973.01920 8.63570 0.01600 0.07610 59.89230 8.61550 0.06320 7.88210 2.59990 2.61220 7.92680 8.55380 2799.45638
 2973.17160 8.63300 0.01570 0.07720 59.94600 8.97290 0.06210 7.86780 2.59830 2.61940 7.86800 8.35930 2799.60152
 2973.32400 8.63470 0.01450 0.07290 60.12190 9.64380 0.05930 7.70550 2.60480 2.61940 8.03090 8.34090 2799.74667
 2973.47640 8.64150 0.01900 0.07500 60.51520 10.02420 0.05670 7.34740 2.61410 2.62190 8.37090 8.42170 2799.89181
 2973.62880 8.61130 0.01700 0.07660 60.43020 10.78590 0.05750 6.96360 2.61490 2.62020 8.70850 8.36830 2800.03695
 2973.78120 8.60790 0.01650 0.09130 61.24550 9.95820 0.05450 6.58750 2.60850 2.63140 8.77310 8.16330 2800.18210
 2973.93360 8.61380 0.01800 0.09870 63.40350 8.77150 0.05450 6.30540 2.61330 2.64110 8.93080 8.03080 2800.32724
 2974.08600 8.62220 0.02260 0.10020 66.01980 9.73310 0.06060 5.93460 2.61140 2.63730 8.26420 7.60710 2800.47238
 2974.23840 8.59800 0.02970 0.09680 70.31540 11.52300 0.06280 5.28850 2.61970 2.62860 6.35430 6.50470 2800.61752
 2974.39080 8.62900 0.03050 0.09600 74.65030 15.77560 0.06110 4.67940 2.62050 2.62110 5.28350 5.83100 2800.76267
 2974.54320 8.64760 0.03370 0.09370 75.74550 21.97520 0.07510 4.19860 2.61450 2.61090 4.13580 4.80500 2800.90781
 2974.69560 8.66690 0.02550 0.08460 75.47810 27.90630 0.09190 4.07530 2.59060 2.59040 2.72090 2.83090 2801.05295
 2974.84800 8.63970 0.01880 0.07830 75.16800 28.95770 0.09640 3.76310 2.57570 2.58650 2.46660 2.42040 2801.19810
