~Version ---------------------------------------------------
VERS     .                             2.0 : CWLS log ASCII Standard -VERSION 2.0
WRAP     .                              NO : One Line per depth step
PROD     .                    Schlumberger : LAS Producer
PROG     .               DLIS to ASCII 2.3 : LAS Program name and version
CREA     .                   2019/04/03 19 : 50                          :LAS Creation date {YYYY/MM/DD hh:mm}
DLIS_CREA.                  2009-Feb-18 14 : 26                          :DLIS Creation date and time {YYYY-MMM-DD hh:mm}
SOURCE   . WLC_PETRO_COMPUTED_INPUT_1.DLIS : DLIS File Name
FILE-ID  .                   INPUT.logdata : File Identification Number
~Well ------------------------------------------------------
STRT.F                  657.0 : START DEPTH
STOP.F                11567.5 : STOP DEPTH
STEP.F                    0.5 : STEP
NULL.                 -999.25 : NULL VALUE
COMP.            STATOILHYDRO : COMPANY
WELL.                15/9-F-4 : WELL
FLD .                   VOLVE : FIELD
LOC .                         : LOCATION
CNTY.         MAERSK INSPIRER : COUNTY
STAT.                         : STATE
CTRY.                         : COUNTRY
API .                         : API NUMBER
UWI .                         : UNIQUE WELL ID
DATE.                         : LOG DATE
SRVC. CROCKER DATA PROCESSING : SERVICE COMPANY
LATI.DEG                      : LATITUDE
LONG.DEG                      : LONGITUDE
GDAT.                         : GeoDetic Datum
~Curve Information -----------------------------------------
DEPTH.F            : DEPTH (BOREHOLE) {F10.1}
DEPTH..1IN         : {I11}
DT   .US/F         : {F13.4}
DTS  .US/F         : {F13.4}
GR   .API          : {F13.4}
NPHI .V/V_DECIMAL  : {F13.4}
RD   .UNKNOWN      : {F13.4}
RHOB .G/C3         : {F13.4}
RS   .UNKNOWN      : {F13.4}
RT   .OHMM         : {F13.4}
TVD  .M            : True Vertical Depth from PyLasMech
~Params ----------------------------------------------------
CN  .    STATOILHYDRO : Company
WN  .        15/9-F-4 : Well Name
FN  .           VOLVE : Field
CTRY.          NORWAY : Country
COUN. MAERSK INSPIRER : County or Rig name
PDAT.             MSL : Perm. Datum
ELZ .M            0.0 : Elev. Log Zero (wrt EPD)
RUN .                 : RUN NUMBER
EPD .                 : Elevation of Permanent Datum above Mean Sea Level
LMF .                 : Logging Measured From (Name of Logging Elevation Reference)
APD .                 : Elevation of Depth Reference (LMF) above Permanent Datum
~Other -----------------------------------------------------
~ASCII -----------------------------------------------------
# ...
 9832.00000 1179840.00000 63.03890 123.24440 32.24810 0.11400 5.19460 2.54620 3.34530 3.01520 2955.36668
 9832.50000 1179900.00000 60.47220 117.29510 26.48480 0.10390 4.97230 2.55630 4.23170 4.73330 2955.50331
 9833.00000 1179960.00000 59.82490 113.56170 19.00430 0.09440 5.14030 2.55470 4.92100 5.40530 2955.63994
 9833.50000 1180020.00000 60.26840 115.26940 15.61460 0.08340 5.36880 2.55890 5.30110 5.48560 2955.77658
 9834.00000 1180080.00000 61.24500 116.39290 14.46300 0.08590 5.53840 2.55090 5.74210 5.52660 2955.91321
 9834.50000 1180140.00000 62.17160 117.49070 14.24050 0.08610 5.72650 2.54790 6.06520 5.80730 2956.05177
 9835.00000 1180200.00000 62.09680 118.52170 15.80300 0.08680 5.98490 2.55190 6.18800 6.27810 2956.19366
 9835.50000 1180260.00000 61.20270 117.28810 17.38870 0.08480 6.13260 2.56090 6.39650 6.47030 2956.33554
 9836.00000 1180320.00000 60.74370 114.59470 19.47700 0.08360 6.26770 2.56530 6.65810 6.51930 2956.47743
 9836.50000 1180380.00000 60.89170 114.05980 20.51990 0.08260 6.38050 2.56350 7.10220 6.80990 2956.61932
 9837.00000 1180440.00000 61.53200 115.32680 20.13280 0.08280 6.52880 2.56120 7.18860 6.78000 2956.76121
 9837.50000 1180500.00000 62.13840 117.38330 19.44450 0.08400 6.50170 2.56150 7.24720 6.87060 2956.90310
 9838.00000 1180560.00000 62.32810 118.68430 19.26960 0.08510 6.43510 2.56320 7.35310 6.82630 2957.04499
 9838.50000 1180620.00000 63.18060 120.47940 19.99720 0.08250 6.51370 2.56950 7.21810 6.82920 2957.18688
 9839.00000 1180680.00000 63.45210 123.80210 21.34650 0.08260 6.42040 2.56580 7.14180 6.58880 2957.32877
 9839.50000 1180740.00000 64.54370 126.38590 22.91360 0.08650 6.25070 2.55780 6.70180 6.43660 2957.47066
 9840.00000 1180800.00000 66.21840 128.12660 23.87350 0.09210 6.31450 2.53580 6.11910 5.82710 2957.61255
 9840.50000 1180860.00000 68.69620 130.07890 24.47410 0.09540 6.06700 2.52260 5.39730 5.25610 2957.75444
 9841.00000 1180920.00000 70.69740 131.90570 25.41790 0.10480 5.81260 2.51990 5.01560 4.77220 2957.89633
 9841.50000 1180980.00000 71.11420 131.61480 27.41410 0.10750 5.75320 2.52900 4.43010 4.58110 2958.03822
 9842.00000 1181040.00000 69.11860 130.49540 30.22740 0.11680 5.56530 2.53710 4.02990 4.50000 2958.18011
 9842.50000 1181100.00000 65.19590 128.30530 32.88790 0.10890 5.48990 2.54220 3.65270 3.69020 2958.32200
 9843.00000 1181160.00000 61.42340 123.13710 32.85320 0.09770 5.62480 2.55100 4.08300 3.81030 2958.46389
 9843.50000 1181220.00000 60.33400 118.47280 28.13590 0.09150 5.15310 2.55900 5.44720 5.20990 2958.60578
 9844.00000 1181280.00000 61.22030 118.91250 20.97130 0.08790 5.15070 2.55990 5.87770 5.36410 2958.74437
 9844.50000 1181340.00000 62.74770 120.65620 15.27960 0.08420 5.27490 2.55740 6.01860 5.56610 2958.87645
 9845.00000 1181400.00000 65.25800 124.75100 13.92150 0.08280 5.32980 2.55690 6.06670 5.61860 2959.00853
 9845.50000 1181460.00000 66.70070 126.56120 18.22640 0.08390 5.49890 2.55770 5.84390 5.56250 2959.14061
 9846.00000 1181520.00000 66.28110 126.57630 24.34360 0.09080 5.62970 2.56240 5.45490 5.42090 2959.27269
 9846.50000 1181580.00000 64.54930 123.79760 29.24750 0.09180 5.64040 2.56510 5.14240 5.10900 2959.40477
 9847.00000 1181640.00000 62.41630 121.26810 28.30690 0.08770 5.99380 2.57310 4.83480 4.71860 2959.53685
 9847.50000 1181700.00000 61.27750 120.13110 24.86330 0.08630 5.80070 2.56710 5.30600 5.36810 2959.66893
 9848.00000 1181760.00000 61.95860 116.89830 18.68370 0.08710 5.79000 2.56440 5.32190 5.20660 2959.80101
 9848.50000 1181820.00000 62.45010 115.75440 13.80210 0.08280 6.00900 2.55270 5.05990 5.10980 2959.93309
 9849.00000 1181880.00000 62.33590 114.15580 9.84930 0.08100 6.00410 2.54240 5.07700 5.18850 2960.07019
 9849.50000 1181940.00000 62.45790 114.88790 8.48380 0.08510 6.07840 2.52920 4.98480 5.08120 2960.21243
 9850.00000 1182000.00000 61.29230 116.96850 8.29820 0.08180 6.20810 2.52690 5.27250 5.49310 2960.35467
 9850.50000 1182060.00000 59.61830 116.01890 7.78290 0.07940 6.37840 2.53920 5.59360 6.11680 2960.49691
 9851.00000 1182120.00000 58.10930 115.33440 7.61330 0.07600 6.60340 2.55080 5.72060 5.53070 2960.63915
 9851.50000 1182180.00000 57.83140 116.02040 7.08060 0.07350 6.60650 2.56380 5.96900 6.11760 2960.78139
 9852.00000 1182240.00000 58.51190 114.42250 8.56780 0.06960 6.75650 2.57590 6.51300 6.36710 2960.92363
 9852.50000 1182300.00000 58.40470 108.25680 9.54110 0.06890 6.81010 2.58410 6.82370 6.65180 2961.06587
 9853.00000 1182360.00000 57.84700 108.22200 9.68320 0.06650 6.79770 2.59320 7.31330 7.05300 2961.20811
 9853.50000 1182420.00000 57.53530 108.84680 8.79740 0.06380 6.97960 2.59520 8.14410 7.46760 2961.35035
 9854.00000 1182480.00000 57.40410 110.92370 8.76550 0.06240 6.92370 2.60500 8.98000 7.62880 2961.49259
 9854.50000 1182540.00000 57.28070 113.67150 9.55130 0.05900 6.65720 2.60580 9.84090 8.61230 2961.63483
 9855.00000 1182600.00000 57.12560 115.45530 9.98930 0.05610 6.59730 2.60790 10.24950 8.71670 2961.77707
 9855.50000 1182660.00000 58.74460 123.23020 10.56950 0.05890 6.37660 2.60590 9.89950 8.58500 2961.91931
 9856.00000 1182720.00000 63.25820 126.82940 11.64840 0.06100 6.05750 2.60620 9.31810 8.08210 2962.06155
 9856.50000 1182780.00000 67.80210 134.42280 12.72220 0.06230 5.94620 2.59560 8.29290 7.55180 2962.20379
 9857.00000 1182840.00000 70.46050 141.54080 18.31160 0.07400 5.71960 2.58790 7.22180 7.79100 2962.34603
 9857.50000 1182900.00000 72.07460 144.00090 24.64120 0.09320 5.30130 2.58020 5.68610 6.41050 2962.48827
 9858.00000 1182960.00000 71.11420 143.22070 32.24590 0.09980 5.24070 2.58140 3.67460 3.72670 2962.63051
 9858.50000 1183020.00000 70.32790 141.03000 34.92610 0.10540 4.97710 2.58610 3.57850 3.37750 2962.77275
 9859.00000 1183080.00000 71.34620 140.28500 34.42640 0.10250 4.95820 2.58880 3.26230 2.93770 2962.90677
 9859.50000 1183140.00000 72.65770 142.06120 31.03410 0.10140 4.09050 2.59260 3.73740 3.88780 2963.03885
 9860.00000 1183200.00000 72.21350 143.36900 28.21850 0.10710 3.73120 2.58540 3.72410 4.08590 2963.17093
 9860.50000 1183260.00000 70.21860 140.88570 28.90570 0.10930 3.68630 2.57520 2.94140 2.96640 2963.30301
 9861.00000 1183320.00000 68.17800 135.01540 31.18950 0.10260 3.66180 2.57010 3.10570 2.84880 2963.43509
 9861.50000 1183380.00000 68.95010 132.75040 31.47640 0.09640 3.54090 2.56820 3.30650 2.77490 2963.56717
 9862.00000 1183440.00000 71.06830 134.37850 28.90220 0.09150 3.33160 2.57410 3.71600 3.48000 2963.69925
 9862.50000 1183500.00000 74.35010 138.58290 26.24320 0.09060 3.24320 2.57130 3.87220 3.70250 2963.83133
 9863.00000 1183560.00000 76.59660 145.20340 26.36250 0.09470 3.19110 2.56650 3.45540 3.58900 2963.96341
 9863.50000 1183620.00000 76.94080 150.48630 28.57090 0.10510 3.23680 2.56090 3.01930 2.80640 2964.09549
 9864.00000 1183680.00000 76.46410 150.03230 32.01400 0.10520 3.15520 2.55400 2.79650 2.57490 2964.23739
 9864.50000 1183740.00000 75.02770 148.54730 34.12780 0.11050 3.05970 2.55300 2.60840 2.58560 2964.37963
 9865.00000 1183800.00000 73.32970 148.53140 34.49980 0.11780 2.98830 2.55150 2.71920 2.86360 2964.52187
 9865.50000 1183860.00000 72.25510 148.50040 34.53810 0.12140 3.10190 2.55460 2.56040 2.55310 2964.66411
 9866.00000 1183920.00000 71.66490 144.26430 33.45070 0.10820 3.22800 2.55410 2.60200 2.36340 2964.80635
 9866.50000 1183980.00000 70.99850 142.31510 31.70810 0.11020 3.11720 2.55510 2.85290 2.84090 2964.94859
 9867.00000 1184040.00000 68.66030 140.59480 28.77560 0.11020 3.05170 2.56860 3.13530 2.97820 2965.09083
 9867.50000 1184100.00000 67.07790 133.97810 27.20900 0.10140 3.13330 2.57610 3.18430 2.96140 2965.23307
 9868.00000 1184160.00000 67.44890 132.04770 26.64860 0.09180 3.21180 2.58030 3.52160 3.11600 2965.37531
 9868.50000 1184220.00000 70.09240 136.28230 25.59560 0.08770 3.14970 2.57450 3.78720 3.62510 2965.51629
 9869.00000 1184280.00000 73.62730 144.99030 24.53160 0.08470 3.00380 2.57140 3.77490 3.83620 2965.64837
 9869.50000 1184340.00000 75.35000 148.01990 25.68240 0.10050 3.01020 2.56530 3.61050 3.57360 2965.78045
 9870.00000 1184400.00000 76.14470 147.61570 28.88960 0.10950 3.13220 2.56070 3.09500 2.77210 2965.91253
