~Version ---------------------------------------------------
VERS     .                             2.0 : CWLS log ASCII Standard -VERSION 2.0
WRAP     .                              NO : One Line per depth step
PROD     .                    Schlumberger : LAS Producer
PROG     .               DLIS to ASCII 2.3 : LAS Program name and version
CREA     .                   2019/04/03 19 : 50                          :LAS Creation date {YYYY/MM/DD hh:mm}
DLIS_CREA.                  2009-Feb-18 14 : 26                          :DLIS Creation date and time {YYYY-MMM-DD hh:mm}
SOURCE   . WLC_PETRO_COMPUTED_INPUT_1.DLIS : DLIS File Name
FILE-ID  .                   INPUT.logdata : File Identification Number
~Well ------------------------------------------------------
STRT.F                  657.0 : START DEPTH
STOP.F                11567.5 : STOP DEPTH
STEP.F                    0.5 : STEP
NULL.                 -999.25 : NULL VALUE
COMP.            STATOILHYDRO : COMPANY
WELL.                15/9-F-4 : WELL
FLD .                   VOLVE : FIELD
LOC .                         : LOCATION
CNTY.         MAERSK INSPIRER : COUNTY
STAT.                         : STATE
CTRY.                         : COUNTRY
API .                         : API NUMBER
UWI .                         : UNIQUE WELL ID
DATE.                         : LOG DATE
SRVC. CROCKER DATA PROCESSING : SERVICE COMPANY
LATI.DEG                      : LATITUDE
LONG.DEG                      : LONGITUDE
GDAT.                         : GeoDetic Datum
~Curve Information -----------------------------------------
DEPTH.F            : DEPTH (BOREHOLE) {F10.1}
DEPTH..1IN         : {I11}
DT   .US/F         : {F13.4}
DTS  .US/F         : {F13.4}
GR   .API          : {F13.4}
NPHI .V/V_DECIMAL  : {F13.4}
RD   .UNKNOWN      : {F13.4}
RHOB .G/C3         : {F13.4}
RS   .UNKNOWN      : {F13.4}
RT   .OHMM         : {F13.4}
TVD  .M            : True Vertical Depth from PyLasMech
~Params ----------------------------------------------------
CN  .    STATOILHYDRO : Company
WN  .        15/9-F-4 : Well Name
FN  .           VOLVE : Field
CTRY.          NORWAY : Country
COUN. MAERSK INSPIRER : County or Rig name
PDAT.             MSL : Perm. Datum
ELZ .M            0.0 : Elev. Log Zero (wrt EPD)
RUN .                 : RUN NUMBER
EPD .                 : Elevation of Permanent Datum above Mean Sea Level
LMF .                 : Logging Measured From (Name of Logging Elevation Reference)
APD .                 : Elevation of Depth Reference (LMF) above Permanent Datum
~Other -----------------------------------------------------
~ASCII -----------------------------------------------------
# ...
 9678.00000 1161360.00000 69.35060 133.44320 13.05250 0.14260 2.33770 2.50260 2.41220 2.41410 2936.55885
 9678.50000 1161420.00000 69.00650 132.41570 12.36110 0.13800 2.39090 2.51260 2.40480 2.37670 2936.57540
 9679.00000 1161480.00000 69.18700 132.77680 12.17310 0.13110 2.37620 2.51640 2.45330 2.41560 2936.59195
 9679.50000 1161540.00000 69.56500 134.07850 12.48760 0.13070 2.37020 2.50690 2.47100 2.48960 2936.60850
 9680.00000 1161600.00000 70.61560 135.95970 12.88860 0.14040 2.40240 2.49610 2.39630 2.43480 2936.62505
 9680.50000 1161660.00000 71.88700 137.56820 13.69470 0.13880 2.53260 2.49780 2.22060 2.15130 2936.64160
 9681.00000 1161720.00000 72.35380 138.27010 13.96260 0.13010 2.53980 2.49490 2.24890 2.07630 2936.65815
 9681.50000 1161780.00000 71.70510 137.20560 13.22490 0.11900 2.39920 2.50250 2.35920 2.34120 2936.67470
 9682.00000 1161840.00000 70.26030 135.73840 13.03660 0.12350 2.35280 2.50370 2.43450 2.47500 2936.69125
 9682.50000 1161900.00000 68.93320 135.49290 13.87770 0.12510 2.36710 2.50990 2.45630 2.42040 2936.70780
 9683.00000 1161960.00000 70.37870 136.09120 17.09740 0.12650 2.38830 2.52180 2.38210 2.42790 2936.72435
 9683.50000 1162020.00000 72.84740 137.88630 18.55070 0.12690 2.49340 2.53230 2.30420 2.25590 2936.74090
 9684.00000 1162080.00000 73.78170 141.57920 19.44050 0.12280 2.51680 2.54740 2.37380 2.21030 2936.75745
 9684.50000 1162140.00000 73.37910 144.67080 18.42930 0.12350 2.40170 2.53990 2.55550 2.62810 2936.77400
 9685.00000 1162200.00000 72.18880 143.71880 17.02820 0.12960 2.40980 2.51130 2.48830 2.49890 2936.79055
 9685.50000 1162260.00000 70.86880 140.29030 15.55550 0.13290 2.38880 2.48810 2.37280 2.40050 2936.80710
 9686.00000 1162320.00000 70.99290 138.11290 15.02230 0.12930 2.41590 2.48770 2.26630 2.28980 2936.82365
 9686.50000 1162380.00000 71.87010 138.93950 15.09790 0.13620 2.44130 2.50620 2.28880 2.25830 2936.84020
 9687.00000 1162440.00000 71.81230 139.85370 15.70880 0.12870 2.50500 2.51320 2.35150 2.29440 2936.85675
 9687.50000 1162500.00000 71.16350 139.46380 14.86360 0.11950 2.50870 2.52150 2.44810 2.44670 2936.87330
 9688.00000 1162560.00000 69.81740 137.01370 14.25660 0.11700 2.41260 2.51920 2.52380 2.62800 2936.88985
 9688.50000 1162620.00000 68.55520 136.58980 12.42320 0.13520 2.44340 2.51940 2.57130 2.63900 2936.90640
 9689.00000 1162680.00000 68.90850 135.19440 12.23940 0.13680 2.47370 2.50920 2.43900 2.46580 2936.92295
 9689.50000 1162740.00000 69.86890 135.91440 11.86530 0.13420 2.47770 2.50660 2.34060 2.38560 2936.93950
 9690.00000 1162800.00000 70.65510 135.98540 13.32800 0.13100 2.53210 2.51410 2.26460 2.25600 2936.95605
 9690.50000 1162860.00000 69.78500 136.44180 13.37940 0.12940 2.55260 2.52370 2.35350 2.31390 2936.97260
 9691.00000 1162920.00000 68.64480 134.41550 13.74740 0.12020 2.54830 2.53200 2.52260 2.49700 2936.98915
 9691.50000 1162980.00000 67.75840 129.46090 11.65770 0.11790 2.51720 2.52590 2.68660 2.80600 2937.00570
 9692.00000 1163040.00000 66.94680 129.19950 12.50760 0.12260 2.57030 2.50820 2.61000 2.66060 2937.02226
 9692.50000 1163100.00000 67.64630 131.53850 11.93470 0.12470 2.58970 2.49930 2.55280 2.58290 2937.03881
 9693.00000 1163160.00000 69.85200 134.43970 15.34500 0.12120 2.67330 2.50810 2.46390 2.49210 2937.05536
 9693.50000 1163220.00000 70.77990 137.12930 16.16920 0.11980 2.69720 2.53610 2.52560 2.48770 2937.07191
 9694.00000 1163280.00000 72.24800 139.20390 18.11110 0.12040 2.87240 2.54140 2.52190 2.37050 2937.08846
 9694.50000 1163340.00000 71.97440 139.97450 17.19310 0.10800 2.78120 2.53470 2.72070 2.76940 2937.10501
 9695.00000 1163400.00000 69.85200 137.49490 18.16510 0.11030 2.72300 2.53570 2.96280 2.97280 2937.12156
 9695.50000 1163460.00000 70.53310 136.39190 20.90860 0.11490 2.76340 2.54910 2.92740 3.07630 2937.13811
 9696.00000 1163520.00000 71.83910 139.74940 24.05100 0.11310 2.78710 2.56550 2.85060 2.99170 2937.15466
 9696.50000 1163580.00000 73.49400 142.15790 24.26090 0.10640 2.82200 2.55880 2.65340 2.71130 2937.17121
 9697.00000 1163640.00000 72.64080 143.25420 21.95330 0.11060 2.85800 2.55450 2.81130 2.83570 2937.18776
 9697.50000 1163700.00000 71.52390 140.68470 18.15160 0.11190 2.81560 2.54090 3.00020 3.14840 2937.20431
 9698.00000 1163760.00000 69.60450 135.62960 16.34430 0.11230 2.89160 2.53480 3.02830 3.01970 2937.22086
 9698.50000 1163820.00000 68.90850 133.22780 16.59190 0.11100 2.85870 2.52770 2.91820 2.97200 2937.23741
 9699.00000 1163880.00000 70.04170 137.21690 19.34960 0.11120 2.83680 2.53080 2.84800 3.00670 2937.25396
 9699.50000 1163940.00000 72.17540 140.04180 22.26260 0.11550 2.90960 2.53210 2.76290 2.82770 2937.27051
 9700.00000 1164000.00000 74.13500 144.66320 23.71700 0.12010 3.14150 2.53440 2.60950 2.44080 2937.28706
 9700.50000 1164060.00000 73.69780 145.29330 23.94430 0.11320 2.84380 2.53700 2.75340 2.90200 2937.30361
 9701.00000 1164120.00000 71.68960 142.91950 24.01360 0.11400 2.83990 2.54040 2.75730 2.86590 2937.32016
 9701.50000 1164180.00000 72.32280 141.72730 26.26140 0.11540 2.85180 2.54610 2.66430 2.72610 2937.33671
 9702.00000 1164240.00000 74.05320 144.39200 27.67040 0.11790 2.76120 2.54330 2.59960 2.86160 2937.35326
 9702.50000 1164300.00000 74.54470 146.59500 28.31100 0.12320 2.93560 2.54430 2.42910 2.30010 2937.36981
 9703.00000 1164360.00000 73.34450 144.50980 25.67870 0.10960 3.01490 2.53990 2.38480 2.27120 2937.38636
 9703.50000 1164420.00000 70.08750 140.76480 23.25780 0.11290 2.91670 2.53730 2.87560 3.04200 2937.40302
 9704.00000 1164480.00000 68.17800 137.32800 20.33120 0.11310 2.99350 2.53110 2.97340 3.00040 2937.42018
 9704.50000 1164540.00000 68.90070 135.34330 19.68790 0.10920 3.03840 2.53050 3.02400 3.03410 2937.43734
 9705.00000 1164600.00000 69.72790 135.64240 20.02560 0.10710 3.17260 2.53500 3.16310 3.03010 2937.45450
 9705.50000 1164660.00000 69.13770 135.93180 20.58320 0.11440 3.15970 2.54050 3.28360 3.24790 2937.47167
 9706.00000 1164720.00000 69.13770 135.39540 20.32530 0.11030 3.16170 2.55270 3.32300 3.35930 2937.48883
 9706.50000 1164780.00000 69.45850 135.64400 19.94130 0.11460 3.19980 2.55880 3.38670 3.40650 2937.50599
 9707.00000 1164840.00000 70.73060 137.45260 21.35910 0.11130 3.20700 2.56200 3.33630 3.36600 2937.52315
 9707.50000 1164900.00000 71.67270 137.82440 23.05820 0.10770 3.29070 2.55920 3.19570 3.18670 2937.54032
 9708.00000 1164960.00000 71.06550 139.90580 23.75430 0.11340 3.30120 2.56540 3.18170 3.19430 2937.55748
 9708.50000 1165020.00000 70.62270 139.94130 22.67860 0.11060 3.26410 2.56950 3.17880 3.10990 2937.57464
 9709.00000 1165080.00000 70.59030 140.09010 21.17190 0.11690 3.25030 2.56270 3.14480 3.21460 2937.59180
 9709.50000 1165140.00000 71.24750 139.87100 20.06080 0.11670 3.23700 2.54330 3.06500 3.00140 2937.60896
 9710.00000 1165200.00000 72.29670 139.58770 19.27000 0.11820 3.19180 2.53180 2.91110 2.93700 2937.62613
 9710.50000 1165260.00000 72.07460 137.92780 17.95480 0.12310 3.23540 2.52990 2.75100 2.78380 2937.64329
 9711.00000 1165320.00000 71.48440 138.13030 17.36080 0.13260 3.14980 2.53100 2.72250 2.78530 2937.66045
 9711.50000 1165380.00000 71.13890 138.42880 16.60850 0.12960 3.20950 2.53000 2.74530 2.77430 2937.67761
 9712.00000 1165440.00000 69.52970 137.86520 16.23520 0.11660 3.22880 2.52590 2.88860 3.01430 2937.69477
 9712.50000 1165500.00000 67.47140 135.49810 16.24150 0.10570 3.53820 2.52760 2.99250 2.85850 2937.71194
 9713.00000 1165560.00000 67.05400 131.58760 14.92020 0.10250 3.52060 2.54080 3.23930 3.34360 2937.72910
 9713.50000 1165620.00000 67.56240 129.38980 15.19590 0.09500 3.51610 2.54980 3.47570 3.60570 2937.74626
 9714.00000 1165680.00000 67.69350 128.66380 16.20830 0.09840 3.60690 2.55510 3.64050 3.72330 2937.76342
 9714.50000 1165740.00000 67.19990 130.26020 17.82680 0.10160 3.85110 2.54930 3.64850 3.66570 2937.78059
 9715.00000 1165800.00000 65.39480 126.83700 17.15170 0.09100 4.01840 2.54370 3.96310 3.83310 2937.79775
 9715.50000 1165860.00000 64.03390 121.66330 13.87980 0.08770 4.08570 2.54750 4.24660 4.23900 2937.81491
 9716.00000 1165920.00000 64.22350 121.33010 12.41160 0.09250 4.07410 2.54970 4.44360 4.34480 2937.83207
