~Version ---------------------------------------------------
VERS     .                             2.0 : CWLS log ASCII Standard -VERSION 2.0
WRAP     .                              NO : One Line per depth step
PROD     .         CROCKER DATA PROCESSING : LAS Producer
PROG     .                   LAS Viewer v0 : LAS Program name and version
CREA     .                2019/04/03 21-01 : LAS Creation date {YYYY/MM/DD hh-mm}
DLIS_CREA.               2009-Aug-25 10-08 : DLIS Creation date and time {YYYY-MMM-DD hh-mm}
SOURCE   . WLC_PETRO_COMPUTED_INPUT_1.DLIS : DLIS File Name
FILE-ID  .               CPI_INPUT.logdata : File Identification Number
~Well ------------------------------------------------------
STRT .m               2560.0152 : START DEPTH
STOP .m               3222.1932 : STOP DEPTH
STEP .m       0.152400000000398 : STEP
NULL .                  -999.25 : NULL VALUE
COMP .             STATOILHYDRO : COMPANY
WELL .              15/9-F-15 C : WELL
FIELD.                    VOLVE : FIELD
LOC  .                          : LOCATION
CNTY .                          : COUNTY
STAT .                          : STATE
NATI .                          : COUNTRY
API  .                          : API NUMBER
UWI  .                          : UNIQUE WELL ID
SRVC .                          : SERVICE COMPANY
LATI . 058 26' 29.706" N    DMS : LATITUDE
LONG . 001 53' 15.149" E    DMS : LONGITUDE
GDAT .                      MSL : GeoDetic Datum
~Curve Information -----------------------------------------
DEPTH.m      : Measured Depth
CALI .IN     : 
DRHO .G/CC   : 
DRHU .G/CC   : 
DT   .US/FT  : 
GR   .GAPI   : 
NPHI .V/V    : 
RD   .OHMM   : 
RHOB .G/CC   : 
ROBU .G/CC   : 
RS   .OHMM   : 
RT   .OHMM   : 
TVD  .M      : True Vertical Depth from PyLasMech
~Params ----------------------------------------------------
RUN . MWD RUN 12-13 : Run number
PDAT.           MSL : Perm. Datum
~Other -----------------------------------------------------
~ASCII -----------------------------------------------------
# ...
 3169.46280 8.75840 0.02440 0.07070 71.88080 46.99570 0.13960 2.10620 2.59570 2.58300 2.09980 2.24020 2985.31516
 3169.61520 8.76040 0.02140 0.05820 72.17810 46.49580 0.13180 2.12650 2.58370 2.57530 2.11570 2.24420 2985.45663
 3169.76760 8.73130 0.01340 0.06270 73.40550 46.38600 0.13440 2.12200 2.57430 2.59420 2.16600 2.19770 2985.59811
 3169.92000 8.69660 0.01720 0.07230 74.34640 47.90830 0.13210 2.07090 2.59640 2.61430 2.22500 2.28610 2985.73959
 3170.07240 8.67960 0.00990 0.08170 75.78160 48.48080 0.13150 1.96190 2.60540 2.64310 2.25950 2.13440 2985.88107
 3170.22480 8.68390 0.00590 0.08560 77.03140 50.31380 0.13880 1.78240 2.60100 2.63460 2.03750 2.01440 2986.02255
 3170.37720 8.68200 -0.00240 0.07730 78.49870 52.42950 0.14860 1.57110 2.55940 2.59150 1.72040 1.89180 2986.16403
 3170.52960 8.71450 0.00890 0.08400 80.63360 52.52920 0.14920 1.40610 2.53800 2.55780 1.44130 1.43040 2986.30551
 3170.68200 8.75600 0.01570 0.09170 81.26850 50.68340 0.16320 1.32130 2.50960 2.53310 1.32880 1.26700 2986.44699
 3170.83440 8.73900 0.01710 0.10330 78.89530 45.89280 0.17010 1.18040 2.47500 2.50680 1.19820 1.08790 2986.58847
 3170.98680 8.74950 0.01210 0.11420 74.27550 47.36010 0.18120 1.05640 2.44300 2.48340 1.06950 0.94090 2986.72995
 3171.13920 8.78320 0.02350 0.12420 68.98420 50.82870 0.19450 0.97190 2.43580 2.46630 1.00230 0.93390 2986.87143
 3171.29160 8.80120 0.05070 0.14150 65.51780 54.15080 0.18910 0.94740 2.45960 2.45910 0.90810 0.70220 2987.01291
 3171.44400 8.86840 0.05490 0.14810 65.54160 53.93680 0.14360 0.90720 2.50280 2.48230 1.15800 0.86140 2987.15439
 3171.59640 8.85330 0.04070 0.15340 67.73290 50.61280 0.10360 1.05410 2.56060 2.53740 1.89020 1.42170 2987.29587
 3171.74880 8.77120 0.02140 0.15750 72.00850 48.40980 0.08990 1.27620 2.62590 2.61890 2.80660 2.32680 2987.43735
 3171.90120 8.77190 0.01190 0.15910 76.12170 44.26010 0.10260 1.44460 2.63630 2.65370 2.67260 2.85970 2987.57883
 3172.05360 8.74210 0.01530 0.14010 78.16400 41.11740 0.10180 1.48030 2.61800 2.61390 2.39860 2.56310 2987.72030
 3172.20600 8.77100 0.01080 0.13510 77.88930 40.85000 0.12880 1.44110 2.55900 2.57110 2.00960 2.14490 2987.86178
 3172.35840 8.74260 0.01770 0.12050 76.40810 44.64400 0.15880 1.31820 2.51480 2.52180 1.43980 1.40820 2988.00326
 3172.51080 8.74810 0.01510 0.11620 76.42940 50.42740 0.17460 1.23850 2.48590 2.50880 1.18850 1.03600 2988.14474
 3172.66320 8.78220 0.02180 0.09170 79.03310 55.82040 0.17850 1.23010 2.49740 2.50570 1.41480 1.37420 2988.28622
 3172.81560 8.71530 0.01940 0.08230 81.95350 60.39650 0.19340 1.26400 2.50050 2.51940 1.34940 1.45960 2988.42770
 3172.96800 8.71350 0.02800 0.07660 83.18740 66.28370 0.19500 1.18770 2.49300 2.50520 1.08610 1.09510 2988.56918
 3173.12040 8.74010 0.02980 0.08730 84.06350 75.70590 0.19490 1.03940 2.46920 2.48760 0.96880 0.91710 2988.71066
 3173.27280 8.73980 0.02840 0.10150 85.17990 82.18200 0.20940 0.95790 2.44970 2.46310 0.91570 0.84360 2988.85214
 3173.42520 8.77190 0.02750 0.12000 85.76560 83.38940 0.22510 0.91370 2.44180 2.46040 0.89240 0.86730 2988.99362
 3173.57760 8.74530 0.02540 0.12960 84.18180 81.54220 0.22570 0.88620 2.42900 2.45010 0.87010 0.84670 2989.13510
 3173.73000 8.80440 0.03480 0.13390 82.29560 78.76910 0.22230 0.91080 2.42840 2.45150 0.88870 0.83060 2989.27658
 3173.88240 8.84550 0.04010 0.12830 81.41750 78.45500 0.20060 0.93610 2.43090 2.45120 1.00060 0.93360 2989.41806
 3174.03480 8.73830 0.03690 0.10910 81.22610 73.37310 0.18700 0.97360 2.44900 2.45750 1.08130 1.08610 2989.55954
 3174.18720 8.74030 0.02370 0.08870 80.53540 68.20380 0.18810 0.99450 2.46300 2.46610 1.04640 1.07390 2989.70102
 3174.33960 8.67570 0.01690 0.06800 79.14950 64.49010 0.20190 0.98470 2.47560 2.46820 1.00020 1.01500 2989.84249
 3174.49200 8.71240 0.02030 0.06230 77.43310 62.87960 0.19220 0.95400 2.47060 2.46750 0.98590 0.97360 2989.98397
 3174.64440 8.73120 0.04200 0.07710 75.35870 62.61040 0.18790 0.93710 2.47230 2.47600 0.95580 0.87950 2990.12545
 3174.79680 8.75350 0.05440 0.08550 75.26050 60.77420 0.17800 0.96500 2.48620 2.48990 0.94720 0.86050 2990.26693
 3174.94920 8.74300 0.04570 0.09880 77.05040 58.69180 0.16020 1.05930 2.52110 2.53790 1.27210 1.19610 2990.40841
 3175.10160 8.75600 0.02740 0.09900 78.95540 58.67080 0.16980 1.15600 2.55310 2.56720 1.59120 1.56230 2990.54989
 3175.25400 8.78090 0.01380 0.12680 79.80600 57.75250 0.16450 1.18700 2.54530 2.58080 1.67040 1.72520 2990.69137
 3175.40640 8.84110 0.01350 0.14090 80.26790 59.83480 0.17810 1.26720 2.51160 2.53440 1.32320 1.43870 2990.83285
 3175.55880 8.85540 0.01850 0.16060 81.64850 60.03230 0.17650 1.19790 2.49290 2.50650 1.17710 1.19250 2990.97433
 3175.71120 8.86940 0.00830 0.16580 82.11670 63.03110 0.17420 1.11470 2.46850 2.47740 1.10620 1.07640 2991.11581
 3175.86360 8.87310 0.02660 0.18700 80.13450 63.12180 0.19320 1.11430 2.47800 2.47420 1.09450 1.06210 2991.25729
 3176.01600 8.92030 0.04040 0.18230 78.16110 64.97980 0.19490 1.15630 2.48940 2.46640 1.11530 1.09760 2991.39877
 3176.16840 8.91090 0.07090 0.18790 77.02840 66.18880 0.18790 1.19420 2.53670 2.49160 1.24360 1.23740 2991.54025
 3176.32080 8.86780 0.07790 0.18450 76.84030 69.65620 0.18030 1.20280 2.56550 2.51210 1.39150 1.36770 2991.68173
 3176.47320 8.86820 0.07180 0.19290 77.94440 71.75200 0.17010 1.25520 2.57030 2.53090 1.35970 1.36980 2991.82321
 3176.62560 8.81790 0.05130 0.18560 78.10180 74.65100 0.17510 1.27640 2.53730 2.51720 1.33930 1.28180 2991.96469
 3176.77800 8.81540 0.03130 0.19390 78.81090 75.29070 0.18390 1.25350 2.50980 2.51960 1.31120 1.24750 2992.10616
 3176.93040 8.86130 0.03070 0.20050 79.55430 77.40050 0.17110 1.26490 2.50580 2.52240 1.35800 1.26680 2992.24764
 3177.08280 8.83390 0.04120 0.20310 79.72990 77.97160 0.16570 1.25480 2.52400 2.53530 1.40850 1.38680 2992.38912
 3177.23520 8.81580 0.04240 0.19630 79.39800 80.85590 0.17230 1.24500 2.51740 2.52740 1.35190 1.36680 2992.53060
 3177.38760 8.85270 0.03600 0.19820 79.32080 80.11910 0.17520 1.22030 2.50860 2.52100 1.26830 1.28440 2992.67208
 3177.54000 8.89000 0.02530 0.20690 79.73580 75.45330 0.16410 1.22680 2.49660 2.50910 1.21730 1.19730 2992.81356
 3177.69240 8.88700 0.02200 0.20710 80.43420 69.89210 0.17170 1.21300 2.49660 2.50630 1.20630 1.18170 2992.95504
 3177.84480 8.91490 0.01860 0.19550 81.48090 66.32560 0.16310 1.17660 2.49620 2.49730 1.22140 1.26090 2993.09652
 3177.99720 8.88250 0.01120 0.18640 81.95080 65.77790 0.16750 1.19160 2.49720 2.49890 1.18460 1.27840 2993.23800
 3178.14960 8.89320 0.01510 0.18650 82.44560 68.06320 0.19520 1.20070 2.50010 2.49510 1.21360 1.37060 2993.37948
 3178.30200 9.04830 0.01030 0.19030 82.85000 72.01110 0.19390 1.15470 2.48160 2.49350 1.03330 1.16610 2993.52096
 3178.45440 8.97810 0.01410 0.17730 80.91850 74.68320 0.18620 1.16560 2.47300 2.48440 1.03610 1.05860 2993.66244
 3178.60680 8.88290 0.01320 0.17520 79.30700 73.40810 0.18460 1.12640 2.47700 2.50080 1.05190 1.08580 2993.80392
 3178.75920 8.89640 0.01490 0.17220 78.04040 69.13520 0.18240 1.12710 2.48870 2.50820 1.10380 1.08310 2993.94540
 3178.91160 8.96710 0.02000 0.18590 77.11720 66.06110 0.16730 1.12220 2.49550 2.53460 1.28350 1.27050 2994.08688
 3179.06400 8.96030 0.02010 0.17390 77.96060 65.99390 0.16870 1.12110 2.49110 2.53440 1.26650 1.30690 2994.22836
 3179.21640 8.92020 0.02930 0.15930 78.86920 66.39350 0.17040 1.18150 2.50330 2.53620 1.29190 1.29790 2994.36983
 3179.36880 8.86760 0.02470 0.14820 79.28850 69.43610 0.16660 1.19260 2.51190 2.53240 1.29460 1.31530 2994.51131
 3179.52120 8.87130 0.03220 0.15040 79.61050 71.91630 0.17150 1.19290 2.53060 2.51870 1.25740 1.25550 2994.65279
 3179.67360 8.90030 0.04360 0.16630 78.74780 72.47660 0.17600 1.21120 2.52670 2.50710 1.20210 1.18500 2994.79427
 3179.82600 9.02830 0.05830 0.15960 76.38740 71.57980 0.17860 1.21640 2.51440 2.48670 1.18120 1.18290 2994.93575
 3179.97840 8.99550 0.04920 0.15670 74.99460 68.11220 0.17820 1.19900 2.50590 2.49630 1.26310 1.27010 2995.07723
 3180.13080 8.82690 0.02430 0.14910 75.12030 67.55510 0.17490 1.28940 2.50560 2.52400 1.37670 1.34640 2995.21871
