~Version ---------------------------------------------------
VERS     .                             2.0 : CWLS log ASCII Standard -VERSION 2.0
WRAP     .                              NO : One Line per depth step
PROD     .         CROCKER DATA PROCESSING : LAS Producer
PROG     .                   LAS Viewer v0 : LAS Program name and version
CREA     .                2019/04/03 21-01 : LAS Creation date {YYYY/MM/DD hh-mm}
DLIS_CREA.               2009-Aug-25 10-08 : DLIS Creation date and time {YYYY-MMM-DD hh-mm}
SOURCE   . WLC_PETRO_COMPUTED_INPUT_1.DLIS : DLIS File Name
FILE-ID  .               CPI_INPUT.logdata : File Identification Number
~Well ------------------------------------------------------
STRT .m               2560.0152 : START DEPTH
STOP .m               3222.1932 : STOP DEPTH
STEP .m       0.152400000000398 : STEP
NULL .                  -999.25 : NULL VALUE
COMP .             STATOILHYDRO : COMPANY
WELL .              15/9-F-15 C : WELL
FIELD.                    VOLVE : FIELD
LOC  .                          : LOCATION
CNTY .                          : COUNTY
STAT .                          : STATE
NATI .                          : COUNTRY
API  .                          : API NUMBER
UWI  .                          : UNIQUE WELL ID
SRVC .                          : SERVICE COMPANY
LATI . 058 26' 29.706" N    DMS : LATITUDE
LONG . 001 53' 15.149" E    DMS : LONGITUDE
GDAT .                      MSL : GeoDetic Datum
~Curve Information -----------------------------------------
DEPTH.m      : Measured Depth
CALI .IN     : 
DRHO .G/CC   : 
DRHU .G/CC   : 
DT   .US/FT  : 
GR   .GAPI   : 
NPHI .V/V    : 
RD   .OHMM   : 
RHOB .G/CC   : 
ROBU .G/CC   : 
RS   .OHMM   : 
RT   .OHMM   : 
TVD  .M      : True Vertical Depth from PyLasMech
~Params ----------------------------------------------------
RUN . MWD RUN 12-13 : Run number
PDAT.           MSL : Perm. Datum
~Other -----------------------------------------------------
~ASCII -----------------------------------------------------
# ...
 2931.56640 8.67220 0.04590 0.05490 73.41320 12.83150 0.13620 2.16700 2.49990 2.51270 2.23320 2.32470 2759.71300
 2931.71880 8.70760 0.05440 0.04780 74.03600 14.48020 0.13360 2.18510 2.49400 2.48810 1.94740 1.98520 2759.86145
 2931.87120 8.74480 0.05610 0.05680 75.45350 15.12250 0.13590 2.11740 2.50070 2.48740 1.93720 1.95830 2760.00989
 2932.02360 8.71830 0.05290 0.06180 76.69360 14.59630 0.13310 2.08530 2.51440 2.50280 2.08250 2.07510 2760.15834
 2932.17600 8.71640 0.04110 0.08030 76.72780 14.09730 0.13000 2.08530 2.51430 2.52760 2.12350 2.11760 2760.30678
 2932.32840 8.68320 0.03420 0.08580 76.27060 15.77520 0.11720 2.12440 2.51510 2.53760 2.09000 2.11660 2760.45523
 2932.48080 8.68170 0.03060 0.09490 75.86020 16.39970 0.12090 2.18520 2.52040 2.54410 2.14540 2.11650 2760.60368
 2932.63320 8.69140 0.03760 0.09660 75.15160 17.11850 0.12920 2.13060 2.54060 2.54330 2.24710 2.27730 2760.75212
 2932.78560 8.68130 0.03420 0.09950 72.48930 14.95550 0.12550 2.11350 2.53610 2.53950 2.27890 2.33010 2760.90057
 2932.93800 8.65980 0.02780 0.09760 70.57620 14.27330 0.12720 2.07700 2.52690 2.52890 2.29920 2.34270 2761.04902
 2933.09040 8.65650 0.02320 0.09910 69.51270 14.57120 0.13210 2.09270 2.51120 2.51920 2.08600 2.11590 2761.19746
 2933.24280 8.67340 0.01790 0.09680 70.52320 15.93940 0.12330 2.11030 2.50450 2.51350 1.99020 1.94500 2761.34591
 2933.39520 8.64640 0.01380 0.09320 72.95940 15.35620 0.12670 1.99610 2.49570 2.51780 2.20910 2.17500 2761.49435
 2933.54760 8.63660 0.01440 0.09290 74.05090 14.16800 0.13620 1.96120 2.49920 2.52080 2.18900 2.21490 2761.64280
 2933.70000 8.65500 0.02430 0.09030 75.93990 15.96610 0.14280 1.96490 2.50750 2.51320 2.00770 2.03400 2761.79125
 2933.85240 8.64120 0.02440 0.09210 77.62560 17.76410 0.13410 2.08790 2.50320 2.51080 1.73020 1.70000 2761.93969
 2934.00480 8.62120 0.01700 0.09660 76.67800 17.28070 0.14140 1.91920 2.48900 2.50640 1.91860 1.95230 2762.08814
 2934.15720 8.62910 0.01270 0.11090 75.66230 14.22930 0.14180 1.90590 2.48360 2.51700 1.84540 2.06190 2762.23659
 2934.30960 8.68010 0.01880 0.11210 75.51950 15.82700 0.14640 1.83510 2.49510 2.49820 1.71600 1.98460 2762.38503
 2934.46200 8.66560 0.02570 0.11300 76.27400 19.66050 0.15260 1.81260 2.50630 2.50620 1.39450 1.64660 2762.53348
 2934.61440 8.71520 0.02060 0.09630 77.71800 22.55500 0.13650 1.94170 2.51250 2.50150 1.44510 1.56160 2762.68192
 2934.76680 8.61600 0.01760 0.08770 79.31750 21.00970 0.14000 1.84230 2.51700 2.52170 1.95390 2.04290 2762.83037
 2934.91920 8.62500 0.01430 0.07680 80.94560 17.06230 0.14070 2.01920 2.51440 2.52110 2.03640 2.26020 2762.97882
 2935.07160 8.62810 0.02190 0.07190 83.97620 13.45570 0.13190 2.15380 2.51470 2.52390 2.12630 2.12060 2763.12726
 2935.22400 8.67370 0.02640 0.08250 82.77740 10.75010 0.12450 2.17950 2.54070 2.55690 2.47920 2.41580 2763.27571
 2935.37640 8.68200 0.02570 0.06160 77.24310 10.24900 0.10000 2.22650 2.59140 2.58440 3.26770 3.10160 2763.42416
 2935.52880 8.65150 0.02410 0.06200 76.49100 10.97280 0.08940 2.36010 2.62860 2.62510 3.58270 3.56620 2763.57260
 2935.68120 8.67460 0.03200 0.04340 77.96200 12.01320 0.10020 2.50530 2.61260 2.58870 3.38860 3.77920 2763.72105
 2935.83360 8.65400 0.03170 0.05510 78.70310 11.64400 0.10980 2.58310 2.55230 2.54260 2.69740 3.28290 2763.86949
 2935.98600 8.64740 0.03430 0.06100 79.27180 11.72390 0.11060 2.56810 2.52460 2.50690 2.33570 2.53260 2764.01794
 2936.13840 8.65790 0.02530 0.06450 78.86700 13.51770 0.12100 2.51790 2.51630 2.50090 2.14480 2.20870 2764.16639
 2936.29080 8.70620 0.02060 0.06810 77.25390 17.10360 0.11420 2.48760 2.53820 2.52810 2.21060 2.13970 2764.31483
 2936.44320 8.67740 0.02880 0.06620 75.53000 19.13450 0.11070 2.41300 2.55200 2.54830 2.31940 2.37360 2764.46328
 2936.59560 8.66630 0.02360 0.07390 74.07030 18.50860 0.11950 2.41680 2.54090 2.56000 2.38890 2.50110 2764.61173
 2936.74800 8.65600 0.02290 0.07380 73.74110 18.39250 0.12170 2.39090 2.53540 2.54460 2.29060 2.41850 2764.76017
 2936.90040 8.72760 0.01510 0.08260 74.46780 19.81590 0.11770 2.43370 2.53840 2.55600 2.09080 2.12620 2764.90862
 2937.05280 8.70310 0.01530 0.08490 75.36650 21.35310 0.10920 2.42570 2.55670 2.57010 2.19980 2.12850 2765.05707
 2937.20520 8.68280 0.02270 0.08770 76.23750 20.26800 0.11980 2.37160 2.55870 2.58500 2.53740 2.51480 2765.20551
 2937.35760 8.70450 0.03810 0.07280 76.87310 16.91590 0.11910 2.39680 2.55200 2.55110 2.45210 2.53490 2765.35396
 2937.51000 8.74960 0.04110 0.05910 77.11280 14.47090 0.11770 2.35640 2.52290 2.51920 2.36370 2.46240 2765.50240
 2937.66240 8.75990 0.02630 0.05840 77.78660 15.75830 0.11530 2.34350 2.50780 2.51380 2.32800 2.39320 2765.65085
 2937.81480 8.70680 0.01480 0.06480 79.21810 20.10130 0.11960 2.39780 2.51510 2.53920 2.17870 2.16490 2765.79930
 2937.96720 8.70540 0.01990 0.06670 79.48380 23.49560 0.11550 2.38050 2.54570 2.55810 2.22630 2.17280 2765.94774
 2938.11960 8.68150 0.02460 0.07230 78.51550 24.12630 0.11030 2.33530 2.55380 2.57050 2.38370 2.42250 2766.09619
 2938.27200 8.72300 0.02330 0.08150 77.85390 23.72520 0.11440 2.33820 2.54270 2.55760 2.29090 2.41410 2766.24464
 2938.42440 8.71460 0.03180 0.08860 77.05790 24.00450 0.12160 2.30250 2.53800 2.54960 2.21410 2.36760 2766.39308
 2938.57680 8.69750 0.04600 0.08660 75.70550 26.00300 0.12720 2.25210 2.54710 2.54780 2.13030 2.23180 2766.54153
 2938.72920 8.73530 0.04950 0.08810 74.39570 27.75510 0.11840 2.36190 2.54550 2.55240 1.85590 1.81220 2766.68997
 2938.88160 8.67010 0.03420 0.09840 73.75940 27.03170 0.11280 2.35610 2.53210 2.55790 2.06090 2.00520 2766.83842
 2939.03400 8.65550 0.02680 0.10300 73.30170 23.16760 0.11920 2.32470 2.52160 2.54140 2.51080 2.58160 2766.98687
 2939.18640 8.66080 0.02100 0.10780 72.46550 19.15700 0.11490 2.44660 2.51660 2.52690 2.49440 2.58450 2767.13531
 2939.33880 8.68140 0.01970 0.11270 72.72070 18.92260 0.11780 2.52420 2.52300 2.53170 2.42240 2.52420 2767.28376
 2939.49120 8.68410 0.01460 0.11740 73.84300 21.25790 0.10590 2.63790 2.52880 2.54770 2.45980 2.43710 2767.43221
 2939.64360 8.67850 0.01510 0.11600 74.71660 22.52840 0.11550 2.61280 2.54250 2.56580 2.75460 2.70380 2767.58065
 2939.79600 8.69360 0.01540 0.10260 75.15760 22.16310 0.10850 2.66250 2.54820 2.55570 2.78090 2.78760 2767.72910
 2939.94840 8.68160 0.01840 0.09220 74.80440 20.45310 0.10780 2.73870 2.55330 2.54490 2.74180 2.80400 2767.87754
 2940.10080 8.68140 0.01680 0.08420 74.38160 20.41510 0.11450 2.69690 2.55210 2.54940 2.83440 2.90940 2768.02599
 2940.25320 8.62120 0.02320 0.07700 75.10220 22.01580 0.11220 2.73400 2.55440 2.55220 2.65550 2.72800 2768.17444
 2940.40560 8.68660 0.01940 0.07700 75.65740 22.50020 0.11610 2.71640 2.54590 2.56270 2.63690 2.63640 2768.32288
 2940.55800 8.63510 0.03190 0.06790 75.09620 22.42290 0.12220 2.67320 2.54750 2.55160 2.72170 2.71610 2768.47133
 2940.71040 8.67450 0.02720 0.07260 74.56970 20.46740 0.11390 2.69670 2.54610 2.55860 2.63420 2.63300 2768.61978
 2940.86280 8.69250 0.04110 0.05970 74.30710 20.87200 0.12050 2.70150 2.56240 2.55540 2.63040 2.68770 2768.76822
 2941.01520 8.66860 0.04590 0.05020 73.81550 20.70320 0.12330 2.69690 2.56920 2.56750 2.48240 2.57240 2768.91667
 2941.16760 8.67930 0.04870 0.03620 72.60400 21.68290 0.12060 2.64330 2.56110 2.56470 2.41450 2.50150 2769.06511
 2941.32000 8.64110 0.04190 0.03700 72.06230 21.76940 0.12590 2.64770 2.55270 2.56500 2.28080 2.37150 2769.21356
 2941.47240 8.64180 0.03360 0.03690 71.95810 19.53020 0.12290 2.66580 2.54550 2.55610 2.31960 2.41730 2769.36201
 2941.62480 8.62750 0.03730 0.04240 70.40040 16.80210 0.11700 2.70900 2.55100 2.55580 2.32890 2.41380 2769.51045
 2941.77720 8.63690 0.04250 0.04080 68.30960 13.79070 0.11070 2.86570 2.55540 2.54820 2.85470 2.85560 2769.65890
 2941.92960 8.63880 0.04190 0.03690 67.19260 13.73450 0.10070 3.00040 2.55840 2.54540 3.14470 3.14280 2769.80735
 2942.08200 8.62790 0.04180 0.03250 67.04420 13.27940 0.10100 3.13240 2.56040 2.55060 3.37290 3.41120 2769.95579
 2942.23440 8.63060 0.03420 0.02940 67.11710 13.04490 0.09740 3.27950 2.54610 2.55570 3.36240 3.42090 2770.10424
