~Version ---------------------------------------------------
VERS     .                             2.0 : CWLS log ASCII Standard -VERSION 2.0
WRAP     .                              NO : One Line per depth step
PROD     .         CROCKER DATA PROCESSING : LAS Producer
PROG     .                   LAS Viewer v0 : LAS Program name and version
CREA     .                2019/04/03 21-01 : LAS Creation date {YYYY/MM/DD hh-mm}
DLIS_CREA.               2009-Aug-25 10-08 : DLIS Creation date and time {YYYY-MMM-DD hh-mm}
SOURCE   . WLC_PETRO_COMPUTED_INPUT_1.DLIS : DLIS File Name
FILE-ID  .               CPI_INPUT.logdata : File Identification Number
~Well ------------------------------------------------------
STRT .m               2560.0152 : START DEPTH
STOP .m               3222.1932 : STOP DEPTH
STEP .m       0.152400000000398 : STEP
NULL .                  -999.25 : NULL VALUE
COMP .             STATOILHYDRO : COMPANY
WELL .              15/9-F-15 C : WELL
FIELD.                    VOLVE : FIELD
LOC  .                          : LOCATION
CNTY .                          : COUNTY
STAT .                          : STATE
NATI .                          : COUNTRY
API  .                          : API NUMBER
UWI  .                          : UNIQUE WELL ID
SRVC .                          : SERVICE COMPANY
LATI . 058 26' 29.706" N    DMS : LATITUDE
LONG . 001 53' 15.149" E    DMS : LONGITUDE
GDAT .                      MSL : GeoDetic Datum
~Curve Information -----------------------------------------
DEPTH.m      : Measured Depth
CALI .IN     : 
DRHO .G/CC   : 
DRHU .G/CC   : 
DT   .US/FT  : 
GR   .GAPI   : 
NPHI .V/V    : 
RD   .OHMM   : 
RHOB .G/CC   : 
ROBU .G/CC   : 
RS   .OHMM   : 
RT   .OHMM   : 
TVD  .M      : True Vertical Depth from PyLasMech
~Params ----------------------------------------------------
RUN . MWD RUN 12-13 : Run number
PDAT.           MSL : Perm. Datum
~Other -----------------------------------------------------
~ASCII -----------------------------------------------------
# ...
 3094.02480 8.82450 0.04830 0.12830 77.16970 36.50080 0.15790 1.64020 2.60180 2.60600 1.65580 1.64900 2914.69981
 3094.17720 8.87710 0.05490 0.11720 77.03760 38.82430 0.14650 1.71360 2.61210 2.59940 1.69170 1.64790 2914.84495
 3094.32960 8.82160 0.03400 0.11950 78.10920 37.61420 0.14450 1.78690 2.60420 2.60500 1.80530 1.78130 2914.99010
 3094.48200 8.77690 0.02690 0.10990 80.93230 35.42530 0.15750 1.74190 2.59980 2.59770 1.88100 2.01640 2915.13524
 3094.63440 8.78150 0.02030 0.11240 80.37600 36.06690 0.15040 1.84350 2.58780 2.59270 1.80760 1.80270 2915.28038
 3094.78680 8.79120 0.03050 0.12060 78.61900 37.55600 0.14040 1.79940 2.58870 2.59080 1.71340 1.75400 2915.42552
 3094.93920 8.85300 0.03660 0.13960 78.22890 42.20210 0.15830 1.83470 2.58880 2.59610 1.71100 1.72840 2915.57067
 3095.09160 8.89090 0.03580 0.13650 77.07200 44.86490 0.16560 1.84750 2.58490 2.59480 1.73280 1.73770 2915.71581
 3095.24400 8.88760 0.04060 0.13230 77.35370 46.34440 0.16310 1.84970 2.59060 2.60000 1.73910 1.77250 2915.86095
 3095.39640 8.84220 0.03620 0.12340 80.10600 43.21260 0.14350 1.85180 2.59450 2.59870 1.80390 1.81700 2916.00610
 3095.54880 8.78650 0.04140 0.12820 84.12130 40.60430 0.14750 1.84350 2.61050 2.61470 1.83220 1.84720 2916.15124
 3095.70120 8.73780 0.03780 0.11620 87.46760 42.74310 0.16160 1.82320 2.60970 2.61250 1.86620 1.91790 2916.29638
 3095.85360 8.77690 0.03100 0.11190 88.65330 48.88760 0.16580 1.87960 2.59810 2.61100 1.76710 1.77850 2916.44152
 3096.00600 8.81310 0.02330 0.12160 89.33660 55.38160 0.16870 1.86530 2.58710 2.62040 1.71990 1.72940 2916.58667
 3096.15840 8.84530 0.01870 0.13520 89.82360 56.82730 0.17120 1.85540 2.58660 2.61880 1.67640 1.69280 2916.73181
 3096.31080 8.85520 0.02230 0.13750 90.52090 57.88900 0.18610 1.80730 2.58320 2.61880 1.68450 1.72600 2916.87695
 3096.46320 8.81680 0.02350 0.12760 88.59510 60.23810 0.18970 1.79990 2.57520 2.60520 1.64470 1.68600 2917.02210
 3096.61560 8.79730 0.02590 0.12820 83.90390 63.36180 0.18350 1.85540 2.57420 2.60260 1.59530 1.61470 2917.16724
 3096.76800 8.78340 0.03270 0.13070 81.65720 63.13410 0.17730 1.81900 2.58400 2.59930 1.60970 1.61420 2917.31238
 3096.92040 8.76820 0.04420 0.13060 80.76290 61.56830 0.18220 1.81750 2.58630 2.59340 1.69030 1.69030 2917.45752
 3097.07280 8.75130 0.05600 0.12730 80.57560 61.29660 0.17760 1.86230 2.59500 2.59040 1.76080 1.76180 2917.60267
 3097.22520 8.75370 0.05760 0.12540 80.83570 61.74480 0.16500 1.86300 2.59840 2.59060 1.86440 1.87410 2917.74781
 3097.37760 8.71700 0.06160 0.12180 80.57490 60.85660 0.16520 1.94650 2.61870 2.58880 1.90300 1.85490 2917.89295
 3097.53000 8.72450 0.05820 0.12250 80.02960 57.11530 0.16860 1.96020 2.61410 2.59520 1.96490 1.93600 2918.03810
 3097.68240 8.72720 0.05140 0.13110 79.74470 54.54630 0.14450 1.95730 2.61130 2.60220 2.04450 2.04220 2918.18324
 3097.83480 8.72080 0.03320 0.14470 81.12210 53.17870 0.15300 2.03300 2.59440 2.61470 2.00910 2.00840 2918.32838
 3097.98720 8.68550 0.03670 0.15210 82.44190 56.17510 0.16020 1.99080 2.59780 2.61880 1.97630 2.06560 2918.47352
 3098.13960 8.80320 0.03410 0.16220 82.77760 60.73340 0.17480 2.01570 2.58910 2.62170 1.84870 1.87570 2918.61867
 3098.29200 8.80200 0.04070 0.16230 82.63980 63.63250 0.16140 2.00890 2.59890 2.60840 1.79840 1.82410 2918.76381
 3098.44440 8.78760 0.03290 0.15800 81.54900 63.47590 0.16240 2.03830 2.60010 2.60470 1.79840 1.82260 2918.90895
 3098.59680 8.80230 0.04110 0.14800 81.79460 60.76060 0.15870 1.99670 2.61940 2.60680 1.89090 1.91840 2919.05410
 3098.74920 8.81360 0.05030 0.13690 82.36610 60.27210 0.14790 1.98400 2.62110 2.61960 1.93610 1.97840 2919.19924
 3098.90160 8.78430 0.06300 0.12770 82.39330 60.74090 0.14790 1.96980 2.62250 2.62050 2.03350 2.08190 2919.34438
 3099.05400 8.82330 0.06630 0.10470 80.35880 64.09860 0.14140 1.98430 2.62360 2.60980 2.02790 2.06960 2919.48952
 3099.20640 8.70690 0.06000 0.10720 77.68810 70.47090 0.14390 1.94310 2.62370 2.62270 2.03080 2.06530 2919.63467
 3099.35880 8.72530 0.06430 0.09440 80.54640 75.92010 0.14220 1.91900 2.63330 2.61630 2.01540 2.04730 2919.77981
 3099.51120 8.74930 0.06160 0.09130 85.54000 80.97320 0.15320 1.87690 2.60870 2.60980 1.91120 1.96030 2919.92495
 3099.66360 8.74540 0.07770 0.08110 87.98540 86.40290 0.16780 1.73080 2.60800 2.59070 1.80150 1.89880 2920.07010
 3099.81600 8.77550 0.06660 0.09050 91.76220 94.04390 0.17380 1.77470 2.58940 2.58820 1.56050 1.48530 2920.21524
 3099.96840 8.75300 0.07330 0.09980 95.82260 104.70710 0.17410 1.58300 2.59720 2.60040 1.50580 1.53360 2920.36038
 3100.12080 8.76410 0.06360 0.09680 104.12820 124.01790 0.21510 1.39860 2.56260 2.59590 1.44580 1.59060 2920.50552
 3100.27320 8.80160 0.04120 0.09120 117.47960 155.95731 0.25210 1.45590 2.46030 2.56950 1.18370 1.19010 2920.65067
 3100.42560 8.80180 0.02440 0.08270 126.17720 198.51871 0.37300 1.49580 2.34070 2.47310 1.02890 0.97180 2920.79581
 3100.57800 8.81060 0.01630 0.08360 130.82080 234.28510 0.40890 1.29290 2.26860 2.38140 1.26130 1.39530 2920.94095
 3100.73040 8.81050 0.02730 0.07830 132.28081 257.24081 0.49370 1.37860 2.26120 2.30880 1.18890 1.24340 2921.08610
 3100.88280 8.81840 0.01530 0.07860 131.79761 270.38409 0.47580 1.49270 2.26000 2.29400 1.09730 1.07690 2921.23124
 3101.03520 8.82980 0.02000 0.07290 129.85780 275.07141 0.46280 1.48660 2.25430 2.28400 1.11720 1.07790 2921.37638
 3101.18760 8.81760 0.01980 0.06760 128.55589 278.85010 0.45270 1.34390 2.24360 2.27340 1.18360 1.24460 2921.52152
 3101.34000 8.80620 0.02840 0.06400 129.07550 276.99960 0.44850 1.40610 2.25370 2.26820 1.14430 1.21300 2921.66667
 3101.49240 8.80330 0.02090 0.05800 127.96040 278.92581 0.46880 1.37330 2.25330 2.26370 1.03990 1.03470 2921.81181
 3101.64480 8.79460 0.02280 0.06990 127.28910 278.08341 0.49280 1.50260 2.25170 2.27900 0.97390 0.88720 2921.95695
 3101.79720 8.79330 0.02730 0.06480 127.56430 279.11371 0.50040 1.42570 2.25730 2.26290 1.20820 1.26130 2922.10210
 3101.94960 8.78480 0.02750 0.06710 128.53110 276.69061 0.53400 1.51050 2.26210 2.25570 1.27520 1.32830 2922.24724
 3102.10200 8.75910 0.01750 0.05450 127.33880 280.21509 0.49200 1.52230 2.25680 2.24740 1.28990 1.32170 2922.39238
 3102.25440 8.78660 0.01860 0.05050 125.93790 276.80359 0.47590 1.70270 2.25200 2.25370 1.38040 1.39460 2922.53752
 3102.40680 8.77370 0.02420 0.05310 125.39430 273.91391 0.52440 1.61330 2.25040 2.25760 1.43060 1.71010 2922.68267
 3102.55920 8.78310 0.02780 0.06500 125.12850 264.67068 0.48090 1.63860 2.24170 2.28360 1.30220 1.41890 2922.82781
 3102.71160 8.76090 0.02840 0.05020 123.69670 253.40460 0.47560 1.76030 2.22850 2.28880 1.26600 1.26560 2922.97295
 3102.86400 8.76820 0.02980 0.05330 122.37550 248.04370 0.46910 1.72760 2.21530 2.29800 1.20000 1.17670 2923.11810
 3103.01640 8.73900 0.04290 0.04410 122.68250 247.85490 0.44930 1.62520 2.22700 2.25840 1.41220 1.52050 2923.26324
 3103.16880 8.74110 0.04960 0.05970 124.48110 251.51030 0.52220 1.66780 2.25080 2.24160 1.48710 1.55230 2923.40838
 3103.32120 8.73360 0.05150 0.05150 127.27760 257.46570 0.47810 1.63110 2.29790 2.24390 1.32890 1.43300 2923.55352
 3103.47360 8.76050 0.04540 0.04800 131.58670 264.32932 0.43020 1.50080 2.32930 2.28720 1.21340 1.22120 2923.69867
 3103.62600 8.77300 0.03990 0.07080 133.04401 260.07990 0.49320 1.63460 2.33200 2.34490 0.98650 0.85310 2923.84381
 3103.77840 8.76070 0.03530 0.07100 131.01250 241.66631 0.46220 1.41840 2.29570 2.33560 1.25880 1.34570 2923.98895
 3103.93080 8.76630 0.03610 0.07170 129.95860 219.09129 0.44030 1.55020 2.25390 2.28930 1.33700 1.40330 2924.13410
 3104.08320 8.77340 0.04350 0.05130 132.63699 210.95641 0.44960 1.61530 2.22280 2.23280 1.38780 1.43650 2924.27924
 3104.23560 8.75600 0.05650 0.05590 132.81619 211.22610 0.57330 1.60110 2.21110 2.23920 1.41860 1.43160 2924.42438
 3104.38800 8.75350 0.06810 0.04770 132.29330 208.53500 0.49000 1.72620 2.21280 2.24120 1.34520 1.31290 2924.56952
 3104.54040 8.82100 0.07170 0.04850 131.36890 206.77490 0.49650 1.60470 2.21500 2.25240 1.38980 1.43780 2924.71467
 3104.69280 8.81140 0.07240 0.04550 129.31239 207.45689 0.49020 1.58620 2.21850 2.24190 1.37850 1.44690 2924.85981
