~Version ---------------------------------------------------
VERS     .                             2.0 : CWLS log ASCII Standard -VERSION 2.0
WRAP     .                              NO : One Line per depth step
PROD     .                    Schlumberger : LAS Producer
PROG     .               DLIS to ASCII 2.3 : LAS Program name and version
CREA     .                   2019/04/03 19 : 51                          :LAS Creation date {YYYY/MM/DD hh:mm}
DLIS_CREA.                  2009-Feb-18 14 : 44                          :DLIS Creation date and time {YYYY-MMM-DD hh:mm}
SOURCE   . WLC_PETRO_COMPUTED_INPUT_1.DLIS : DLIS File Name
FILE-ID  .                   INPUT.logdata : File Identification Number
~Well ------------------------------------------------------
STRT.F                 1382.0 : START DEPTH
STOP.F                12441.0 : STOP DEPTH
STEP.F                    0.5 : STEP
NULL.                 -999.25 : NULL VALUE
COMP.                         : COMPANY
WELL.                15/9-F-5 : WELL
FLD .                   VOLVE : FIELD
LOC .                         : LOCATION
CNTY.         MAERSK INSPIRER : COUNTY
STAT.                         : STATE
CTRY.                         : COUNTRY
API .                         : API NUMBER
UWI .                         : UNIQUE WELL ID
DATE.                         : LOG DATE
SRVC. CROCKER DATA PROCESSING : SERVICE COMPANY
LATI.DEG                      : LATITUDE
LONG.DEG                      : LONGITUDE
GDAT.                         : GeoDetic Datum
~Curve Information -----------------------------------------
DEPTH.F            : DEPTH (BOREHOLE) {F10.1}
DEPTH..1IN         : Measured Depth {I11}
CALI .INCHES       : CALI:UNKNOWN:rC:NONE:v1 {F13.4}
DRHO .G/C3         : DRHO:UNKNOWN:rC:NONE:v1 {F13.4}
DT   .US/F         : DT:UNKNOWN:rC:NONE:v1 {F13.4}
GR   .API          : GR:UNKNOWN:rC:NONE:v1 {F13.4}
NPHI .V/V_DECIMAL  : NPHI:UNKNOWN:rC:NONE:v1 {F13.4}
RD   .UNKNOWN      : RD:UNKNOWN:rC:NONE:v1 {F13.4}
RHOB .G/C3         : RHOB:UNKNOWN:rC:NONE:v1 {F13.4}
RS   .UNKNOWN      : RS:UNKNOWN:rC:NONE:v1 {F13.4}
RT   .OHMM         : RT:UNKNOWN:rC:NONE:v1 {F13.4}
TVD  .M            : True Vertical Depth from PyLasMech
~Params ----------------------------------------------------
WN  .        15/9-F-5 : Well Name
FN  .           VOLVE : Field
CTRY.          NORWAY : Country
COUN. MAERSK INSPIRER : County or Rig name
PDAT.             MSL : Perm. Datum
ELZ .M            0.0 : Elev. Log Zero (wrt EPD)
RUN .                 : RUN NUMBER
EPD .                 : Elevation of Permanent Datum above Mean Sea Level
LMF .                 : Logging Measured From (Name of Logging Elevation Reference)
APD .                 : Elevation of Depth Reference (LMF) above Permanent Datum
~Other -----------------------------------------------------
~ASCII -----------------------------------------------------
# ...
 9696.50000 1163580.00000 -999.25 0.04800 61.30610 9.76600 0.12310 -999.25 2.54000 2.66400 2.66400 2637.45267
 9697.00000 1163640.00000 -999.25 0.05200 59.54620 9.01600 0.11600 -999.25 2.56500 3.30230 3.23500 2637.57722
 9697.50000 1163700.00000 -999.25 0.05600 58.42730 8.26600 0.10210 -999.25 2.59000 3.94070 3.80600 2637.70177
 9698.00000 1163760.00000 -999.25 0.05800 58.28000 8.51070 0.08810 -999.25 2.63000 4.57900 4.37700 2637.82633
 9698.50000 1163820.00000 -999.25 0.06000 59.88790 8.75530 0.07410 -999.25 2.67000 6.22550 7.34900 2637.95088
 9699.00000 1163880.00000 -999.25 0.04270 63.48340 9.00000 0.06810 -999.25 2.63000 7.87200 10.32100 2638.07543
 9699.50000 1163940.00000 -999.25 0.02530 66.50890 9.00000 0.06210 -999.25 2.59000 8.53630 10.48000 2638.19998
 9700.00000 1164000.00000 -999.25 0.00800 67.30170 9.00000 0.08070 -999.25 2.55000 9.20070 10.63900 2638.32453
 9700.50000 1164060.00000 -999.25 0.02600 65.02670 8.63300 0.09920 -999.25 2.53000 9.86500 10.79800 2638.44908
 9701.00000 1164120.00000 -999.25 0.04400 61.52230 8.26600 0.11780 -999.25 2.51000 9.43950 10.55950 2638.57363
 9701.50000 1164180.00000 -999.25 0.05470 59.03860 8.26600 0.09700 -999.25 2.56330 9.01400 10.32100 2638.69818
 9702.00000 1164240.00000 -999.25 0.06530 57.86080 8.26600 0.07620 -999.25 2.61670 9.77470 10.82000 2638.82274
 9702.50000 1164300.00000 -999.25 0.07600 57.54790 8.26600 0.05540 -999.25 2.67000 10.53530 11.31900 2638.94729
 9703.00000 1164360.00000 -999.25 0.05070 57.90900 7.57850 0.05070 -999.25 2.64000 11.29600 11.81800 2639.07184
 9703.50000 1164420.00000 -999.25 0.02530 58.51200 6.89100 0.04590 -999.25 2.61000 10.53530 11.31900 2639.19639
 9704.00000 1164480.00000 -999.25 0.00000 57.88260 7.59400 0.05910 -999.25 2.58000 9.77470 10.82000 2639.32094
 9704.50000 1164540.00000 -999.25 0.03800 57.55340 8.29700 0.07220 -999.25 2.60500 9.01400 10.32100 2639.44549
 9705.00000 1164600.00000 -999.25 0.07600 56.40400 9.00000 0.08530 -999.25 2.63000 7.79250 9.09650 2639.57004
 9705.50000 1164660.00000 -999.25 0.06000 55.38080 9.38300 0.07970 -999.25 2.61670 6.57100 7.87200 2639.69459
 9706.00000 1164720.00000 -999.25 0.04400 56.00220 9.76600 0.07400 -999.25 2.60330 6.12830 7.34170 2639.81914
 9706.50000 1164780.00000 -999.25 0.02800 57.84120 8.59400 0.08890 -999.25 2.59000 5.68570 6.81130 2639.94370
 9707.00000 1164840.00000 -999.25 0.04800 60.74400 7.42200 0.10380 -999.25 2.57000 5.24300 6.28100 2640.06825
 9707.50000 1164900.00000 -999.25 0.06800 63.09470 6.25000 0.11870 -999.25 2.55000 4.71330 5.52030 2640.19280
 9708.00000 1164960.00000 -999.25 0.06530 62.52350 7.62500 0.12380 -999.25 2.54670 4.18370 4.75970 2640.31735
 9708.50000 1165020.00000 -999.25 0.06270 62.09850 9.00000 0.12900 -999.25 2.54330 3.65400 3.99900 2640.44190
 9709.00000 1165080.00000 -999.25 0.06000 62.58760 8.29700 0.12630 -999.25 2.54000 3.49600 3.82650 2640.56645
 9709.50000 1165140.00000 -999.25 0.06000 62.58390 7.59400 0.12360 -999.25 2.54000 3.33800 3.65400 2640.69100
 9710.00000 1165200.00000 -999.25 0.06000 61.36970 6.89100 0.12080 -999.25 2.54000 3.28900 3.83070 2640.81555
 9710.50000 1165260.00000 -999.25 0.06000 60.22570 6.57050 0.11900 -999.25 2.54670 3.24000 4.00730 2640.94011
 9711.00000 1165320.00000 -999.25 0.06600 59.25680 6.25000 0.11710 -999.25 2.55330 3.19100 4.18400 2641.06466
 9711.50000 1165380.00000 -999.25 0.07200 59.25100 6.46370 0.11400 -999.25 2.56000 3.34200 4.28050 2641.18921
 9712.00000 1165440.00000 -999.25 0.06530 60.06330 6.67730 0.11080 -999.25 2.56330 3.49300 4.37700 2641.31376
 9712.50000 1165500.00000 -999.25 0.05870 60.21880 6.89100 0.10770 -999.25 2.56670 3.54670 4.31270 2641.43831
 9713.00000 1165560.00000 -999.25 0.05200 59.65770 7.59400 0.10710 -999.25 2.57000 3.60030 4.24830 2641.56286
 9713.50000 1165620.00000 -999.25 0.05330 60.39460 8.29700 0.10640 -999.25 2.55670 3.65400 4.18400 2641.68741
 9714.00000 1165680.00000 -999.25 0.05470 61.70410 9.00000 0.10630 -999.25 2.54330 3.57350 4.00350 2641.81196
 9714.50000 1165740.00000 -999.25 0.05600 61.29250 9.00000 0.10610 -999.25 2.53000 3.49300 3.82300 2641.93652
 9715.00000 1165800.00000 -999.25 0.06000 59.60510 9.00000 0.10600 -999.25 2.56000 3.34530 3.56530 2642.06107
 9715.50000 1165860.00000 -999.25 0.06400 59.95060 9.79700 0.10930 -999.25 2.59000 3.19770 3.30770 2642.18562
 9716.00000 1165920.00000 -999.25 0.05070 60.49170 10.59400 0.11260 -999.25 2.59670 3.05000 3.05000 2642.31017
 9716.50000 1165980.00000 -999.25 0.03730 61.40060 11.39100 0.12250 -999.25 2.60330 2.66400 2.91500 2642.43472
 9717.00000 1166040.00000 -999.25 0.02400 62.77130 10.34930 0.12170 -999.25 2.61000 2.43400 2.54600 2642.55927
 9717.50000 1166100.00000 -999.25 0.00800 63.46900 9.30770 0.13230 -999.25 2.54500 2.32600 2.54900 2642.68382
 9718.00000 1166160.00000 -999.25 -0.00800 63.10560 8.26600 0.14740 -999.25 2.48000 2.12500 2.22400 2642.80837
 9718.50000 1166220.00000 -999.25 0.00800 62.94680 9.01600 0.14430 -999.25 2.48330 2.22400 2.32600 2642.93292
 9719.00000 1166280.00000 -999.25 0.02400 62.48440 9.76600 0.14050 -999.25 2.48670 2.27500 2.38000 2643.05748
 9719.50000 1166340.00000 -999.25 0.04000 62.08410 9.76600 0.12430 -999.25 2.49000 2.43400 2.54600 2643.18203
 9720.00000 1166400.00000 -999.25 0.04200 62.16400 9.76600 0.13400 -999.25 2.48000 2.78700 2.78700 2643.30658
 9720.50000 1166460.00000 -999.25 0.04400 60.92990 9.76600 0.12170 -999.25 2.47000 3.27100 3.34200 2643.43113
 9721.00000 1166520.00000 -999.25 0.05200 58.96130 9.01600 0.11190 -999.25 2.50330 3.99900 3.99900 2643.55568
 9721.50000 1166580.00000 -999.25 0.06000 57.92370 8.26600 0.09580 -999.25 2.53670 5.01700 5.13800 2643.68023
 9722.00000 1166640.00000 -999.25 0.06800 57.15770 8.51070 0.07660 -999.25 2.57000 7.50000 7.29900 2643.80478
 9722.50000 1166700.00000 -999.25 0.06000 56.19610 8.75530 0.05970 -999.25 2.59000 8.83300 8.83300 2643.92933
 9723.00000 1166760.00000 -999.25 0.06800 53.97110 9.00000 0.04580 -999.25 2.65000 11.29600 10.79800 2644.05389
 9723.50000 1166820.00000 -999.25 0.07200 53.62540 10.19550 0.04340 -999.25 2.72000 11.29600 10.79800 2644.17844
 9724.00000 1166880.00000 -999.25 0.05600 54.59530 11.39100 0.04980 -999.25 2.67000 11.81800 11.34300 2644.30299
 9724.50000 1166940.00000 -999.25 0.05200 55.47880 10.59400 0.04980 -999.25 2.65000 11.81800 10.79800 2644.42754
 9725.00000 1167000.00000 -999.25 0.05600 55.08880 9.79700 0.05010 -999.25 2.67000 11.29600 10.48000 2644.55209
 9725.50000 1167060.00000 -999.25 0.04800 54.93840 9.00000 0.04940 -999.25 2.65000 10.79800 10.32100 2644.67664
 9726.00000 1167120.00000 -999.25 0.05600 55.31040 9.00000 0.04660 -999.25 2.68000 10.79800 10.32100 2644.80119
 9726.50000 1167180.00000 -999.25 0.04000 54.10800 9.00000 0.05230 -999.25 2.65000 10.32100 10.32100 2644.92574
 9727.00000 1167240.00000 -999.25 0.01600 55.23140 12.25000 0.06040 -999.25 2.63000 10.16900 10.32100 2645.05030
 9727.50000 1167300.00000 -999.25 0.03200 57.96830 11.39100 0.06770 -999.25 2.63000 9.72000 9.30400 2645.17485
 9728.00000 1167360.00000 -999.25 0.02800 59.25140 12.25000 0.07160 -999.25 2.63000 9.01400 8.61600 2645.29940
 9728.50000 1167420.00000 -999.25 0.02800 58.35970 9.00000 0.07420 -999.25 2.61000 8.61600 9.01400 2645.42395
 9729.00000 1167480.00000 -999.25 0.03200 57.25130 9.00000 0.06330 -999.25 2.61000 8.61600 9.01400 2645.54850
 9729.50000 1167540.00000 -999.25 0.04800 58.93400 11.39100 0.06610 -999.25 2.64000 8.61600 8.88100 2645.67305
 9730.00000 1167600.00000 -999.25 0.05200 62.47870 12.25000 0.06860 -999.25 2.62000 8.74800 9.15200 2645.79760
 9730.50000 1167660.00000 -999.25 0.04800 62.47070 12.25000 0.06320 -999.25 2.61000 7.99300 7.76100 2645.92215
 9731.00000 1167720.00000 -999.25 0.04000 60.73800 12.25000 0.05140 -999.25 2.64000 8.76000 8.89300 2646.04670
 9731.50000 1167780.00000 -999.25 0.04400 62.10000 12.25000 0.05440 -999.25 2.63000 9.43000 9.43000 2646.17126
 9732.00000 1167840.00000 -999.25 0.02800 61.48730 9.76600 0.06330 -999.25 2.60000 9.15200 8.89300 2646.29581
 9732.50000 1167900.00000 -999.25 0.03200 59.18650 9.76600 0.06840 -999.25 2.62000 8.61600 8.23500 2646.42036
