~Version ---------------------------------------------------
VERS     .                             2.0 : CWLS log ASCII Standard -VERSION 2.0
WRAP     .                              NO : One Line per depth step
PROD     .                    Schlumberger : LAS Producer
PROG     .               DLIS to ASCII 2.3 : LAS Program name and version
CREA     .                   2019/04/03 19 : 50                          :LAS Creation date {YYYY/MM/DD hh:mm}
DLIS_CREA.                  2009-Feb-18 14 : 26                          :DLIS Creation date and time {YYYY-MMM-DD hh:mm}
SOURCE   . WLC_PETRO_COMPUTED_INPUT_1.DLIS : DLIS File Name
FILE-ID  .                   INPUT.logdata : File Identification Number
~Well ------------------------------------------------------
STRT.F                  657.0 : START DEPTH
STOP.F                11567.5 : STOP DEPTH
STEP.F                    0.5 : STEP
NULL.                 -999.25 : NULL VALUE
COMP.            STATOILHYDRO : COMPANY
WELL.                15/9-F-4 : WELL
FLD .                   VOLVE : FIELD
LOC .                         : LOCATION
CNTY.         MAERSK INSPIRER : COUNTY
STAT.                         : STATE
CTRY.                         : COUNTRY
API .                         : API NUMBER
UWI .                         : UNIQUE WELL ID
DATE.                         : LOG DATE
SRVC. CROCKER DATA PROCESSING : SERVICE COMPANY
LATI.DEG                      : LATITUDE
LONG.DEG                      : LONGITUDE
GDAT.                         : GeoDetic Datum
~Curve Information -----------------------------------------
DEPTH.F            : DEPTH (BOREHOLE) {F10.1}
DEPTH..1IN         : {I11}
DT   .US/F         : {F13.4}
DTS  .US/F         : {F13.4}
GR   .API          : {F13.4}
NPHI .V/V_DECIMAL  : {F13.4}
RD   .UNKNOWN      : {F13.4}
RHOB .G/C3         : {F13.4}
RS   .UNKNOWN      : {F13.4}
RT   .OHMM         : {F13.4}
TVD  .M            : True Vertical Depth from PyLasMech
~Params ----------------------------------------------------
CN  .    STATOILHYDRO : Company
WN  .        15/9-F-4 : Well Name
FN  .           VOLVE : Field
CTRY.          NORWAY : Country
COUN. MAERSK INSPIRER : County or Rig name
PDAT.             MSL : Perm. Datum
ELZ .M            0.0 : Elev. Log Zero (wrt EPD)
RUN .                 : RUN NUMBER
EPD .                 : Elevation of Permanent Datum above Mean Sea Level
LMF .                 : Logging Measured From (Name of Logging Elevation Reference)
APD .                 : Elevation of Depth Reference (LMF) above Permanent Datum
~Other -----------------------------------------------------
~ASCII -----------------------------------------------------
# ...
 10138.00000 1216560.00000 75.57280 149.85130 38.32950 0.14380 3.46390 2.50520 3.09850 3.60960 2973.66696
 10138.50000 1216620.00000 78.74030 153.13020 44.43080 0.15280 3.35670 2.49650 2.51900 2.72990 2973.68981
 10139.00000 1216680.00000 80.93610 155.51990 52.37680 0.16290 2.97220 2.50220 2.28400 2.31510 2973.71265
 10139.50000 1216740.00000 80.07510 155.50020 57.26700 0.16570 2.70560 2.50070 2.14500 2.11360 2973.73549
 10140.00000 1216800.00000 79.75500 153.50490 58.42390 0.16830 2.44960 2.50230 2.07840 2.09890 2973.75833
 10140.50000 1216860.00000 79.69860 152.89220 58.59860 0.16360 2.29920 2.48720 2.02720 2.07790 2973.78117
 10141.00000 1216920.00000 80.56800 154.91390 58.94060 0.16030 2.18660 2.50560 2.01670 2.02870 2973.80402
 10141.50000 1216980.00000 81.03550 157.58010 61.27310 0.15950 2.13450 2.50030 2.00420 1.94620 2973.82686
 10142.00000 1217040.00000 81.10880 159.74390 60.66250 0.16150 2.06660 2.50760 1.99530 1.97690 2973.84970
 10142.50000 1217100.00000 81.10180 156.55040 60.83930 0.16510 2.03510 2.49400 1.94360 1.94880 2973.87254
 10143.00000 1217160.00000 81.78160 158.26010 60.44230 0.17190 1.98550 2.49190 1.94940 1.91830 2973.89539
 10143.50000 1217220.00000 81.29780 155.57950 61.70830 0.16790 1.99650 2.48930 1.87290 1.87090 2973.91823
 10144.00000 1217280.00000 81.50370 154.29750 59.09650 0.16890 1.94920 2.48200 1.91880 1.88360 2973.94107
 10144.50000 1217340.00000 82.05230 154.57020 56.55660 0.16150 1.95930 2.47890 1.88820 1.87980 2973.96391
 10145.00000 1217400.00000 81.46990 155.42390 53.30150 0.16050 1.96140 2.48050 1.96230 1.91380 2973.98675
 10145.50000 1217460.00000 80.99390 157.18200 54.35780 0.16060 1.94430 2.48590 1.97420 1.96690 2974.00960
 10146.00000 1217520.00000 80.55110 158.54420 55.69920 0.16050 1.95400 2.48880 1.99290 1.96080 2974.03244
 10146.50000 1217580.00000 80.64200 159.38810 58.32430 0.16260 1.91700 2.48160 1.99410 2.00050 2974.05528
 10147.00000 1217640.00000 81.45440 160.13530 59.71020 0.16730 1.93140 2.47390 1.96640 1.96760 2974.07812
 10147.50000 1217700.00000 82.24200 159.35780 61.68150 0.17310 1.92880 2.46840 1.92960 1.92200 2974.10096
 10148.00000 1217760.00000 82.84070 156.03810 61.89310 0.17560 1.92370 2.47030 1.87930 1.87890 2974.12381
 10148.50000 1217820.00000 82.98800 155.99360 61.23670 0.16770 1.90300 2.47080 1.84440 1.84460 2974.14665
 10149.00000 1217880.00000 82.63480 155.68680 61.54230 0.16680 1.90770 2.46950 1.84680 1.83090 2974.16949
 10149.50000 1217940.00000 82.14330 156.07290 61.78800 0.17010 1.88110 2.47040 1.87230 1.81850 2974.19233
 10150.00000 1218000.00000 82.57840 156.45290 63.21080 0.18050 1.85790 2.47200 1.87390 1.81140 2974.21518
 10150.50000 1218060.00000 83.03740 157.75990 63.92740 0.17460 1.85150 2.47260 1.87060 1.81920 2974.23802
 10151.00000 1218120.00000 83.13610 156.30110 64.40020 0.16380 1.83160 2.46890 1.87100 1.81880 2974.26086
 10151.50000 1218180.00000 83.39840 155.36040 64.90030 0.17480 1.81060 2.46700 1.85140 1.81740 2974.28370
 10152.00000 1218240.00000 83.29970 154.49010 63.83630 0.17790 1.79840 2.46970 1.81480 1.79370 2974.30654
 10152.50000 1218300.00000 82.91400 153.91060 62.04800 0.17770 1.77430 2.47140 1.77440 1.74960 2974.32939
 10153.00000 1218360.00000 82.58610 154.10400 60.93500 0.18570 1.75110 2.47100 1.73990 1.75990 2974.35223
 10153.50000 1218420.00000 82.85760 154.13880 60.92430 0.18110 1.70830 2.47010 1.71760 1.75260 2974.37507
 10154.00000 1218480.00000 83.62830 153.56690 62.12520 0.17230 1.73470 2.47290 1.65710 1.65160 2974.39791
 10154.50000 1218540.00000 83.80880 153.32280 62.86000 0.18340 1.76350 2.47620 1.61730 1.58110 2974.42076
 10155.00000 1218600.00000 83.94000 154.51650 63.85190 0.17110 1.71380 2.46930 1.62460 1.60160 2974.44360
 10155.50000 1218660.00000 83.89060 153.98090 63.47110 0.18570 1.69010 2.46020 1.64040 1.61460 2974.46644
 10156.00000 1218720.00000 83.71010 154.39490 62.88900 0.19170 1.68940 2.45030 1.64060 1.59990 2974.48928
 10156.50000 1218780.00000 83.62830 155.78430 61.77270 0.18380 1.71220 2.45050 1.61670 1.58650 2974.51212
 10157.00000 1218840.00000 83.93220 157.10190 62.12280 0.18670 1.67880 2.45290 1.63420 1.60700 2974.53497
 10157.50000 1218900.00000 84.34190 156.92510 64.25680 0.18260 1.69550 2.45780 1.63060 1.60240 2974.55781
 10158.00000 1218960.00000 84.03800 155.55310 66.86970 0.19370 1.69700 2.45380 1.65350 1.61540 2974.58065
 10158.50000 1219020.00000 83.30750 153.59260 67.62730 0.19180 1.71020 2.45740 1.68250 1.65310 2974.60349
 10159.00000 1219080.00000 82.41340 152.06420 66.79120 0.18550 1.69990 2.45860 1.71080 1.67140 2974.62633
 10159.50000 1219140.00000 81.75690 152.16160 64.37720 0.17870 1.71910 2.46620 1.73330 1.68600 2974.64918
 10160.00000 1219200.00000 81.05950 152.26510 63.62880 0.17410 1.73320 2.47300 1.77690 1.73050 2974.67202
 10160.50000 1219260.00000 80.64980 150.04020 62.84600 0.17510 1.75320 2.47690 1.79690 1.74810 2974.69486
 10161.00000 1219320.00000 80.85500 148.33800 62.60250 0.17890 1.76630 2.48230 1.79600 1.76920 2974.71770
 10161.50000 1219380.00000 81.27380 149.99940 64.19750 0.18200 1.77630 2.47210 1.79290 1.80140 2974.74055
 10162.00000 1219440.00000 81.79000 150.84180 66.84770 0.18540 1.79820 2.46890 1.77830 1.76750 2974.76339
 10162.50000 1219500.00000 81.66730 150.54410 68.22770 0.17620 1.82890 2.46990 1.74960 1.73320 2974.78623
 10163.00000 1219560.00000 81.86410 151.64330 66.37430 0.18040 1.82780 2.47980 1.74720 1.76650 2974.80907
 10163.50000 1219620.00000 81.76530 152.88240 65.13410 0.16720 1.84760 2.48490 1.77010 1.74830 2974.83191
 10164.00000 1219680.00000 81.67580 153.13620 64.90120 0.15980 1.86450 2.48960 1.79780 1.82240 2974.85476
 10164.50000 1219740.00000 81.78930 150.46780 65.54020 0.15590 1.92290 2.48710 1.82990 1.81230 2974.87760
 10165.00000 1219800.00000 80.25420 145.82440 64.25500 0.16960 1.95480 2.48790 1.88040 1.85520 2974.90044
 10165.50000 1219860.00000 78.39260 147.62400 63.23010 0.16150 1.95100 2.48310 1.95390 1.99610 2974.92328
 10166.00000 1219920.00000 78.39480 147.94360 62.82650 0.15300 1.97430 2.47830 2.01580 2.04060 2974.94612
 10166.50000 1219980.00000 79.59840 149.57400 63.68770 0.16010 2.00900 2.48020 2.02510 2.05540 2974.96897
 10167.00000 1220040.00000 78.19520 146.49760 65.94790 0.15280 2.00050 2.48290 2.08220 2.12010 2974.99181
 10167.50000 1220100.00000 77.22850 144.08900 66.42950 0.14250 2.10880 2.49480 2.15280 2.10260 2975.01465
 10168.00000 1220160.00000 78.06620 142.33170 63.03170 0.15120 2.17940 2.49930 2.24310 2.16100 2975.03749
 10168.50000 1220220.00000 77.54370 143.51480 60.28870 0.14380 2.13190 2.51330 2.35150 2.31280 2975.06034
 10169.00000 1220280.00000 73.78380 149.63290 58.83520 0.12860 2.15850 2.51880 2.41620 2.36500 2975.08318
 10169.50000 1220340.00000 75.98950 154.51960 59.46650 0.14030 2.04670 2.53060 2.29630 2.43600 2975.10602
 10170.00000 1220400.00000 76.49790 156.46730 62.72510 0.15610 2.01190 2.54890 2.09820 2.43320 2975.12886
 10170.50000 1220460.00000 77.07330 154.81570 63.57810 0.17190 2.06190 2.57580 1.83590 2.17940 2975.15170
 10171.00000 1220520.00000 78.57460 155.22220 63.23930 0.14610 2.21040 2.60330 1.51360 1.75320 2975.17455
 10171.50000 1220580.00000 78.36590 156.57300 55.41230 0.15470 1.96740 2.60930 2.06480 2.00520 2975.19739
 10172.00000 1220640.00000 75.87510 153.66890 55.47250 0.15290 1.87000 2.61450 2.08960 2.23610 2975.22023
 10172.50000 1220700.00000 77.67100 150.15880 57.94960 0.13880 1.95860 2.59050 2.04540 2.17350 2975.24307
 10173.00000 1220760.00000 80.94190 152.40720 65.24330 0.13930 1.58990 2.58950 2.07330 2.78570 2975.26591
 10173.50000 1220820.00000 84.66620 148.63120 72.76830 0.17010 1.62640 2.55560 2.00150 2.53410 2975.28876
 10174.00000 1220880.00000 91.56170 -999.25 90.65750 0.18160 1.73050 2.54160 1.81640 1.89860 2975.31160
 10174.50000 1220940.00000 100.51930 -999.25 116.32210 0.24750 1.76620 2.47380 1.38340 1.44970 2975.33444
 10175.00000 1221000.00000 105.52480 -999.25 138.49600 0.29010 1.69300 2.41670 1.12390 1.08540 2975.35728
 10175.50000 1221060.00000 109.25970 -999.25 157.79730 0.37140 1.58820 2.33200 0.93980 0.90190 2975.38013
