~Version ---------------------------------------------------
VERS     .                             2.0 : CWLS log ASCII Standard -VERSION 2.0
WRAP     .                              NO : One Line per depth step
PROD     .                    Schlumberger : LAS Producer
PROG     .               DLIS to ASCII 2.3 : LAS Program name and version
CREA     .                   2019/04/03 19 : 56                          :LAS Creation date {YYYY/MM/DD hh:mm}
DLIS_CREA.                  2009-Feb-18 14 : 31                          :DLIS Creation date and time {YYYY-MMM-DD hh:mm}
SOURCE   . WLC_PETRO_COMPUTED_INPUT_1.DLIS : DLIS File Name
FILE-ID  .                   INPUT.logdata : File Identification Number
~Well ------------------------------------------------------
STRT.F                  566.0 : START DEPTH
STOP.F                12302.0 : STOP DEPTH
STEP.F                    0.5 : STEP
NULL.                 -999.25 : NULL VALUE
COMP.            STATOILHYDRO : COMPANY
WELL.               15/9-F-14 : WELL
FLD .                   VOLVE : FIELD
LOC .                         : LOCATION
CNTY.         MAERSK INSPIRER : COUNTY
STAT.                         : STATE
CTRY.                         : COUNTRY
API .                         : API NUMBER
UWI .                         : UNIQUE WELL ID
DATE.                         : LOG DATE
SRVC. CROCKER DATA PROCESSING : SERVICE COMPANY
LATI.DEG                      : LATITUDE
LONG.DEG                      : LONGITUDE
GDAT.                         : GeoDetic Datum
~Curve Information -----------------------------------------
DEPTH.F            : DEPTH (BOREHOLE) {F10.1}
DEPTH..1IN         : Measured Depth {I11}
DRHO .G/C3         : DRHO:UNKNOWN:rC:NONE:v1 {F13.4}
DT   .US/F         : DT:UNKNOWN:rC:NONE:v2 {F13.4}
DTS  .US/F         : DTS:UNKNOWN:rC:NONE:v1 {F13.4}
GR   .API          : GR:UNKNOWN:rC:NONE:v1 {F13.4}
NPHI .V/V_DECIMAL  : NPHI:UNKNOWN:rC:NONE:v1 {F13.4}
PEF  .B/ELEC       : PEF:UNKNOWN:rC:NONE:v1 {F13.4}
RD   .UNKNOWN      : RD:UNKNOWN:rC:NONE:v1 {F13.4}
RHOB .G/C3         : RHOB:UNKNOWN:rC:NONE:v1 {F13.4}
RS   .UNKNOWN      : RS:UNKNOWN:rC:NONE:v1 {F13.4}
RT   .OHMM         : RT:UNKNOWN:rC:NONE:v1 {F13.4}
TVD  .M            : True Vertical Depth from PyLasMech
~Params ----------------------------------------------------
CN  .    STATOILHYDRO : Company
WN  .       15/9-F-14 : Well Name
FN  .           VOLVE : Field
CTRY.          NORWAY : Country
COUN. MAERSK INSPIRER : County or Rig name
PDAT.             MSL : Perm. Datum
ELZ .M            0.0 : Elev. Log Zero (wrt EPD)
SRVC.         UNKNOWN : Service company
R2  .           INPUT : R2
RUN .                 : RUN NUMBER
EPD .                 : Elevation of Permanent Datum above Mean Sea Level
LMF .                 : Logging Measured From (Name of Logging Elevation Reference)
APD .                 : Elevation of Depth Reference (LMF) above Permanent Datum
~Other -----------------------------------------------------
~ASCII -----------------------------------------------------
# ...
 11608.00000 1392960.00000 0.01630 86.82120 143.71370 33.56070 0.18210 2.33690 17.46150 2.23850 15.01900 16.49350 3026.88350
 11608.50000 1393020.00000 0.02130 87.82880 143.00680 32.69360 0.17130 2.42950 17.46520 2.24450 14.67820 16.30490 3026.95757
 11609.00000 1393080.00000 0.02750 87.56720 143.11520 32.63740 0.17610 2.57370 17.12620 2.24720 14.56370 15.93830 3027.03164
 11609.50000 1393140.00000 0.02760 88.80760 144.13580 32.61080 0.17090 2.64840 17.43950 2.25290 14.16040 15.81540 3027.10570
 11610.00000 1393200.00000 0.02780 90.01830 145.59400 32.69080 0.17470 2.68550 17.24200 2.26080 14.06600 15.72520 3027.17977
 11610.50000 1393260.00000 0.02540 88.55230 145.78740 32.98700 0.16630 2.65940 17.11320 2.26190 13.94180 15.55570 3027.25384
 11611.00000 1393320.00000 0.02370 89.48660 145.90440 33.41280 0.16860 2.69380 16.92180 2.25250 13.90980 15.51240 3027.32791
 11611.50000 1393380.00000 0.02830 88.91120 145.76270 33.57630 0.17410 2.67940 16.99040 2.25580 13.67480 15.45720 3027.40198
 11612.00000 1393440.00000 0.02800 87.73080 145.34040 33.39410 0.17130 2.70270 16.99280 2.25320 13.71160 15.37840 3027.47604
 11612.50000 1393500.00000 0.02910 87.75550 144.52000 32.40280 0.16860 2.64170 17.12410 2.25890 13.77760 15.41890 3027.55011
 11613.00000 1393560.00000 0.02390 87.74700 144.42450 32.89860 0.16910 2.67310 16.89870 2.25120 13.72820 15.42430 3027.62418
 11613.50000 1393620.00000 0.02240 86.78520 146.26750 33.55610 0.16630 2.66960 17.25110 2.25110 13.93430 15.47770 3027.69825
 11614.00000 1393680.00000 0.02250 85.54210 147.09750 34.94600 0.17480 2.71650 17.03760 2.25000 13.96150 15.63140 3027.77232
 11614.50000 1393740.00000 0.01950 87.61590 147.11410 33.90790 0.18750 2.68560 17.07510 2.24250 13.94870 15.59010 3027.84639
 11615.00000 1393800.00000 0.02400 87.59970 146.17350 32.22740 0.18030 2.63790 17.25420 2.24150 13.99970 15.78050 3027.92045
 11615.50000 1393860.00000 0.02360 87.73080 145.69980 30.23730 0.17280 2.57130 17.11770 2.23830 14.22680 15.99010 3027.99452
 11616.00000 1393920.00000 0.02680 87.28660 146.01560 32.27300 0.17060 2.51130 17.40090 2.24480 14.09050 15.98830 3028.06859
 11616.50000 1393980.00000 0.02170 85.95810 145.36430 33.22250 0.17340 2.42480 17.21840 2.24440 14.48490 16.13470 3028.14266
 11617.00000 1394040.00000 0.02040 85.73740 144.48640 33.57720 0.17550 2.39210 17.20920 2.24100 14.42640 16.14490 3028.21673
 11617.50000 1394100.00000 0.01760 86.02370 144.97900 32.22150 0.16190 2.36300 17.25590 2.23500 14.39670 16.23260 3028.29080
 11618.00000 1394160.00000 0.02350 85.63870 145.19730 32.90320 0.16310 2.45690 16.95360 2.23780 14.55930 16.31360 3028.36486
 11618.50000 1394220.00000 0.02920 86.15620 143.99310 33.29990 0.17320 2.53250 16.97180 2.24210 14.69760 16.72680 3028.43893
 11619.00000 1394280.00000 0.03540 86.83600 143.32600 33.25200 0.18590 2.64150 16.92930 2.25450 14.90700 16.96190 3028.51300
 11619.50000 1394340.00000 0.03410 86.47570 143.73920 31.46280 0.17120 2.61090 17.04660 2.27200 14.73700 16.63980 3028.58707
 11620.00000 1394400.00000 0.02680 86.46650 144.11700 32.53290 0.16650 2.55390 17.12730 2.27520 14.81360 16.78860 3028.66114
 11620.50000 1394460.00000 0.02100 85.74510 144.26660 34.50040 0.16290 2.49250 17.03430 2.26910 15.16380 16.61740 3028.73521
 11621.00000 1394520.00000 0.01810 86.31280 145.58800 35.46770 0.16590 2.45210 17.02930 2.25260 15.45420 17.24830 3028.80927
 11621.50000 1394580.00000 0.01810 87.84580 148.64470 35.04590 0.18000 2.43990 16.87670 2.23940 15.44170 17.21020 3028.88334
 11622.00000 1394640.00000 0.01730 87.86200 149.03160 33.40580 0.17280 2.42830 16.76400 2.23020 15.93240 17.65310 3028.95741
 11622.50000 1394700.00000 0.01740 87.63210 149.57700 34.75140 0.17820 2.43550 16.79480 2.22280 16.45570 17.84780 3029.03148
 11623.00000 1394760.00000 0.02240 87.46850 150.38540 36.38050 0.17520 2.44800 16.83740 2.22290 17.03910 18.19060 3029.10555
 11623.50000 1394820.00000 0.02230 87.63210 150.13760 37.05300 0.18470 2.40590 16.58510 2.21560 17.20920 18.56650 3029.17962
 11624.00000 1394880.00000 0.02290 87.44380 148.60010 37.29930 0.18160 2.38280 16.72390 2.21160 17.45620 18.53140 3029.25368
 11624.50000 1394940.00000 0.01660 87.64060 148.14310 37.01550 0.18800 2.42440 16.71250 2.20420 17.36790 19.07850 3029.32775
 11625.00000 1395000.00000 0.02260 88.38100 148.33800 36.16230 0.18110 2.51050 16.66060 2.21230 17.86670 19.13530 3029.40182
 11625.50000 1395060.00000 0.02380 89.80540 149.99940 36.08340 0.18920 2.61080 16.65250 2.20800 18.25750 19.10950 3029.47589
 11626.00000 1395120.00000 0.03500 89.05370 151.15910 35.77590 0.19010 2.74470 16.57840 2.22130 18.29420 19.26810 3029.54996
 11626.50000 1395180.00000 0.03290 91.18600 151.57230 37.94790 0.19570 2.85370 16.70780 2.21260 18.55690 19.31460 3029.62403
 11627.00000 1395240.00000 0.03380 91.94830 151.81790 38.20840 0.19800 2.91890 16.61010 2.21160 19.01320 19.67690 3029.69809
 11627.50000 1395300.00000 0.03400 91.56190 151.21950 38.76440 0.19470 2.87110 16.69730 2.20760 19.55210 19.87640 3029.77216
 11628.00000 1395360.00000 0.03510 90.33910 150.11190 39.28520 0.19290 2.79630 16.59020 2.21550 19.77680 20.07660 3029.84623
 11628.50000 1395420.00000 0.03190 88.68910 148.84300 40.33610 0.18040 2.67660 16.55900 2.22470 19.70140 19.84960 3029.92030
 11629.00000 1395480.00000 0.02730 87.14060 148.35400 38.72480 0.17540 2.64830 16.67730 2.22840 19.67940 19.92020 3029.99437
 11629.50000 1395540.00000 0.02670 87.90360 151.42350 38.96300 0.17560 2.67410 16.34410 2.22720 19.33190 19.72780 3030.06844
 11630.00000 1395600.00000 0.02970 88.75750 152.35430 37.79540 0.17380 2.73980 16.50340 2.22290 19.11850 19.39850 3030.14250
 11630.50000 1395660.00000 0.02770 90.07820 151.89650 40.38780 0.19150 2.75440 16.49490 2.21380 19.37880 19.18020 3030.22565
 11631.00000 1395720.00000 0.02750 90.62680 151.05330 40.16110 0.18510 2.75930 16.03820 2.21320 19.48440 19.48350 3030.31160
 11631.50000 1395780.00000 0.03040 90.11840 150.34770 39.21930 0.18830 2.80000 16.22420 2.21960 19.24760 19.41370 3030.39755
 11632.00000 1395840.00000 0.03470 89.27160 148.31860 38.24090 0.18320 2.87410 15.95860 2.22370 19.22250 19.24060 3030.48350
 11632.50000 1395900.00000 0.03520 87.46850 147.93970 37.17780 0.17770 2.92490 16.02670 2.22470 19.33720 19.21520 3030.56946
 11633.00000 1395960.00000 0.02610 87.78020 148.02240 37.38020 0.18060 2.82970 16.04840 2.21180 19.06390 19.12670 3030.65541
 11633.50000 1396020.00000 0.02150 87.41770 148.06180 36.66920 0.17950 2.71310 15.67450 2.20690 18.65600 18.99450 3030.74136
 11634.00000 1396080.00000 0.01980 86.45170 147.98260 36.95180 0.17100 2.67130 15.91630 2.20700 19.02520 19.18130 3030.82731
 11634.50000 1396140.00000 0.02820 87.46850 147.38920 38.68450 0.18250 2.80820 15.47870 2.21650 19.08820 19.28410 3030.91326
 11635.00000 1396200.00000 0.03330 87.50870 146.83610 40.01690 0.18520 2.91390 15.74260 2.22410 19.00860 19.67460 3030.99922
 11635.50000 1396260.00000 0.03520 86.91850 146.16070 38.58630 0.17420 3.01140 15.61130 2.22200 19.09880 19.74170 3031.08517
 11636.00000 1396320.00000 0.03230 87.09130 146.40570 36.75650 0.17150 2.97780 15.54460 2.21610 18.98710 20.16710 3031.17112
 11636.50000 1396380.00000 0.02660 86.80990 146.76130 34.67030 0.17820 2.80700 15.44600 2.21530 18.65940 20.13610 3031.25707
 11637.00000 1396440.00000 0.02230 84.83640 147.11310 35.57460 0.16970 2.58680 15.47850 2.22290 18.72750 20.69390 3031.34303
 11637.50000 1396500.00000 0.02350 85.03600 147.40090 37.14010 0.18040 2.43860 15.48230 2.23500 18.67120 20.92920 3031.42898
 11638.00000 1396560.00000 0.02650 85.00510 147.54480 38.52570 0.17740 2.44050 15.82870 2.23920 18.91440 20.83690 3031.51493
 11638.50000 1396620.00000 0.02930 84.08950 147.81090 40.30450 0.17990 2.40670 15.67770 2.23600 19.35130 21.37410 3031.60088
 11639.00000 1396680.00000 0.03840 84.15550 148.35110 40.44820 0.18230 2.39140 15.55520 2.24490 19.54510 21.31750 3031.68683
 11639.50000 1396740.00000 0.04260 78.52480 148.72780 41.54080 0.19170 2.51800 15.73900 2.26070 20.35830 21.69700 3031.77279
