~Version ---------------------------------------------------
VERS     .                             2.0 : CWLS log ASCII Standard -VERSION 2.0
WRAP     .                              NO : One Line per depth step
PROD     .                    Schlumberger : LAS Producer
PROG     .               DLIS to ASCII 2.3 : LAS Program name and version
CREA     .                   2019/04/03 19 : 51                          :LAS Creation date {YYYY/MM/DD hh:mm}
DLIS_CREA.                  2009-Feb-18 14 : 44                          :DLIS Creation date and time {YYYY-MMM-DD hh:mm}
SOURCE   . WLC_PETRO_COMPUTED_INPUT_1.DLIS : DLIS File Name
FILE-ID  .                   INPUT.logdata : File Identification Number
~Well ------------------------------------------------------
STRT.F                 1382.0 : START DEPTH
STOP.F                12441.0 : STOP DEPTH
STEP.F                    0.5 : STEP
NULL.                 -999.25 : NULL VALUE
COMP.                         : COMPANY
WELL.                15/9-F-5 : WELL
FLD .                   VOLVE : FIELD
LOC .                         : LOCATION
CNTY.         MAERSK INSPIRER : COUNTY
STAT.                         : STATE
CTRY.                         : COUNTRY
API .                         : API NUMBER
UWI .                         : UNIQUE WELL ID
DATE.                         : LOG DATE
SRVC. CROCKER DATA PROCESSING : SERVICE COMPANY
LATI.DEG                      : LATITUDE
LONG.DEG                      : LONGITUDE
GDAT.                         : GeoDetic Datum
~Curve Information -----------------------------------------
DEPTH.F            : DEPTH (BOREHOLE) {F10.1}
DEPTH..1IN         : Measured Depth {I11}
CALI .INCHES       : CALI:UNKNOWN:rC:NONE:v1 {F13.4}
DRHO .G/C3         : DRHO:UNKNOWN:rC:NONE:v1 {F13.4}
DT   .US/F         : DT:UNKNOWN:rC:NONE:v1 {F13.4}
GR   .API          : GR:UNKNOWN:rC:NONE:v1 {F13.4}
NPHI .V/V_DECIMAL  : NPHI:UNKNOWN:rC:NONE:v1 {F13.4}
RD   .UNKNOWN      : RD:UNKNOWN:rC:NONE:v1 {F13.4}
RHOB .G/C3         : RHOB:UNKNOWN:rC:NONE:v1 {F13.4}
RS   .UNKNOWN      : RS:UNKNOWN:rC:NONE:v1 {F13.4}
RT   .OHMM         : RT:UNKNOWN:rC:NONE:v1 {F13.4}
TVD  .M            : True Vertical Depth from PyLasMech
~Params ----------------------------------------------------
WN  .        15/9-F-5 : Well Name
FN  .           VOLVE : Field
CTRY.          NORWAY : Country
COUN. MAERSK INSPIRER : County or Rig name
PDAT.             MSL : Perm. Datum
ELZ .M            0.0 : Elev. Log Zero (wrt EPD)
RUN .                 : RUN NUMBER
EPD .                 : Elevation of Permanent Datum above Mean Sea Level
LMF .                 : Logging Measured From (Name of Logging Elevation Reference)
APD .                 : Elevation of Depth Reference (LMF) above Permanent Datum
~Other -----------------------------------------------------
~ASCII -----------------------------------------------------
# ...
 11986.00000 1438320.00000 8.45000 0.04000 86.00890 42.24550 0.21300 8.30030 2.27000 8.04440 8.68600 3164.42299
 11986.50000 1438380.00000 8.45000 0.04000 85.74790 44.17910 0.21490 8.31940 2.27000 8.28250 9.00980 3164.51045
 11987.00000 1438440.00000 8.44020 0.04000 85.53420 44.85010 0.22470 8.15260 2.26020 8.39820 8.95110 3164.59790
 11987.50000 1438500.00000 8.45000 0.04000 84.94150 43.40000 0.22480 8.08000 2.27000 8.37000 8.84000 3164.68535
 11988.00000 1438560.00000 8.45000 0.04000 83.97190 42.62190 0.21310 8.17030 2.27030 8.25220 9.06430 3164.77280
 11988.50000 1438620.00000 8.45000 0.04000 83.01730 41.60390 0.19980 8.19300 2.29000 8.39570 9.33030 3164.86026
 11989.00000 1438680.00000 8.45000 0.04000 82.52600 44.58520 0.20990 8.28830 2.29000 8.57670 9.33980 3164.94771
 11989.50000 1438740.00000 8.44000 0.04000 81.91510 44.50000 0.21740 8.23000 2.30000 9.01000 9.42000 3165.03516
 11990.00000 1438800.00000 8.43000 0.04000 80.74790 43.77290 0.19700 8.14000 2.29010 9.90760 10.67080 3165.12261
 11990.50000 1438860.00000 8.44940 0.04000 79.35450 40.32990 0.19260 8.30220 2.30000 10.49580 10.74980 3165.21007
 11991.00000 1438920.00000 8.43040 0.04000 77.24640 41.71100 0.18070 8.37840 2.30000 11.39120 11.43560 3165.29752
 11991.50000 1438980.00000 8.45000 0.04000 76.17050 39.05440 0.17980 8.39000 2.30000 11.69850 12.40490 3165.38497
 11992.00000 1439040.00000 8.45000 0.04000 74.92390 37.46600 0.17870 8.43000 2.30000 12.68430 12.72260 3165.47242
 11992.50000 1439100.00000 8.43050 0.04000 71.67040 35.25230 0.17170 8.50520 2.30000 13.08100 12.97620 3165.55988
 11993.00000 1439160.00000 8.44960 0.04000 71.15950 35.71900 0.17790 8.70530 2.30000 13.11910 13.59540 3165.64733
 11993.50000 1439220.00000 8.46000 0.03010 71.93790 36.36490 0.18600 8.53000 2.30000 12.98110 12.97510 3165.73478
 11994.00000 1439280.00000 8.45000 0.03000 76.85800 33.94930 0.16430 8.81000 2.30000 12.55620 12.40820 3165.82223
 11994.50000 1439340.00000 8.46000 0.03000 80.75750 33.78420 0.18180 8.64090 2.29890 12.07080 12.17970 3165.90969
 11995.00000 1439400.00000 8.46000 0.03000 81.36840 30.57420 0.19680 8.67900 2.25130 11.68030 11.74150 3165.99714
 11995.50000 1439460.00000 8.46000 0.05970 82.78650 29.42150 0.18870 8.35000 2.21040 11.22480 10.07780 3166.08459
 11996.00000 1439520.00000 8.47000 0.06000 84.64430 27.06810 0.20840 7.79000 2.18010 11.20620 10.29470 3166.17204
 11996.50000 1439580.00000 8.45020 0.05940 84.08590 26.68260 0.21300 7.49840 2.20000 10.49800 9.32020 3166.25950
 11997.00000 1439640.00000 8.45970 0.03080 82.62420 25.37770 0.22620 7.42220 2.20000 10.40280 9.80600 3166.34695
 11997.50000 1439700.00000 8.45010 0.02010 82.37840 22.92270 0.19870 7.13400 2.21970 9.42320 9.34640 3166.43440
 11998.00000 1439760.00000 8.46000 0.03000 82.93610 21.80000 0.20000 6.75000 2.23000 9.07000 8.84000 3166.52185
 11998.50000 1439820.00000 8.46000 0.03000 83.82790 20.15050 0.20950 6.78710 2.24000 7.42250 7.68110 3166.60931
 11999.00000 1439880.00000 8.46000 0.03000 84.53080 20.72200 0.20020 6.63480 2.24000 7.01290 7.19530 3166.69676
 11999.50000 1439940.00000 8.45020 0.03000 84.21040 20.71050 0.18720 6.53160 2.24980 6.04550 6.91430 3166.78421
 12000.00000 1440000.00000 8.46000 0.04000 83.61500 22.70000 0.19520 6.53000 2.27000 5.40000 6.15000 3166.87167
 12000.50000 1440060.00000 8.45980 0.03020 83.72220 24.08300 0.18020 6.36530 2.27000 5.26350 6.13280 3166.95912
 12001.00000 1440120.00000 8.45000 0.03970 84.11570 23.62060 0.18280 6.07480 2.26940 5.47820 5.69720 3167.04657
 12001.50000 1440180.00000 8.45000 0.03020 84.87690 22.68710 0.18830 5.91300 2.25030 5.42110 5.92580 3167.13402
 12002.00000 1440240.00000 8.45000 0.04000 85.45880 22.14000 0.19540 5.76000 2.24000 5.51000 5.53000 3167.22148
 12002.50000 1440300.00000 8.45000 0.03010 85.27370 22.78190 0.18240 5.47000 2.23000 5.82280 5.35870 3167.30893
 12003.00000 1440360.00000 8.45060 0.03970 84.78390 22.19100 0.18870 5.52560 2.23000 6.04400 6.00000 3167.39638
 12003.50000 1440420.00000 8.46960 0.03020 84.37050 22.57200 0.18170 5.37310 2.23000 6.52980 6.00000 3167.48383
 12004.00000 1440480.00000 8.45000 0.03990 84.18580 20.81940 0.20950 5.37000 2.23000 6.78870 6.70620 3167.57129
 12004.50000 1440540.00000 8.45000 0.04000 84.35690 21.97150 0.19060 5.38000 2.24010 6.77840 7.04070 3167.65874
 12005.00000 1440600.00000 8.45950 0.04000 84.77240 20.30220 0.18630 5.54930 2.25000 6.63650 7.10130 3167.74619
 12005.50000 1440660.00000 8.44050 0.04000 86.26570 21.91200 0.19250 5.52070 2.25000 6.88420 6.76790 3167.83364
 12006.00000 1440720.00000 8.44000 0.04000 87.16640 22.34680 0.18970 5.76000 2.24010 6.86020 7.21630 3167.92110
 12006.50000 1440780.00000 8.44000 0.03000 86.41800 24.61320 0.19670 5.80000 2.23010 6.89350 7.53340 3168.00855
 12007.00000 1440840.00000 8.44950 0.03020 86.38550 26.26890 0.19780 5.95930 2.24020 7.34010 7.95950 3168.09600
 12007.50000 1440900.00000 8.43050 0.03970 86.88270 27.06900 0.19800 5.93070 2.24970 7.76880 7.94050 3168.18345
 12008.00000 1440960.00000 8.46000 0.04000 87.20300 27.11970 0.18320 6.04000 2.25990 7.76020 8.13790 3168.27091
 12008.50000 1441020.00000 8.46000 0.04000 87.23850 28.03870 0.18900 6.22000 2.26010 7.43880 8.44980 3168.35836
 12009.00000 1441080.00000 8.45020 0.04000 87.15270 27.83680 0.19250 6.25000 2.27000 7.21400 8.40880 3168.44581
 12009.50000 1441140.00000 8.45970 0.04000 87.16620 29.58940 0.19000 6.25000 2.27000 6.92820 7.87540 3168.53326
 12010.00000 1441200.00000 8.46000 0.04000 87.02780 30.36030 0.18420 6.44000 2.27990 6.27870 7.73170 3168.62072
 12010.50000 1441260.00000 8.45000 0.04000 86.65410 32.20000 0.17300 6.40000 2.27000 6.12000 7.59000 3168.70817
 12011.00000 1441320.00000 8.45040 0.04000 85.89210 32.02410 0.18170 6.28640 2.29020 5.70620 6.82680 3168.79562
 12011.50000 1441380.00000 8.46940 0.04000 85.03380 31.70020 0.19450 6.09610 2.29970 5.49660 6.65540 3168.88307
 12012.00000 1441440.00000 8.47980 0.04000 84.70610 31.47350 0.18600 5.98180 2.30000 5.35220 6.28590 3168.97053
 12012.50000 1441500.00000 8.46000 0.04000 85.17490 30.17000 0.18190 5.83000 2.29000 5.30000 5.92000 3169.05798
 12013.00000 1441560.00000 8.45030 0.04000 86.11550 28.93350 0.18310 5.77950 2.28000 5.15680 5.85920 3169.14543
 12013.50000 1441620.00000 8.46880 0.04000 85.76440 27.90890 0.18300 5.74300 2.28000 4.95550 5.79740 3169.23288
 12014.00000 1441680.00000 8.43070 0.04000 84.42060 27.55650 0.18620 5.52420 2.28000 4.81260 5.39730 3169.32034
 12014.50000 1441740.00000 8.46000 0.04000 83.73010 27.46000 0.18100 5.42000 2.28000 4.68000 5.15000 3169.40779
 12015.00000 1441800.00000 8.47000 0.04000 83.50840 29.12710 0.19010 5.25960 2.29000 4.67840 5.06920 3169.49524
 12015.50000 1441860.00000 8.47080 0.04000 82.95580 31.13500 0.17790 5.22650 2.29000 4.56080 5.00750 3169.58269
 12016.00000 1441920.00000 8.49940 0.04000 82.69580 31.30640 0.17450 5.10260 2.29000 4.58940 4.92180 3169.67015
 12016.50000 1441980.00000 8.44000 0.04000 81.37650 30.22580 0.17590 4.94000 2.29000 4.53030 4.80060 3169.75760
 12017.00000 1442040.00000 8.45000 0.04000 82.41000 29.79030 0.17220 4.84000 2.28990 4.40810 4.65990 3169.84505
 12017.50000 1442100.00000 8.44050 0.03970 84.17390 31.67170 0.18420 4.85670 2.27980 4.22600 4.64320 3169.93250
 12018.00000 1442160.00000 8.45950 0.03020 84.35920 31.73840 0.17750 4.73300 2.27020 4.07360 4.38610 3170.01996
 12018.50000 1442220.00000 8.46000 0.03000 85.22460 31.88880 0.17640 4.64000 2.27000 3.92120 4.08240 3170.10741
 12019.00000 1442280.00000 8.45000 0.04000 85.78590 31.93490 0.18240 4.62000 2.27990 3.88980 4.17060 3170.19486
 12019.50000 1442340.00000 8.50910 0.04020 84.89200 33.78430 0.18270 4.51820 2.27050 3.86860 4.24460 3170.28231
 12020.00000 1442400.00000 8.47100 0.04980 83.80300 33.96520 0.19000 4.44200 2.28950 3.81150 4.01600 3170.36977
 12020.50000 1442460.00000 8.46000 0.05990 82.97150 34.32620 0.18560 4.47000 2.29990 3.81990 4.10890 3170.45722
 12021.00000 1442520.00000 8.47000 0.05990 82.74610 34.56190 0.15470 4.36000 2.29990 3.78010 3.91050 3170.54467
 12021.50000 1442580.00000 8.47980 0.05000 83.16730 34.90860 0.16960 4.29020 2.29000 3.80280 4.00060 3170.63212
