~Version ---------------------------------------------------
VERS     .                             2.0 : CWLS log ASCII Standard -VERSION 2.0
WRAP     .                              NO : One Line per depth step
PROD     .         CROCKER DATA PROCESSING : LAS Producer
PROG     .                   LAS Viewer v0 : LAS Program name and version
CREA     .                2019/04/03 21-01 : LAS Creation date {YYYY/MM/DD hh-mm}
DLIS_CREA.               2009-Aug-25 10-08 : DLIS Creation date and time {YYYY-MMM-DD hh-mm}
SOURCE   . WLC_PETRO_COMPUTED_INPUT_1.DLIS : DLIS File Name
FILE-ID  .               CPI_INPUT.logdata : File Identification Number
~Well ------------------------------------------------------
STRT .m               2560.0152 : START DEPTH
STOP .m               3222.1932 : STOP DEPTH
STEP .m       0.152400000000398 : STEP
NULL .                  -999.25 : NULL VALUE
COMP .             STATOILHYDRO : COMPANY
WELL .              15/9-F-15 C : WELL
FIELD.                    VOLVE : FIELD
LOC  .                          : LOCATION
CNTY .                          : COUNTY
STAT .                          : STATE
NATI .                          : COUNTRY
API  .                          : API NUMBER
UWI  .                          : UNIQUE WELL ID
SRVC .                          : SERVICE COMPANY
LATI . 058 26' 29.706" N    DMS : LATITUDE
LONG . 001 53' 15.149" E    DMS : LONGITUDE
GDAT .                      MSL : GeoDetic Datum
~Curve Information -----------------------------------------
DEPTH.m      : Measured Depth
CALI .IN     : 
DRHO .G/CC   : 
DRHU .G/CC   : 
DT   .US/FT  : 
GR   .GAPI   : 
NPHI .V/V    : 
RD   .OHMM   : 
RHOB .G/CC   : 
ROBU .G/CC   : 
RS   .OHMM   : 
RT   .OHMM   : 
TVD  .M      : True Vertical Depth from PyLasMech
~Params ----------------------------------------------------
RUN . MWD RUN 12-13 : Run number
PDAT.           MSL : Perm. Datum
~Other -----------------------------------------------------
~ASCII -----------------------------------------------------
# ...
 3050.74320 8.73810 0.01270 0.05310 84.16570 41.57240 0.14990 1.94550 2.55470 2.58270 1.88290 1.95630 2873.47924
 3050.89560 8.72750 0.01900 0.06020 82.98740 42.92560 0.14320 1.92420 2.56840 2.58820 1.89500 1.97070 2873.62438
 3051.04800 8.73640 0.02570 0.06080 83.24070 45.93840 0.14200 1.96910 2.57000 2.57550 1.88560 1.87380 2873.76952
 3051.20040 8.72380 0.02780 0.06120 84.75720 47.38150 0.13970 1.96140 2.57900 2.56640 1.92750 1.87010 2873.91467
 3051.35280 8.69700 0.02570 0.05370 86.74690 45.71260 0.13640 1.89630 2.57950 2.56450 2.06870 2.05510 2874.05981
 3051.50520 8.70340 0.02390 0.05470 88.94420 43.48180 0.13790 1.82510 2.57380 2.58110 2.04330 2.15750 2874.20495
 3051.65760 8.72360 0.02780 0.05570 91.82780 45.37430 0.16280 1.70110 2.54900 2.57870 1.79490 1.96650 2874.35010
 3051.81000 8.75050 0.02870 0.06520 93.15260 53.13330 0.17860 1.74570 2.52080 2.56460 1.37110 1.34660 2874.49524
 3051.96240 8.74380 0.03040 0.06190 94.27640 60.92920 0.18580 1.55810 2.50570 2.52840 1.24320 1.22390 2874.64038
 3052.11480 8.75330 0.02990 0.06080 95.10560 64.94240 0.20870 1.47930 2.50030 2.51360 1.24370 1.23090 2874.78552
 3052.26720 8.75150 0.03380 0.06120 94.97070 65.28680 0.21070 1.44580 2.51180 2.50740 1.24550 1.28280 2874.93067
 3052.41960 8.77650 0.03430 0.06430 94.27210 64.87740 0.21600 1.41780 2.51310 2.50960 1.24700 1.26090 2875.07581
 3052.57200 8.80220 0.03300 0.07020 93.40250 64.02460 0.21690 1.44890 2.51430 2.51300 1.21260 1.21470 2875.22095
 3052.72440 8.77210 0.03060 0.07250 92.45560 64.41570 0.21760 1.42440 2.50470 2.51530 1.24320 1.24850 2875.36610
 3052.87680 8.78620 0.03240 0.07350 92.39070 65.07690 0.21720 1.43230 2.49990 2.50880 1.23990 1.22680 2875.51124
 3053.02920 8.78670 0.03230 0.07720 91.93860 64.56590 0.20420 1.44280 2.50160 2.51130 1.25230 1.22200 2875.65638
 3053.18160 8.79220 0.03380 0.07590 90.98430 62.81970 0.18060 1.46170 2.51050 2.50640 1.36470 1.38070 2875.80152
 3053.33400 8.78610 0.02910 0.08430 90.10370 60.03180 0.18560 1.44970 2.51540 2.51570 1.45030 1.50030 2875.94667
 3053.48640 8.78460 0.02210 0.08350 89.28040 59.79620 0.19420 1.50990 2.50900 2.50710 1.38350 1.37880 2876.09181
 3053.63880 8.75840 0.02100 0.08440 89.45100 58.52680 0.19280 1.55570 2.50650 2.50620 1.34910 1.32120 2876.23695
 3053.79120 8.79250 0.02060 0.08580 90.49760 56.08750 0.18610 1.48370 2.49900 2.51050 1.45720 1.45120 2876.38210
 3053.94360 8.76240 0.02590 0.08350 91.80170 53.10880 0.17470 1.48160 2.49440 2.51080 1.47550 1.49920 2876.52724
 3054.09600 8.76640 0.02480 0.07990 92.25350 51.85620 0.18450 1.51130 2.47960 2.51010 1.38110 1.39830 2876.67238
 3054.24840 8.76470 0.02490 0.06730 92.34820 54.62700 0.18940 1.51090 2.47900 2.49660 1.36600 1.36160 2876.81752
 3054.40080 8.74040 0.02390 0.06200 92.96760 56.04070 0.19150 1.47750 2.47640 2.48970 1.34820 1.32810 2876.96267
 3054.55320 8.73430 0.02720 0.05870 94.02100 57.73010 0.20220 1.46830 2.48520 2.48490 1.38570 1.38380 2877.10781
 3054.70560 8.74370 0.03480 0.05790 94.84160 58.78590 0.19930 1.50840 2.48860 2.48690 1.36500 1.38100 2877.25295
 3054.85800 8.73200 0.04020 0.05080 95.79040 60.61340 0.19170 1.53670 2.49270 2.49270 1.30930 1.37100 2877.39810
 3055.01040 8.71260 0.03810 0.04970 94.62180 61.94960 0.19300 1.52590 2.48700 2.50220 1.23860 1.25590 2877.54324
 3055.16280 8.69130 0.04050 0.05260 88.73790 65.94090 0.19960 1.52160 2.49390 2.50910 1.18650 1.26360 2877.68838
 3055.31520 8.70810 0.04660 0.06270 78.82850 68.82210 0.19800 1.54840 2.49970 2.51230 1.17190 1.28020 2877.83352
 3055.46760 8.76080 0.05970 0.07370 70.56160 70.92560 0.21030 1.69380 2.52380 2.52680 1.18180 1.19160 2877.97867
 3055.62000 8.80340 0.05150 0.07480 67.98200 61.91440 0.17240 1.87490 2.53770 2.53710 1.33400 1.27560 2878.12381
 3055.77240 8.67560 0.04010 0.07480 66.22620 46.45000 0.13990 1.97000 2.55980 2.56670 2.17730 2.28010 2878.26895
 3055.92480 8.65490 0.03220 0.07230 66.43470 30.47900 0.12530 2.33070 2.57760 2.58120 3.10750 3.11380 2878.41410
 3056.07720 8.68070 0.03610 0.07630 66.91420 23.62350 0.10830 2.65380 2.59620 2.60130 3.54000 3.56260 2878.55924
 3056.22960 8.68300 0.03870 0.07400 66.49110 25.03290 0.09900 2.91660 2.60320 2.59860 3.77130 3.76320 2878.70438
 3056.38200 8.67790 0.03960 0.07270 66.89170 25.38230 0.09540 3.18040 2.60160 2.59780 3.97570 3.85700 2878.84952
 3056.53440 8.68660 0.04080 0.07500 66.23500 22.57170 0.10390 3.40540 2.59420 2.59200 3.90960 3.85590 2878.99467
 3056.68680 8.69700 0.04470 0.08880 65.14880 19.22990 0.10070 3.57770 2.59390 2.59370 3.79240 3.79380 2879.13981
 3056.83920 8.72620 0.04280 0.09930 64.76580 17.56910 0.11280 3.75210 2.58310 2.59480 3.56830 3.59680 2879.28495
 3056.99160 8.73110 0.04700 0.11200 65.93360 17.41210 0.11960 3.72780 2.57900 2.59090 3.45800 3.59840 2879.43010
 3057.14400 8.72780 0.04360 0.12110 68.33830 16.54180 0.12110 3.71120 2.56370 2.58030 3.31080 3.43890 2879.57524
 3057.29640 8.75560 0.04700 0.13370 70.60460 15.95570 0.11520 3.70170 2.56300 2.57270 3.18110 3.33910 2879.72038
 3057.44880 8.75870 0.04960 0.13370 71.33270 18.86690 0.11550 3.68080 2.56710 2.57360 3.12850 3.30110 2879.86552
 3057.60120 8.76360 0.05850 0.13470 70.63640 27.02050 0.12440 3.64020 2.58070 2.57980 3.22050 3.36540 2880.01067
 3057.75360 8.79980 0.05260 0.13750 69.17770 32.50130 0.10870 3.71220 2.57880 2.59140 3.12340 3.12380 2880.15581
 3057.90600 8.75770 0.03630 0.14720 67.72010 31.92600 0.10910 3.71390 2.57670 2.59360 3.70430 3.53600 2880.30095
 3058.05840 8.70320 0.02290 0.15930 67.09740 26.33870 0.10390 3.62680 2.57580 2.60120 4.04120 3.87890 2880.44610
 3058.21080 8.74410 0.03470 0.16520 67.54340 23.58580 0.09340 3.66250 2.59710 2.60170 4.11010 4.03190 2880.59124
 3058.36320 8.83740 0.04460 0.17050 69.19890 24.16060 0.09310 3.64060 2.60300 2.60850 4.16420 4.09460 2880.73638
 3058.51560 8.77010 0.04380 0.16910 72.20880 26.09170 0.09970 3.60420 2.60170 2.60350 4.03970 4.04480 2880.88152
 3058.66800 8.76010 0.02600 0.16430 74.58430 27.47440 0.10200 3.47170 2.58150 2.59380 3.77600 3.78490 2881.02667
 3058.82040 8.73310 0.02370 0.16690 75.74250 32.40850 0.12570 3.32480 2.56980 2.58790 3.45990 3.60400 2881.17181
 3058.97280 8.82770 0.02210 0.16460 77.44500 39.62770 0.13170 3.14040 2.55310 2.57900 2.85440 2.96640 2881.31695
 3059.12520 8.73930 0.02670 0.16530 80.39420 47.53750 0.14490 2.95450 2.54830 2.57170 2.61460 2.65440 2881.46210
 3059.27760 8.76260 0.01900 0.15300 82.55060 51.34900 0.15090 2.85580 2.53300 2.54550 2.38020 2.36260 2881.60724
 3059.43000 8.72250 0.02090 0.14320 82.13200 54.23580 0.15620 2.66090 2.53410 2.53390 2.36140 2.35750 2881.75238
 3059.58240 8.70940 0.01820 0.14220 80.32880 56.80950 0.14840 2.56390 2.52450 2.53780 2.31560 2.39020 2881.89752
 3059.73480 8.75050 0.01790 0.14340 79.00140 58.61100 0.14040 2.50120 2.52140 2.54730 2.21010 2.34190 2882.04267
 3059.88720 8.80240 0.01940 0.14540 78.48320 59.91450 0.15450 2.48070 2.52020 2.54300 2.10570 2.19120 2882.18781
 3060.03960 8.79950 0.01770 0.14400 77.97780 61.25540 0.15330 2.40400 2.52020 2.53410 2.06860 2.10560 2882.33295
 3060.19200 8.79760 0.02300 0.15030 77.82970 61.64760 0.14980 2.40550 2.52660 2.54580 2.08530 2.10810 2882.47810
 3060.34440 8.79370 0.02170 0.15600 78.14410 61.57130 0.14920 2.38580 2.52390 2.55570 2.20830 2.24290 2882.62324
 3060.49680 8.78240 0.02610 0.15110 78.52030 59.69530 0.14650 2.41480 2.52780 2.55440 2.25440 2.31050 2882.76838
 3060.64920 8.76820 0.02480 0.14480 79.68730 57.72100 0.14120 2.43340 2.53360 2.54800 2.32640 2.30150 2882.91352
 3060.80160 8.79750 0.02840 0.13490 81.14400 54.09000 0.14470 2.37140 2.54090 2.53900 2.41990 2.46480 2883.05867
 3060.95400 8.75770 0.02590 0.12180 82.18890 53.84140 0.14030 2.40950 2.53910 2.52830 2.36360 2.36360 2883.20381
 3061.10640 8.75310 0.01890 0.12260 83.57970 55.06570 0.14720 2.41740 2.52860 2.53260 2.26750 2.32810 2883.34895
 3061.25880 8.76840 0.01450 0.12560 83.92430 57.78210 0.14570 2.40000 2.52520 2.54050 2.18430 2.18750 2883.49410
 3061.41120 8.78110 0.01480 0.13680 84.37160 59.45070 0.15350 2.40440 2.52980 2.55400 2.14950 2.20800 2883.63924
