~Version ---------------------------------------------------
VERS     .                             2.0 : CWLS log ASCII Standard -VERSION 2.0
WRAP     .                              NO : One Line per depth step
PROD     .                    Schlumberger : LAS Producer
PROG     .               DLIS to ASCII 2.3 : LAS Program name and version
CREA     .                   2019/04/03 19 : 56                          :LAS Creation date {YYYY/MM/DD hh:mm}
DLIS_CREA.                  2009-Feb-18 14 : 31                          :DLIS Creation date and time {YYYY-MMM-DD hh:mm}
SOURCE   . WLC_PETRO_COMPUTED_INPUT_1.DLIS : DLIS File Name
FILE-ID  .                   INPUT.logdata : File Identification Number
~Well ------------------------------------------------------
STRT.F                  566.0 : START DEPTH
STOP.F                12302.0 : STOP DEPTH
STEP.F                    0.5 : STEP
NULL.                 -999.25 : NULL VALUE
COMP.            STATOILHYDRO : COMPANY
WELL.               15/9-F-14 : WELL
FLD .                   VOLVE : FIELD
LOC .                         : LOCATION
CNTY.         MAERSK INSPIRER : COUNTY
STAT.                         : STATE
CTRY.                         : COUNTRY
API .                         : API NUMBER
UWI .                         : UNIQUE WELL ID
DATE.                         : LOG DATE
SRVC. CROCKER DATA PROCESSING : SERVICE COMPANY
LATI.DEG                      : LATITUDE
LONG.DEG                      : LONGITUDE
GDAT.                         : GeoDetic Datum
~Curve Information -----------------------------------------
DEPTH.F            : DEPTH (BOREHOLE) {F10.1}
DEPTH..1IN         : Measured Depth {I11}
DRHO .G/C3         : DRHO:UNKNOWN:rC:NONE:v1 {F13.4}
DT   .US/F         : DT:UNKNOWN:rC:NONE:v2 {F13.4}
DTS  .US/F         : DTS:UNKNOWN:rC:NONE:v1 {F13.4}
GR   .API          : GR:UNKNOWN:rC:NONE:v1 {F13.4}
NPHI .V/V_DECIMAL  : NPHI:UNKNOWN:rC:NONE:v1 {F13.4}
PEF  .B/ELEC       : PEF:UNKNOWN:rC:NONE:v1 {F13.4}
RD   .UNKNOWN      : RD:UNKNOWN:rC:NONE:v1 {F13.4}
RHOB .G/C3         : RHOB:UNKNOWN:rC:NONE:v1 {F13.4}
RS   .UNKNOWN      : RS:UNKNOWN:rC:NONE:v1 {F13.4}
RT   .OHMM         : RT:UNKNOWN:rC:NONE:v1 {F13.4}
TVD  .M            : True Vertical Depth from PyLasMech
~Params ----------------------------------------------------
CN  .    STATOILHYDRO : Company
WN  .       15/9-F-14 : Well Name
FN  .           VOLVE : Field
CTRY.          NORWAY : Country
COUN. MAERSK INSPIRER : County or Rig name
PDAT.             MSL : Perm. Datum
ELZ .M            0.0 : Elev. Log Zero (wrt EPD)
SRVC.         UNKNOWN : Service company
R2  .           INPUT : R2
RUN .                 : RUN NUMBER
EPD .                 : Elevation of Permanent Datum above Mean Sea Level
LMF .                 : Logging Measured From (Name of Logging Elevation Reference)
APD .                 : Elevation of Depth Reference (LMF) above Permanent Datum
~Other -----------------------------------------------------
~ASCII -----------------------------------------------------
# ...
 11194.50000 1343340.00000 0.02820 83.17630 147.99240 45.99380 0.19670 3.17280 21.75700 2.29690 21.66430 22.41370 2976.21430
 11195.00000 1343400.00000 0.02460 83.25250 148.68170 46.63300 0.18690 3.20320 22.01250 2.30220 21.51900 22.90490 2976.26276
 11195.50000 1343460.00000 0.02780 85.02310 149.69690 46.88420 0.17940 3.37160 21.55270 2.31320 21.84060 22.34260 2976.31122
 11196.00000 1343520.00000 0.02890 84.75160 148.82000 47.47960 0.18510 3.50620 21.92430 2.31990 21.85010 22.83210 2976.35968
 11196.50000 1343580.00000 0.03320 84.30170 148.35390 47.19780 0.18720 3.54010 22.00980 2.32610 22.32320 22.94310 2976.40814
 11197.00000 1343640.00000 0.03590 84.48010 147.78270 48.49020 0.18080 3.50710 21.63930 2.33100 21.88070 23.02860 2976.45661
 11197.50000 1343700.00000 0.03440 83.25950 147.46610 49.20600 0.18730 3.49270 22.05430 2.32530 22.37560 22.67650 2976.50507
 11198.00000 1343760.00000 0.03360 83.45480 147.13220 48.07870 0.18200 3.49720 22.22250 2.32540 22.30890 23.12500 2976.55353
 11198.50000 1343820.00000 0.02570 82.30690 146.70080 46.83380 0.18410 3.41020 21.95800 2.31550 22.20140 23.03810 2976.60199
 11199.00000 1343880.00000 0.02420 82.06930 145.87150 45.38600 0.17970 3.30700 21.94770 2.31590 22.17480 22.74690 2976.65045
 11199.50000 1343940.00000 0.02320 82.85050 145.80900 46.14740 0.18410 3.25000 21.88360 2.31190 21.90950 22.50970 2976.69891
 11200.00000 1344000.00000 0.02660 83.93790 146.24820 46.54320 0.18630 3.13190 21.61730 2.32060 21.51420 22.85100 2976.74737
 11200.50000 1344060.00000 0.02150 81.35420 147.56510 48.49490 0.17470 2.98430 21.88700 2.31770 21.20310 22.55570 2976.79583
 11201.00000 1344120.00000 0.02010 79.89390 149.23260 49.27930 0.18390 2.90140 21.85820 2.32080 20.74130 22.39530 2976.84430
 11201.50000 1344180.00000 0.01340 79.14860 147.79940 48.76170 0.18830 2.92380 22.07600 2.30870 20.34440 21.97500 2976.89276
 11202.00000 1344240.00000 0.02060 79.73100 146.36690 47.95230 0.19100 3.01560 22.27420 2.31240 20.39520 21.60840 2976.94122
 11202.50000 1344300.00000 0.01900 80.15760 145.73450 48.35500 0.19180 3.01960 21.92430 2.30690 20.24700 21.57710 2976.98968
 11203.00000 1344360.00000 0.02240 80.69140 145.68160 48.39740 0.19010 3.04950 22.20920 2.31090 19.97930 21.44430 2977.03814
 11203.50000 1344420.00000 0.01210 81.63490 145.40890 47.22950 0.17910 3.01420 22.04490 2.30350 19.64710 21.48360 2977.08660
 11204.00000 1344480.00000 0.00770 82.49660 145.05760 46.32820 0.17880 2.95500 22.30060 2.30120 19.74020 21.59610 2977.13506
 11204.50000 1344540.00000 0.00270 83.41540 144.95180 47.68090 0.18990 2.84560 22.47350 2.29320 19.57160 21.31970 2977.18353
 11205.00000 1344600.00000 0.01180 84.33490 144.90880 48.58870 0.19670 2.86540 22.20300 2.29600 19.58790 21.25090 2977.23199
 11205.50000 1344660.00000 0.01960 85.06330 145.83200 48.23050 0.18900 2.92660 22.65490 2.28980 19.11100 21.42140 2977.28045
 11206.00000 1344720.00000 0.02400 84.43290 147.02790 47.64840 0.18850 3.00840 22.53020 2.28560 19.34540 21.45320 2977.32891
 11206.50000 1344780.00000 0.01970 85.22050 148.25790 48.64910 0.18710 2.98570 22.76490 2.27870 19.51270 21.44700 2977.37737
 11207.00000 1344840.00000 0.01530 86.18940 148.85630 48.14520 0.20380 2.86810 22.71310 2.27500 19.62530 21.28690 2977.42583
 11207.50000 1344900.00000 0.01340 87.36980 150.17540 47.76530 0.18950 2.76090 22.91240 2.26670 19.56290 21.46750 2977.47429
 11208.00000 1344960.00000 0.01430 87.24640 151.51950 46.97350 0.19330 2.69040 22.65420 2.25510 19.69930 21.53170 2977.52275
 11208.50000 1345020.00000 0.01370 86.96790 151.49220 49.21910 0.19060 2.67760 22.60980 2.24550 19.70450 21.55680 2977.57122
 11209.00000 1345080.00000 0.01040 86.45730 150.70290 48.83490 0.20400 2.70610 23.09470 2.23450 19.95730 21.68430 2977.61968
 11209.50000 1345140.00000 0.00790 84.82630 150.88890 48.59510 0.18770 2.71930 23.04570 2.23040 20.16560 21.88570 2977.66814
 11210.00000 1345200.00000 0.00750 84.52950 153.04160 46.46190 0.18360 2.78360 22.97140 2.22760 20.28920 22.06090 2977.71660
 11210.50000 1345260.00000 0.01490 83.41540 155.59620 47.74290 0.19530 2.85670 23.27710 2.23570 20.05960 22.16390 2977.76506
 11211.00000 1345320.00000 0.01520 83.71790 158.49960 47.40080 0.21010 2.95360 22.78810 2.23350 20.42540 22.16550 2977.81352
 11211.50000 1345380.00000 0.01940 83.00430 158.52600 48.49950 0.19760 3.01660 23.35540 2.23290 20.76220 22.58850 2977.86198
 11212.00000 1345440.00000 0.02200 83.29340 158.51700 46.45920 0.19520 3.04500 23.14010 2.23030 20.41160 22.53930 2977.91044
 11212.50000 1345500.00000 0.02770 84.79710 157.80860 46.90620 0.20380 3.03140 23.57020 2.23130 20.57240 22.62310 2977.95891
 11213.00000 1345560.00000 0.03410 84.35000 156.35900 46.09210 0.19350 3.03340 23.27200 2.23610 21.00840 22.66940 2978.00737
 11213.50000 1345620.00000 0.03320 84.95960 155.68150 47.27070 0.20550 2.99590 23.34020 2.23570 20.78630 22.46280 2978.05583
 11214.00000 1345680.00000 0.03110 87.51010 154.44190 46.64340 0.19360 2.97820 23.34190 2.23740 21.10980 22.55820 2978.10429
 11214.50000 1345740.00000 0.02790 88.85620 154.23600 47.72310 0.19650 3.00530 23.35480 2.24230 20.90540 22.72750 2978.15275
 11215.00000 1345800.00000 0.02700 89.94570 155.50020 47.38100 0.18940 3.08190 23.08790 2.24690 20.88070 22.76260 2978.20121
 11215.50000 1345860.00000 0.02740 88.63980 153.63710 47.98870 0.19620 3.15040 23.42210 2.24980 20.73410 22.81640 2978.24967
 11216.00000 1345920.00000 0.02650 86.68860 152.79400 47.79470 0.19370 3.16890 23.38630 2.24280 20.81720 22.87470 2978.29813
 11216.50000 1345980.00000 0.02670 86.33540 152.79400 48.26190 0.20120 3.12920 23.07090 2.23430 21.07420 22.82630 2978.34660
 11217.00000 1346040.00000 0.02900 86.28810 153.58730 48.00600 0.20440 3.09830 23.03890 2.22740 20.97510 22.83890 2978.39506
 11217.50000 1346100.00000 0.02550 87.53340 155.69510 47.83580 0.20260 3.01580 23.21060 2.21610 21.25950 22.92740 2978.44352
 11218.00000 1346160.00000 0.02630 86.78660 154.29370 46.36280 0.20150 2.95630 23.39980 2.21350 21.10950 22.71100 2978.49198
 11218.50000 1346220.00000 0.02190 86.27050 150.19960 46.59010 0.20520 2.87870 23.43240 2.20690 20.96120 22.75680 2978.54044
 11219.00000 1346280.00000 0.02140 86.22040 149.08370 47.16080 0.19770 2.88260 23.26290 2.20890 21.25720 22.61830 2978.58890
 11219.50000 1346340.00000 0.01920 85.38680 148.89100 49.56130 0.20210 2.88100 23.43500 2.21230 21.07080 22.63650 2978.63736
 11220.00000 1346400.00000 0.02290 84.92060 149.07460 49.74150 0.20910 2.88790 23.58340 2.22120 21.55710 22.92440 2978.68582
 11220.50000 1346460.00000 0.02380 84.82670 148.38940 48.44500 0.20080 2.87620 23.56340 2.22240 21.35130 22.52930 2978.73429
 11221.00000 1346520.00000 0.02800 84.70000 148.24890 46.56910 0.19550 2.87500 23.73540 2.22510 22.12620 23.22180 2978.78275
 11221.50000 1346580.00000 0.02760 85.60600 148.24880 46.05200 0.19220 2.95010 23.62960 2.22940 22.40610 23.14130 2978.83121
 11222.00000 1346640.00000 0.02940 86.92700 148.83060 47.16440 0.19360 2.98080 23.74370 2.23630 22.61010 23.48060 2978.87967
 11222.50000 1346700.00000 0.02540 87.64590 150.61430 47.76360 0.19910 2.99830 23.63170 2.23150 22.82970 23.52090 2978.92813
 11223.00000 1346760.00000 0.02720 89.26510 151.37890 47.98330 0.19860 2.96330 23.98640 2.22810 22.30140 23.12680 2978.97659
 11223.50000 1346820.00000 0.02430 89.83960 151.88890 47.75650 0.19520 2.98080 23.84820 2.21530 22.43350 23.36610 2979.02505
 11224.00000 1346880.00000 0.02310 87.95700 151.83450 49.58370 0.20150 3.00030 23.95140 2.20960 22.50260 23.27910 2979.07352
 11224.50000 1346940.00000 0.02000 86.68710 150.00850 50.28650 0.20150 2.94080 24.05450 2.20040 21.49920 23.14110 2979.12198
 11225.00000 1347000.00000 0.02000 87.07700 148.73880 50.59010 0.20340 2.80150 23.63290 2.20570 22.99010 23.58610 2979.17044
 11225.50000 1347060.00000 0.02020 87.04060 149.77690 49.64050 0.20860 2.70150 23.95090 2.20810 22.96530 23.58470 2979.21890
 11226.00000 1347120.00000 0.01970 87.29170 151.34740 51.20770 0.20900 2.71330 23.95020 2.21350 22.93930 23.43030 2979.26736
