~Version ---------------------------------------------------
VERS. 2.0 : CWLS log ASCII Standard -VERSION 2.0
WRAP.  NO : One line per depth step
~Well ------------------------------------------------------
STRT     .M           239.8776 : START
STOP     .M          4186.7328 : STOP
STEP     .M 0.1524000000000001 : STEP
NULL     .             -999.25 : NULL VALUE
COMP     .        STATOILHYDRO : COMPANY
WELL     .           15/9-F-12 : WELL
FLD      .               VOLVE : FIELD
LOC      .             UNKNOWN : LOCATION
CNTY     .             UNKNOWN : COUNTY
STAT     .             UNKNOWN : STATE
CTRY     .              Norway : COUNTRY
SRVC     .             UNKNOWN : SERVICE COMPANY
DATE     .             UNKNOWN : LOG DATE
UWI      .        NO 15/9-F-12 : UNIQUE WELL ID
XCOORD   .           435050.17 : SURFACE X
YCOORD   .           6478574.7 : SURFACE Y
LAT      .           58.441713 : LATITUDE
LON      .             1.88748 : LONGITUDE
ELEV     .M               54.9 : SURFACE ELEV
ELEV_TYPE.                  KB : ELEV TYPE
~Curve Information -----------------------------------------
DEPTH    .M           UNKNOWN : Measured Depth
CARB_FLAG.UNKNOWN     UNKNOWN : CARB_FLAG:UNKNOWN:rC:NONE:v1
COAL_FLAG.UNKNOWN     UNKNOWN : COAL_FLAG:UNKNOWN:rC:NONE:v1
DT       .us/ft       UNKNOWN : DT:UNKNOWN:rC:NONE:v2
GR       .API         UNKNOWN : GR:UNKNOWN:rC:NONE:v1
NPHI     .v/v_decimal UNKNOWN : NPHI:UNKNOWN:rC:NONE:v1
RD       .UNKNOWN     UNKNOWN : RD:UNKNOWN:rC:NONE:v1
RHOB     .g/cm3       UNKNOWN : RHOB:UNKNOWN:rC:NONE:v1
ROP5_RM  .UNKNOWN     UNKNOWN : ROP5_RM:UNKNOWN:rC:NONE:v1
RS       .UNKNOWN     UNKNOWN : RS:UNKNOWN:rC:NONE:v1
RT       .ohm.m       UNKNOWN : RT:UNKNOWN:rC:NONE:v1
SAND_FLAG.UNKNOWN     UNKNOWN : SAND_FLAG:UNKNOWN:rC:NONE:v1
TVD      .M                   : True Vertical Depth from PyLasMech
~Params ----------------------------------------------------
~Other -----------------------------------------------------
~ASCII -----------------------------------------------------
# ...
 1555.69920 -999.25 -999.25 141.64680 131.93100 0.44390 1.00230 1.93380 20.59020 1.14540 0.79420 -999.25 1519.80565
 1555.85160 -999.25 -999.25 136.90491 132.92129 0.33440 0.99590 1.94520 23.04000 1.50550 0.85510 -999.25 1519.94769
 1556.00400 -999.25 -999.25 135.64619 133.91161 0.37780 1.01750 1.97390 23.51420 1.07710 0.82420 -999.25 1520.08973
 1556.15640 -999.25 -999.25 130.78450 127.11700 0.36270 1.00270 2.03220 23.59680 1.43070 0.96680 -999.25 1520.23176
 1556.30880 -999.25 -999.25 132.37109 123.26580 0.41550 0.99570 2.08690 23.47770 2.13130 1.03530 -999.25 1520.37380
 1556.46120 -999.25 -999.25 135.40669 117.95660 0.37520 1.02480 2.04650 23.51790 2.01260 1.03480 -999.25 1520.51584
 1556.61360 -999.25 -999.25 136.19510 119.52460 0.41960 1.09750 1.96880 23.56210 1.71060 0.84970 -999.25 1520.65788
 1556.76600 -999.25 -999.25 137.43600 121.64280 0.40690 1.07950 1.88910 23.63290 1.55540 0.87210 -999.25 1520.79991
 1556.91840 -999.25 -999.25 134.44459 124.58620 0.44960 1.05350 1.85970 23.79800 1.30770 0.90480 -999.25 1520.94195
 1557.07080 -999.25 -999.25 135.36250 125.85160 0.48480 1.05700 1.86170 24.09880 1.49190 0.90060 -999.25 1521.08399
 1557.22320 -999.25 -999.25 134.48390 131.07820 0.61280 1.04470 1.86000 24.16900 1.25220 0.94060 -999.25 1521.22602
 1557.37560 -999.25 -999.25 136.84100 133.08630 0.50220 1.03810 1.86490 24.16900 1.38970 0.92970 -999.25 1521.36806
 1557.52800 -999.25 -999.25 133.32339 134.02161 0.46100 1.03580 1.84380 24.17030 1.16030 0.89060 -999.25 1521.51010
 1557.68040 -999.25 -999.25 135.71989 130.17039 0.34960 1.04080 1.85800 24.16950 1.46700 0.94870 -999.25 1521.65213
 1557.83280 -999.25 -999.25 133.48430 129.81280 0.38630 1.03600 1.89350 24.16900 1.25820 0.97560 -999.25 1521.79417
 1557.98520 -999.25 -999.25 127.30810 129.89529 0.36450 1.04110 1.95830 24.46470 1.17880 0.85930 -999.25 1521.93621
 1558.13760 -999.25 -999.25 129.22060 129.89529 0.35720 1.02340 2.01810 24.44050 1.30630 0.92610 -999.25 1522.07824
 1558.29000 -999.25 -999.25 137.45570 129.89529 0.33060 1.04550 2.03840 24.49300 1.17600 0.89690 -999.25 1522.22028
 1558.44240 -999.25 -999.25 135.00211 126.86940 0.32860 1.01450 2.03470 24.49300 1.28200 0.95020 -999.25 1522.36232
 1558.59480 -999.25 -999.25 127.77840 126.59430 0.33950 1.01910 2.00710 24.40820 1.14100 0.89750 -999.25 1522.50435
 1558.74720 -999.25 -999.25 132.84630 124.94380 0.38140 1.02030 2.00330 24.44450 1.22850 0.87960 -999.25 1522.64639
 1558.89960 -999.25 -999.25 139.30929 121.75280 0.40000 1.01690 1.98050 24.46070 1.17130 0.94940 -999.25 1522.78843
 1559.05200 -999.25 -999.25 141.33859 115.50830 0.42140 1.04420 1.96120 24.49300 1.61320 0.94550 -999.25 1522.93046
 1559.20440 -999.25 -999.25 139.48000 113.11510 0.36290 1.05040 1.95950 24.40820 1.31230 0.92800 -999.25 1523.07250
 1559.35680 -999.25 -999.25 133.31360 117.04880 0.31720 1.05720 1.97890 24.44450 1.45530 0.88690 -999.25 1523.21454
 1559.50920 -999.25 -999.25 135.23480 119.90970 0.28100 1.02790 1.98990 24.46070 1.31640 0.85790 -999.25 1523.35657
 1559.66160 -999.25 -999.25 129.53380 121.75280 0.29090 1.03390 1.97120 24.49300 1.42310 0.86960 -999.25 1523.49861
 1559.81400 -999.25 -999.25 135.07390 120.01970 0.28790 1.01720 1.92840 24.38400 1.34500 0.88530 -999.25 1523.64065
 1559.96640 -999.25 -999.25 137.81300 121.83530 0.28550 0.99290 1.92360 24.43010 1.39760 0.85730 -999.25 1523.78268
 1560.11880 -999.25 -999.25 134.40041 122.46800 0.29160 0.98550 1.95530 24.42030 1.38770 0.85880 -999.25 1523.92472
 1560.27120 -999.25 -999.25 133.69060 127.22700 0.33490 0.97170 2.03200 24.38400 1.19870 0.86280 -999.25 1524.06676
 1560.42360 -999.25 -999.25 135.44110 128.05220 0.31920 0.97160 2.08160 24.47620 1.24720 0.84350 -999.25 1524.20880
 1560.57600 -999.25 -999.25 137.52440 126.04410 0.32300 0.96060 2.10800 24.42900 1.04550 0.81570 -999.25 1524.35083
 1560.72840 -999.25 -999.25 137.87680 121.36770 0.30570 0.98860 2.12720 24.41940 1.32210 1.01550 -999.25 1524.49287
 1560.88080 -999.25 -999.25 136.88530 120.92750 0.29830 0.96400 2.14680 24.38400 1.09630 0.87910 -999.25 1524.63491
 1561.03320 -999.25 -999.25 135.01010 124.14600 0.27840 1.00110 2.16180 24.47620 1.17630 0.88570 -999.25 1524.77694
 1561.18560 -999.25 -999.25 135.47060 128.90500 0.26880 0.99270 2.14470 24.43010 1.08170 0.87560 -999.25 1524.91898
 1561.33800 -999.25 -999.25 138.47369 128.43739 0.25330 1.02840 2.14270 24.42030 1.53410 0.89690 -999.25 1525.06102
 1561.49040 -999.25 -999.25 130.77470 126.04410 0.26370 0.92610 2.13030 24.38400 1.54550 0.98990 -999.25 1525.20305
 1561.64280 -999.25 -999.25 131.94009 124.94380 0.27370 1.04700 2.10780 24.39610 1.12030 0.85330 -999.25 1525.34509
 1561.79520 -999.25 -999.25 133.20560 125.30140 0.30430 1.03030 2.08040 24.45520 1.31240 0.87630 -999.25 1525.48713
 1561.94760 -999.25 -999.25 131.15170 126.40170 0.33190 1.00380 2.06620 24.45110 1.33060 0.91380 -999.25 1525.62916
 1562.10000 -999.25 -999.25 131.95970 127.41950 0.34400 1.01080 2.06320 24.49300 1.26540 0.91190 -999.25 1525.77120
 1562.25240 -999.25 -999.25 134.00369 128.51990 0.37810 1.04380 2.07800 24.39610 1.21720 0.88480 -999.25 1525.91324
 1562.40480 -999.25 -999.25 132.84821 129.34509 0.34320 1.04570 2.08010 24.45520 1.17780 0.93170 -999.25 1526.05527
 1562.55720 -999.25 -999.25 131.93519 130.80310 0.33910 1.05650 2.09550 24.45110 1.39680 0.94110 -999.25 1526.19731
 1562.70960 -999.25 -999.25 133.01710 133.82899 0.31370 1.07120 2.10360 24.49300 1.45670 0.95610 -999.25 1526.33935
 1562.86200 -999.25 -999.25 131.24989 133.91161 0.30460 1.06310 2.10520 24.39570 1.27240 0.94660 -999.25 1526.48138
 1563.01440 -999.25 -999.25 135.78371 131.27071 0.28320 1.06370 2.10790 24.49300 1.49150 0.96020 -999.25 1526.62339
 1563.16680 -999.25 -999.25 135.98880 131.10570 0.31040 1.08090 2.10390 24.43240 1.45190 0.96280 -999.25 1526.76512
 1563.31920 -999.25 -999.25 129.42081 130.11540 0.38190 1.06970 2.11020 24.47200 1.55360 1.02270 -999.25 1526.90686
 1563.47160 -999.25 -999.25 130.62061 126.15420 0.40390 1.11130 2.10720 24.48490 1.47090 0.95180 -999.25 1527.04859
 1563.62400 -999.25 -999.25 133.18100 123.92600 0.40880 1.08070 2.09370 24.42030 1.35930 0.94050 -999.25 1527.19032
 1563.77640 -999.25 -999.25 130.13550 122.63310 0.34530 1.07840 2.10000 24.43240 1.41850 0.92650 -999.25 1527.33205
 1563.92880 -999.25 -999.25 129.05360 127.39200 0.41240 1.07620 2.09480 24.47200 1.29790 0.99100 -999.25 1527.47378
 1564.08120 -999.25 -999.25 130.75690 132.89380 0.45850 1.09690 2.10260 24.48490 1.26250 0.93610 -999.25 1527.61552
 1564.23360 -999.25 -999.25 123.96910 139.11070 0.42600 1.07130 2.09750 24.42030 1.41890 0.95030 -999.25 1527.75725
 1564.38600 -999.25 -999.25 131.03380 143.62210 0.35940 1.06970 2.10790 24.43240 1.46780 0.92450 -999.25 1527.89898
 1564.53840 -999.25 -999.25 127.33750 137.95531 0.32270 1.03590 2.11930 24.38400 1.28080 0.90810 -999.25 1528.04071
 1564.69080 -999.25 -999.25 130.32710 132.48109 0.33870 1.04930 2.13200 24.38400 1.27360 0.93310 -999.25 1528.18244
 1564.84320 -999.25 -999.25 136.55740 123.21070 0.40150 1.04520 2.12790 24.46470 1.27280 0.93520 -999.25 1528.32418
 1564.99560 -999.25 -999.25 136.80670 126.70430 0.38410 1.05560 2.12490 24.44050 1.36500 0.88050 -999.25 1528.46591
 1565.14800 -999.25 -999.25 131.85170 132.56360 0.34560 1.03910 2.11300 24.40820 1.14510 0.92450 -999.25 1528.60764
 1565.30040 -999.25 -999.25 129.81261 133.38890 0.28500 1.06560 2.10510 24.38400 1.26970 0.96250 -999.25 1528.74937
 1565.45280 -999.25 -999.25 131.07800 125.49390 0.29160 1.07690 2.10240 24.46470 1.24540 0.93710 -999.25 1528.89110
 1565.60520 -999.25 -999.25 128.95050 118.42420 0.31050 1.09310 2.09690 24.44050 1.42580 0.97960 -999.25 1529.03284
 1565.75760 -999.25 -999.25 126.89670 118.06660 0.30530 1.07700 2.10710 24.40820 1.39000 1.02070 -999.25 1529.17457
 1565.91000 -999.25 -999.25 127.69490 116.49860 0.25040 1.09910 2.11070 24.38400 1.31270 1.04510 -999.25 1529.31630
 1566.06240 -999.25 -999.25 129.46500 120.26730 0.22490 1.08950 2.12030 24.49300 1.34770 1.00530 -999.25 1529.45803
