~Version ---------------------------------------------------
VERS     .                             2.0 : CWLS log ASCII Standard -VERSION 2.0
WRAP     .                              NO : One Line per depth step
PROD     .         CROCKER DATA PROCESSING : LAS Producer
PROG     .                   LAS Viewer v0 : LAS Program name and version
CREA     .                2019/04/03 21-01 : LAS Creation date {YYYY/MM/DD hh-mm}
DLIS_CREA.               2009-Aug-25 10-08 : DLIS Creation date and time {YYYY-MMM-DD hh-mm}
SOURCE   . WLC_PETRO_COMPUTED_INPUT_1.DLIS : DLIS File Name
FILE-ID  .               CPI_INPUT.logdata : File Identification Number
~Well ------------------------------------------------------
STRT .m               2560.0152 : START DEPTH
STOP .m               3222.1932 : STOP DEPTH
STEP .m       0.152400000000398 : STEP
NULL .                  -999.25 : NULL VALUE
COMP .             STATOILHYDRO : COMPANY
WELL .              15/9-F-15 C : WELL
FIELD.                    VOLVE : FIELD
LOC  .                          : LOCATION
CNTY .                          : COUNTY
STAT .                          : STATE
NATI .                          : COUNTRY
API  .                          : API NUMBER
UWI  .                          : UNIQUE WELL ID
SRVC .                          : SERVICE COMPANY
LATI . 058 26' 29.706" N    DMS : LATITUDE
LONG . 001 53' 15.149" E    DMS : LONGITUDE
GDAT .                      MSL : GeoDetic Datum
~Curve Information -----------------------------------------
DEPTH.m      : Measured Depth
CALI .IN     : 
DRHO .G/CC   : 
DRHU .G/CC   : 
DT   .US/FT  : 
GR   .GAPI   : 
NPHI .V/V    : 
RD   .OHMM   : 
RHOB .G/CC   : 
ROBU .G/CC   : 
RS   .OHMM   : 
RT   .OHMM   : 
TVD  .M      : True Vertical Depth from PyLasMech
~Params ----------------------------------------------------
RUN . MWD RUN 12-13 : Run number
PDAT.           MSL : Perm. Datum
~Other -----------------------------------------------------
~ASCII -----------------------------------------------------
# ...
 2985.82080 8.75190 0.03420 0.12210 72.44340 26.25750 0.08830 2.90380 2.60270 2.60040 3.44020 3.29560 2811.64838
 2985.97320 8.69780 0.02650 0.11230 73.24830 25.01730 0.09310 2.89070 2.60060 2.60020 3.54120 3.58980 2811.79352
 2986.12560 8.74870 0.02590 0.10880 74.74970 25.61780 0.09510 2.89600 2.59300 2.60330 3.14460 3.25430 2811.93867
 2986.27800 8.73920 0.02800 0.10930 74.87150 30.07290 0.10370 2.73230 2.57860 2.59850 2.80450 3.05910 2812.08381
 2986.43040 8.77480 0.04140 0.10350 75.34760 32.87650 0.11830 2.67540 2.57030 2.58660 2.25900 2.39530 2812.22895
 2986.58280 8.78280 0.05150 0.09530 75.24290 34.77290 0.11400 2.65470 2.56830 2.57040 2.00850 1.98810 2812.37410
 2986.73520 8.77490 0.05730 0.08890 74.40160 33.27510 0.12270 2.56200 2.57370 2.56340 2.12470 2.09830 2812.51924
 2986.88760 8.76370 0.05140 0.07460 73.94530 31.93290 0.12570 2.55330 2.57220 2.55920 2.21690 2.22820 2812.66438
 2987.04000 8.71890 0.04720 0.06980 74.16040 29.62810 0.11360 2.56370 2.57920 2.57280 2.41610 2.60910 2812.80952
 2987.19240 8.72260 0.04920 0.05750 74.10080 28.64180 0.11020 2.59510 2.58270 2.56690 2.38620 2.57500 2812.95467
 2987.34480 8.71900 0.05120 0.06240 72.77200 29.33490 0.11590 2.64520 2.58840 2.57600 2.30560 2.47360 2813.09981
 2987.49720 8.71610 0.04900 0.05950 71.68000 28.90940 0.11340 2.70400 2.58610 2.56890 2.28450 2.34370 2813.24495
 2987.64960 8.71660 0.04450 0.06530 70.49960 27.56790 0.11130 2.75400 2.58900 2.58280 2.44800 2.45820 2813.39010
 2987.80200 8.69040 0.04130 0.05820 68.66020 25.30840 0.10520 2.83480 2.58800 2.58260 2.63690 2.61570 2813.53524
 2987.95440 8.69700 0.04220 0.06150 67.07880 23.71950 0.09950 2.98870 2.59640 2.59850 2.94860 2.95230 2813.68038
 2988.10680 8.70480 0.04040 0.06080 66.36950 21.59390 0.09540 3.08780 2.60130 2.60360 3.28920 3.28210 2813.82552
 2988.25920 8.71490 0.03480 0.06190 67.86260 20.89300 0.08620 3.21310 2.60310 2.60750 3.48090 3.49080 2813.97067
 2988.41160 8.70570 0.03240 0.05530 69.72040 21.59810 0.08250 3.30630 2.59820 2.60420 3.65530 3.61460 2814.11581
 2988.56400 8.71460 0.02620 0.04980 71.32110 22.05300 0.08220 3.33780 2.58980 2.60060 3.76020 3.72980 2814.26095
 2988.71640 8.71640 0.02730 0.05530 73.01050 22.32060 0.08320 3.39560 2.58770 2.61460 3.64830 3.60630 2814.40610
 2988.86880 8.69480 0.02470 0.05730 75.06600 23.23970 0.08770 3.31550 2.58780 2.62040 3.59270 3.48980 2814.55124
 2989.02120 8.68310 0.02310 0.06020 75.27360 24.84880 0.08920 3.25340 2.58210 2.62220 3.40110 3.35690 2814.69638
 2989.17360 8.65610 0.02210 0.05850 74.94960 25.88850 0.09270 3.14730 2.58390 2.60670 3.19570 3.21920 2814.84152
 2989.32600 8.68880 0.01850 0.06050 75.59900 25.80330 0.09470 2.96740 2.57120 2.59410 3.02180 3.15440 2814.98667
 2989.47840 8.73820 0.02150 0.06570 76.89050 27.29950 0.10640 2.89590 2.57580 2.58940 2.61230 2.72730 2815.13181
 2989.63080 8.73560 0.02540 0.07130 76.67230 27.74880 0.10890 2.76980 2.57740 2.58910 2.34520 2.38510 2815.27695
 2989.78320 8.73800 0.03410 0.07280 75.73290 28.15170 0.11190 2.68780 2.58730 2.58670 2.26540 2.27390 2815.42210
 2989.93560 8.70980 0.04600 0.07800 75.16930 27.91140 0.12450 2.54050 2.59320 2.59010 2.40580 2.47020 2815.56724
 2990.08800 8.72630 0.05010 0.07470 75.22550 28.16270 0.11850 2.64750 2.58350 2.58850 2.24890 2.26970 2815.71238
 2990.24040 8.72680 0.05410 0.07440 75.26800 28.64180 0.11330 2.52550 2.58520 2.58170 2.44100 2.42130 2815.85752
 2990.39280 8.77410 0.05150 0.06140 75.54570 28.18780 0.11190 2.55660 2.57810 2.56730 2.48240 2.46480 2816.00267
 2990.54520 8.77220 0.05520 0.05870 75.71640 28.48520 0.10860 2.58340 2.57480 2.55670 2.50640 2.52060 2816.14781
 2990.69760 8.77630 0.05350 0.06440 75.78370 30.21510 0.11470 2.62200 2.56180 2.56600 2.44970 2.46730 2816.29295
 2990.85000 8.79060 0.05530 0.06640 75.78430 30.60640 0.11180 2.65920 2.55870 2.57360 2.39280 2.35200 2816.43810
 2991.00240 8.79570 0.05100 0.06200 75.52570 31.80080 0.10730 2.66040 2.56250 2.58190 2.35680 2.43050 2816.58324
 2991.15480 8.75340 0.04580 0.05500 73.66630 31.66000 0.11630 2.63270 2.56930 2.57970 2.39450 2.56030 2816.72838
 2991.30720 8.71080 0.04070 0.05630 70.90910 32.61810 0.11750 2.69990 2.57330 2.57840 2.24540 2.43210 2816.87352
 2991.45960 8.74610 0.03970 0.05700 68.61820 33.96020 0.11320 2.72070 2.57590 2.56950 2.24100 2.34300 2817.01867
 2991.61200 8.75540 0.03970 0.05930 66.95520 35.57560 0.12080 2.88430 2.58010 2.57060 2.39450 2.38540 2817.16381
 2991.76440 8.75490 0.03480 0.06170 68.22860 35.27520 0.10340 3.16850 2.58610 2.58450 2.68540 2.46560 2817.30895
 2991.91680 8.75310 0.03310 0.06860 70.61980 33.72020 0.09860 3.28060 2.60560 2.61080 3.90050 3.81080 2817.45410
 2992.06920 8.73830 0.03720 0.06620 72.07850 30.11740 0.08990 3.51210 2.62030 2.62130 4.65480 4.81050 2817.59924
 2992.22160 8.71320 0.03550 0.06250 71.98700 29.30410 0.08620 3.62450 2.62090 2.62130 4.54140 5.06440 2817.74438
 2992.37400 8.72920 0.02630 0.06230 71.06100 31.15600 0.09500 3.67120 2.59780 2.60310 3.87180 4.52620 2817.88952
 2992.52640 8.70390 0.00930 0.07010 69.20980 34.11570 0.10170 3.73350 2.57170 2.60280 3.16080 3.54200 2818.03467
 2992.67880 8.67560 0.00770 0.07460 67.12460 36.22450 0.10730 3.46990 2.56960 2.60440 3.27320 3.39250 2818.17981
 2992.83120 8.70460 0.00860 0.07040 67.36190 33.62690 0.10200 3.29560 2.57610 2.60620 3.59850 3.41400 2818.32495
 2992.98360 8.69400 0.01700 0.07110 72.26350 30.68190 0.09560 3.36400 2.59040 2.60920 3.76750 3.36650 2818.47010
 2993.13600 8.73270 0.01500 0.06760 79.54150 26.85250 0.08450 3.21390 2.59550 2.60180 4.60180 4.08440 2818.61524
 2993.28840 8.73830 0.01160 0.06250 83.92580 24.97140 0.08100 3.07270 2.59760 2.60530 4.83930 4.65650 2818.76038
 2993.44080 8.71070 0.01620 0.05090 84.87840 26.40880 0.07900 2.71470 2.59530 2.59810 3.89400 4.53070 2818.90552
 2993.59320 8.71550 0.03410 0.05180 83.51650 31.99840 0.11910 2.21990 2.58050 2.58920 2.45190 3.22100 2819.05067
 2993.74560 8.75750 0.05140 0.06630 81.78770 40.90600 0.14010 2.16300 2.55860 2.57410 1.24280 1.20010 2819.19581
 2993.89800 8.79240 0.06080 0.07550 80.62150 46.94360 0.14860 1.77970 2.54860 2.55340 1.23620 1.17230 2819.34095
 2994.05040 8.79290 0.05830 0.07910 79.76680 48.35290 0.14920 1.65180 2.54850 2.54550 1.49060 1.49240 2819.48610
 2994.20280 8.80020 0.04880 0.08080 78.86390 45.90270 0.14080 1.74740 2.55370 2.55830 1.63080 1.72190 2819.63124
 2994.35520 8.79850 0.03750 0.08430 78.43870 41.77860 0.13670 1.85110 2.55130 2.57070 1.78530 1.85470 2819.77638
 2994.50760 8.77050 0.03400 0.08680 78.32670 38.61030 0.12840 1.90700 2.55190 2.58110 1.97330 1.95160 2819.92152
 2994.66000 8.74560 0.03450 0.08190 78.57670 35.34900 0.12110 1.88920 2.55470 2.57640 2.09380 2.04380 2820.06667
 2994.81240 8.76210 0.03920 0.07620 79.59690 34.94450 0.12150 1.89580 2.56480 2.57490 2.12680 2.11800 2820.21181
 2994.96480 8.76100 0.03700 0.07570 81.13230 36.14100 0.13880 1.90600 2.55440 2.57160 1.92800 1.96500 2820.35695
 2995.11720 8.75280 0.03650 0.06760 82.36980 39.42790 0.13940 1.88740 2.54800 2.55500 1.73340 1.75840 2820.50210
 2995.26960 8.78040 0.03040 0.06960 82.62790 41.13840 0.15200 1.84710 2.52880 2.55690 1.63030 1.64150 2820.64724
 2995.42200 8.79680 0.02740 0.06480 82.70250 42.24870 0.15220 1.82750 2.53050 2.55070 1.58420 1.61340 2820.79238
 2995.57440 8.78040 0.02770 0.06960 83.12090 41.59520 0.14930 1.84130 2.54110 2.55870 1.55570 1.57470 2820.93752
 2995.72680 8.77990 0.03070 0.07070 83.23170 41.95120 0.14130 1.81790 2.55550 2.55450 1.63720 1.68880 2821.08267
 2995.87920 8.81210 0.03140 0.07890 82.57980 42.67160 0.14460 1.82100 2.56300 2.55990 1.71520 1.76110 2821.22781
 2996.03160 8.80350 0.03370 0.08730 82.59300 42.23080 0.13870 1.93100 2.56320 2.56930 1.71830 1.71070 2821.37295
 2996.18400 8.79160 0.03900 0.09850 82.41740 39.25380 0.12640 1.99110 2.57380 2.57470 1.85610 1.83890 2821.51810
 2996.33640 8.78280 0.03700 0.09960 80.90620 35.11530 0.11860 2.04380 2.56890 2.57350 2.05220 2.04210 2821.66324
 2996.48880 8.77630 0.03730 0.10090 79.12340 31.82510 0.13380 2.09500 2.57440 2.57250 2.17150 2.23540 2821.80838
