~Version ---------------------------------------------------
VERS     .                             2.0 : CWLS log ASCII Standard -VERSION 2.0
WRAP     .                              NO : One Line per depth step
PROD     .                    Schlumberger : LAS Producer
PROG     .               DLIS to ASCII 2.3 : LAS Program name and version
CREA     .                   2019/04/03 19 : 56                          :LAS Creation date {YYYY/MM/DD hh:mm}
DLIS_CREA.                  2009-Feb-18 14 : 31                          :DLIS Creation date and time {YYYY-MMM-DD hh:mm}
SOURCE   . WLC_PETRO_COMPUTED_INPUT_1.DLIS : DLIS File Name
FILE-ID  .                   INPUT.logdata : File Identification Number
~Well ------------------------------------------------------
STRT.F                  566.0 : START DEPTH
STOP.F                12302.0 : STOP DEPTH
STEP.F                    0.5 : STEP
NULL.                 -999.25 : NULL VALUE
COMP.            STATOILHYDRO : COMPANY
WELL.               15/9-F-14 : WELL
FLD .                   VOLVE : FIELD
LOC .                         : LOCATION
CNTY.         MAERSK INSPIRER : COUNTY
STAT.                         : STATE
CTRY.                         : COUNTRY
API .                         : API NUMBER
UWI .                         : UNIQUE WELL ID
DATE.                         : LOG DATE
SRVC. CROCKER DATA PROCESSING : SERVICE COMPANY
LATI.DEG                      : LATITUDE
LONG.DEG                      : LONGITUDE
GDAT.                         : GeoDetic Datum
~Curve Information -----------------------------------------
DEPTH.F            : DEPTH (BOREHOLE) {F10.1}
DEPTH..1IN         : Measured Depth {I11}
DRHO .G/C3         : DRHO:UNKNOWN:rC:NONE:v1 {F13.4}
DT   .US/F         : DT:UNKNOWN:rC:NONE:v2 {F13.4}
DTS  .US/F         : DTS:UNKNOWN:rC:NONE:v1 {F13.4}
GR   .API          : GR:UNKNOWN:rC:NONE:v1 {F13.4}
NPHI .V/V_DECIMAL  : NPHI:UNKNOWN:rC:NONE:v1 {F13.4}
PEF  .B/ELEC       : PEF:UNKNOWN:rC:NONE:v1 {F13.4}
RD   .UNKNOWN      : RD:UNKNOWN:rC:NONE:v1 {F13.4}
RHOB .G/C3         : RHOB:UNKNOWN:rC:NONE:v1 {F13.4}
RS   .UNKNOWN      : RS:UNKNOWN:rC:NONE:v1 {F13.4}
RT   .OHMM         : RT:UNKNOWN:rC:NONE:v1 {F13.4}
TVD  .M            : True Vertical Depth from PyLasMech
~Params ----------------------------------------------------
CN  .    STATOILHYDRO : Company
WN  .       15/9-F-14 : Well Name
FN  .           VOLVE : Field
CTRY.          NORWAY : Country
COUN. MAERSK INSPIRER : County or Rig name
PDAT.             MSL : Perm. Datum
ELZ .M            0.0 : Elev. Log Zero (wrt EPD)
SRVC.         UNKNOWN : Service company
R2  .           INPUT : R2
RUN .                 : RUN NUMBER
EPD .                 : Elevation of Permanent Datum above Mean Sea Level
LMF .                 : Logging Measured From (Name of Logging Elevation Reference)
APD .                 : Elevation of Depth Reference (LMF) above Permanent Datum
~Other -----------------------------------------------------
~ASCII -----------------------------------------------------
# ...
 11002.50000 1320300.00000 0.02650 90.96390 152.66320 48.73490 0.19360 2.88450 31.21480 2.22240 23.09290 41.76460 2957.60517
 11003.00000 1320360.00000 0.02630 91.08660 153.06050 49.57530 0.20900 3.05290 31.85830 2.22450 21.99680 41.96450 2957.65363
 11003.50000 1320420.00000 0.02860 90.69240 153.73480 50.70780 0.20050 3.42060 31.61490 2.21760 21.51750 32.13280 2957.70209
 11004.00000 1320480.00000 0.03970 90.16780 154.71810 51.61770 0.20680 3.82460 32.70260 2.21010 22.14380 38.81430 2957.75055
 11004.50000 1320540.00000 0.04450 90.16780 154.89060 50.37690 0.20250 3.88640 31.77010 2.20410 21.35620 39.43300 2957.79901
 11005.00000 1320600.00000 0.03970 90.76010 154.53930 49.19140 0.20260 3.60720 30.71130 2.19940 20.50350 33.73140 2957.84747
 11005.50000 1320660.00000 0.02710 92.28460 154.30000 49.57150 0.19830 3.28040 31.91180 2.19420 21.39170 35.86140 2957.89593
 11006.00000 1320720.00000 0.02400 92.10410 155.15230 50.34750 0.20790 3.13610 31.67740 2.19980 21.77750 35.24410 2957.94440
 11006.50000 1320780.00000 0.02350 91.47590 155.15520 50.62550 0.20220 3.18880 29.52120 2.20520 21.96890 30.42830 2957.99286
 11007.00000 1320840.00000 0.02530 90.97980 154.80330 50.81140 0.20920 3.22410 33.07670 2.21180 19.94240 27.37140 2958.04132
 11007.50000 1320900.00000 0.02410 93.64380 154.49340 51.88880 0.21310 3.24770 30.82270 2.21350 21.07630 25.14130 2958.08978
 11008.00000 1320960.00000 0.02340 94.83910 154.24260 53.30330 0.20510 3.21120 33.06160 2.21270 20.69180 25.34260 2958.13824
 11008.50000 1321020.00000 0.01840 94.48330 154.39770 54.59910 0.19690 3.14810 29.84550 2.20770 20.86710 23.71220 2958.18670
 11009.00000 1321080.00000 0.01640 93.46500 154.24880 54.55200 0.19580 3.03570 29.12160 2.21040 17.42680 21.69860 2958.23516
 11009.50000 1321140.00000 0.01890 92.20280 154.43460 53.54600 0.20170 3.04060 34.96410 2.23130 15.64280 17.39840 2958.28362
 11010.00000 1321200.00000 0.02160 91.29740 155.42480 53.80150 0.19680 3.11110 41.42090 2.25660 13.85440 15.28060 2958.33209
 11010.50000 1321260.00000 0.02150 88.71590 156.99670 54.66080 0.18810 3.15260 35.29660 2.28070 14.70780 18.65510 2958.38055
 11011.00000 1321320.00000 0.01800 88.73070 158.68220 55.81420 0.19240 3.08260 31.36430 2.28820 15.30210 20.54330 2958.42901
 11011.50000 1321380.00000 0.01810 87.69840 158.22290 55.82680 0.18530 2.96930 27.40950 2.30080 15.19110 20.96550 2958.47747
 11012.00000 1321440.00000 0.01630 87.40080 156.81940 56.18200 0.18450 2.87200 25.90160 2.30400 15.78390 23.45130 2958.52593
 11012.50000 1321500.00000 0.01860 85.49880 155.47550 54.60680 0.18130 2.79710 24.52770 2.31050 16.04050 27.55220 2958.57439
 11013.00000 1321560.00000 0.01620 85.52140 155.22560 52.04980 0.17850 2.68020 24.35980 2.29690 16.84700 33.44540 2958.62285
 11013.50000 1321620.00000 0.01750 86.14130 153.35570 48.28070 0.18430 2.66240 24.75490 2.28290 18.56560 34.08670 2958.67132
 11014.00000 1321680.00000 0.01040 86.91120 154.14050 47.13720 0.18650 2.65990 23.54250 2.26440 20.59370 28.11430 2958.71978
 11014.50000 1321740.00000 0.01220 88.49920 153.23540 47.42580 0.18800 2.73190 24.56450 2.26300 22.71570 39.18450 2958.76824
 11015.00000 1321800.00000 0.01080 88.99250 152.88410 48.05540 0.18370 2.73160 24.10430 2.26750 22.24000 36.66110 2958.81670
 11015.50000 1321860.00000 0.01500 88.79340 152.59320 47.48800 0.19130 2.74280 22.46140 2.27600 21.74730 31.58330 2958.86516
 11016.00000 1321920.00000 0.01030 88.64120 151.52950 46.45440 0.18260 2.74270 22.93430 2.27750 22.67390 35.15280 2958.91362
 11016.50000 1321980.00000 0.00610 88.60170 150.70370 46.00650 0.18460 2.76290 22.66700 2.27550 23.60450 31.70260 2958.96208
 11017.00000 1322040.00000 0.00250 88.63060 150.63380 45.66940 0.18440 2.77330 22.86280 2.27630 26.76740 33.30960 2959.01054
 11017.50000 1322100.00000 0.00270 86.51020 151.08240 46.16730 0.19470 2.89260 23.81160 2.28190 27.72060 36.33060 2959.05901
 11018.00000 1322160.00000 0.00370 88.22230 151.77350 45.27870 0.18030 3.05290 22.11670 2.28650 28.02070 32.94400 2959.10747
 11018.50000 1322220.00000 0.00690 87.51790 151.70720 46.43680 0.18190 3.16070 22.71670 2.29010 31.03470 36.96570 2959.15593
 11019.00000 1322280.00000 0.00840 88.47900 151.48250 46.25010 0.17690 3.19340 22.09430 2.29100 33.83300 36.49750 2959.20439
 11019.50000 1322340.00000 0.00920 90.20940 151.12860 47.11380 0.18990 3.16210 22.60720 2.29740 33.69420 37.07670 2959.25285
 11020.00000 1322400.00000 0.01390 90.15790 150.55290 47.97460 0.18050 3.27210 21.88270 2.30690 32.19870 37.57870 2959.30131
 11020.50000 1322460.00000 0.01890 88.62560 150.45200 48.65280 0.18270 3.33870 23.28010 2.31680 31.17370 46.14110 2959.34977
 11021.00000 1322520.00000 0.02780 88.61580 150.86820 50.07050 0.17900 3.35350 24.52470 2.32030 31.97020 47.38330 2959.39823
 11021.50000 1322580.00000 0.01830 86.72810 151.63950 50.67100 0.18580 3.22090 24.24010 2.31340 33.71530 43.53210 2959.44670
 11022.00000 1322640.00000 0.00980 85.86540 152.81250 51.59560 0.18000 2.98960 23.79700 2.30460 36.28180 41.31850 2959.49516
 11022.50000 1322700.00000 0.00610 87.76310 154.69710 51.49880 0.17440 2.93560 24.38910 2.30120 34.11810 46.66450 2959.54362
 11023.00000 1322760.00000 0.00360 87.71410 156.12450 50.73790 0.18970 3.14530 23.72420 2.29750 31.74280 41.90580 2959.59208
 11023.50000 1322820.00000 0.01230 89.81450 156.42540 49.91820 0.18730 3.48540 22.71540 2.30920 30.99830 38.79110 2959.64054
 11024.00000 1322880.00000 0.01470 89.85740 156.45110 49.71570 0.18040 3.71770 22.99800 2.31340 32.02890 37.54670 2959.68900
 11024.50000 1322940.00000 0.02760 90.60690 155.72100 50.39710 0.18310 3.68410 24.04110 2.32050 31.02680 43.07540 2959.73746
 11025.00000 1323000.00000 0.03070 87.85390 154.26160 50.97660 0.18640 3.64580 24.90830 2.32080 33.39390 46.01070 2959.78592
 11025.50000 1323060.00000 0.03600 84.76080 151.27580 49.54050 0.18300 3.45560 23.65130 2.32360 31.18390 42.91040 2959.83439
 11026.00000 1323120.00000 0.04090 85.23570 149.47230 47.20000 0.17900 3.23920 24.73320 2.33270 31.63950 42.05410 2959.88285
 11026.50000 1323180.00000 0.04040 85.33050 149.44510 45.57920 0.17770 3.00250 25.26570 2.33060 32.08170 45.84720 2959.93131
 11027.00000 1323240.00000 0.03890 84.24970 150.41420 45.68180 0.17910 2.84890 23.63720 2.33840 32.70230 40.90690 2959.97977
 11027.50000 1323300.00000 0.03170 85.49950 151.96360 47.51270 0.18090 2.88180 25.02050 2.33670 32.39420 49.65700 2960.02823
 11028.00000 1323360.00000 0.02310 88.25100 152.94020 48.69560 0.18080 3.03450 23.30210 2.32700 30.25910 41.52350 2960.07669
 11028.50000 1323420.00000 0.01400 90.60280 151.25430 49.74180 0.17440 3.04680 24.28370 2.30670 30.03230 44.47850 2960.12515
 11029.00000 1323480.00000 0.01020 91.93510 150.28040 48.80550 0.18100 2.93240 23.56030 2.29120 32.28480 37.73340 2960.17361
 11029.50000 1323540.00000 0.00570 89.85070 150.81530 48.14880 0.19160 2.87930 24.12350 2.28460 30.32700 45.36820 2960.22208
 11030.00000 1323600.00000 0.00200 87.95820 149.99780 48.08030 0.18560 2.98140 24.65220 2.29100 34.71180 42.06720 2960.27054
 11030.50000 1323660.00000 0.00460 88.07700 149.05650 47.60280 0.18340 3.29710 23.79510 2.29570 31.85310 43.33850 2960.31900
 11031.00000 1323720.00000 0.01680 89.61780 147.04230 46.46430 0.19180 3.60290 23.61430 2.30330 30.06670 41.66900 2960.36746
 11031.50000 1323780.00000 0.03420 88.66440 144.81130 45.43630 0.17470 3.92280 23.86260 2.30380 29.33120 42.85880 2960.41592
 11032.00000 1323840.00000 0.04070 86.92700 145.51690 45.22320 0.17320 3.87590 24.72940 2.30830 30.39440 44.54240 2960.46438
 11032.50000 1323900.00000 0.04170 87.11520 147.81820 44.47470 0.17520 3.55890 24.10190 2.31100 29.74090 45.38120 2960.51284
 11033.00000 1323960.00000 0.03820 87.04190 147.90590 44.01840 0.17340 3.18330 23.87350 2.31530 30.05740 44.70720 2960.56131
 11033.50000 1324020.00000 0.04070 87.07360 147.97690 43.31580 0.17500 3.00360 24.57550 2.32020 32.92490 44.37340 2960.60977
 11034.00000 1324080.00000 0.04270 86.21270 148.64470 43.48030 0.18560 3.04560 24.04460 2.31880 30.67830 44.01410 2960.65823
