~VERSION INFORMATION
VERS.           2.0   :CWLS Log ASCII Standard - VERSION 2.0
WRAP.           NO    :One Line per depth step
PROD.  Schlumberger   :LAS Producer
PROG.  DLIS to ASCII 2.3                               :LAS Program name and version
CREA.        2019/04/03 19:56                          :LAS Creation date {YYYY/MM/DD hh:mm}
DLIS_CREA.  2009-Feb-18 14:32                          :DLIS Creation date and time {YYYY-MMM-DD hh:mm}
SOURCE.     WLC_PETRO_COMPUTED_OUTPUT_1.DLIS           :DLIS File Name
FILE-ID.     OUTPUT.logdata                            :File Identification Number
#--------------------------------------------------
~WELL INFORMATION
#MNEM.UNIT      DATA             DESCRIPTION
#---- ------ --------------   -----------------------------
STRT .F          566.0       :START DEPTH     
STOP .F        12302.0       :STOP DEPTH     
STEP .F            0.5       :STEP     
NULL .          -999.25      :NULL VALUE
COMP .        STATOILHYDRO                             :COMPANY
WELL .        15/9-F-14                                :WELL
FLD  .        VOLVE                                    :FIELD
LOC  .                                                 :LOCATION
CNTY .        MAERSK INSPIRER                          :COUNTY
STAT .                                                 :STATE
CTRY .                                                 :COUNTRY
API  .                                                 :API NUMBER
UWI  .                                                 :UNIQUE WELL ID
DATE .                                                 :LOG DATE
SRVC .        CROCKER DATA PROCESSING                  :SERVICE COMPANY
LATI .DEG                                              :LATITUDE
LONG .DEG                                              :LONGITUDE
GDAT .                                                 :GeoDetic Datum
#-----------------------------------------------------------------------------
~PARAMETER INFORMATION
#MNEM.UNIT    VALUE                      DESCRIPTION
#---- -----   --------------------       ------------------------
CN   .        STATOILHYDRO               :Company
WN   .        15/9-F-14                  :Well Name
FN   .        VOLVE                      :Field
CTRY .        NORWAY                     :Country
COUN .        MAERSK INSPIRER            :County or Rig name
PDAT .        MSL                        :Perm. Datum
ELZ  .M          0.00000                 :Elev. Log Zero (wrt EPD)
SRVC .        UNKNOWN                    :Service company
R2   .        INPUT                      :R2
R4   .        INPUT                      :R4
RUN  .                                   :RUN NUMBER
EPD  .                                   :Elevation of Permanent Datum above Mean Sea Level
LMF  .                                   :Logging Measured From (Name of Logging Elevation Reference)
APD  .                                   :Elevation of Depth Reference (LMF) above Permanent Datum
#-----------------------------------------------------------------------------
~CURVE INFORMATION
#MNEM.UNIT   API CODE                                  DESCRIPTION
#---- -----  --------                                  -----------------------
DEPTH.F                                                :DEPTH (BOREHOLE) {F10.1}
DEPTH..1IN                                             :Measured Depth {I11}
BVW  .V/V_DECIMAL                                      :BVW:UNKNOWN:rC:NONE:v1 {F13.4}
CARB_FLAG.UNKNOWN                                      :CARB_FLAG:UNKNOWN:rC:NONE:v1 {F13.4}
COAL_FLAG.UNKNOWN                                      :COAL_FLAG:UNKNOWN:rC:NONE:v1 {F13.4}
KLOGH.MD                                               :KLOGH:UNKNOWN:rC:NONE:v1 {F13.4}
SAND_FLAG.UNKNOWN                                      :SAND_FLAG:UNKNOWN:rC:NONE:v1 {F13.4}
VSH  .V/V_DECIMAL                                      :VSH:UNKNOWN:rC:NONE:v1 {F13.4}
#-----------------------------------------------------------------------------
# 
#    DEPTH        DEPTH           BVW       CARB_FLAG    COAL_FLAG      KLOGH      SAND_FLAG       VSH
#
~A  
# ...
   10526.0    1263120       0.0235       0.0000       0.0000       1.0862       1.0000       0.3909
   10526.5    1263180       0.0216       0.0000       0.0000       1.9073       1.0000       0.4096
   10527.0    1263240       0.0243       0.0000       0.0000       2.3067       1.0000       0.4276
   10527.5    1263300       0.0164       0.0000       0.0000       4.4505       1.0000       0.4641
   10528.0    1263360       0.0163       0.0000       0.0000       0.3509       1.0000       0.4938
   10528.5    1263420       0.0157       0.0000       0.0000       3.4169       0.0000       0.5147
   10529.0    1263480       0.0208       0.0000       0.0000       2.3837       0.0000       0.5267
   10529.5    1263540       0.0208       0.0000       0.0000       1.5526       0.0000       0.5177
   10530.0    1263600       0.0251       0.0000       0.0000       0.0592       0.0000       0.5200
   10530.5    1263660       0.0258       0.0000       0.0000       0.0354       0.0000       0.5354
   10531.0    1263720       0.0236       0.0000       0.0000       0.0205       0.0000       0.5530
   10531.5    1263780       0.0252       0.0000       0.0000       0.0149       0.0000       0.5697
   10532.0    1263840       0.0229       0.0000       0.0000       0.0078       0.0000       0.5950
   10532.5    1263900       0.0261       0.0000       0.0000       0.0085       0.0000       0.6318
   10533.0    1263960       0.0247       0.0000       0.0000       0.0116       0.0000       0.6399
   10533.5    1264020       0.0229       0.0000       0.0000       0.0300       0.0000       0.6401
   10534.0    1264080       0.0302       0.0000       0.0000       0.0266       0.0000       0.6291
   10534.5    1264140       0.0287       0.0000       0.0000       0.0311       0.0000       0.6616
   10535.0    1264200       0.0331       1.0000       0.0000       0.0107       0.0000       0.6776
   10535.5    1264260       0.0368       1.0000       0.0000       0.0030       0.0000       0.6983
   10536.0    1264320       0.0413       1.0000       0.0000       0.0010       0.0000       0.6859
   10536.5    1264380       0.0421       1.0000       0.0000       0.0010       0.0000       0.6896
   10537.0    1264440       0.0565       1.0000       0.0000       0.0025       0.0000       0.7037
   10537.5    1264500       0.0765       1.0000       0.0000       0.0097       0.0000       0.7298
   10538.0    1264560       0.0805       1.0000       0.0000       0.0121       0.0000       0.7467
   10538.5    1264620       0.0963       0.0000       0.0000       0.0377       0.0000       0.7523
   10539.0    1264680       0.1038       0.0000       0.0000       0.0651       0.0000       0.7546
   10539.5    1264740       0.1151       0.0000       0.0000       0.1536       0.0000       0.7491
   10540.0    1264800       0.1183       0.0000       0.0000       0.2008       0.0000       0.7421
   10540.5    1264860       0.1222       0.0000       0.0000       0.2966       0.0000       0.7196
   10541.0    1264920       0.1129       0.0000       0.0000       0.1413       0.0000       0.7307
   10541.5    1264980       0.1079       0.0000       0.0000       0.1242       0.0000       0.6800
   10542.0    1265040       0.1080       0.0000       0.0000       0.1436       0.0000       0.6494
   10542.5    1265100       0.1236       0.0000       0.0000       0.7318       0.0000       0.5719
   10543.0    1265160       0.1234       0.0000       0.0000       2.4584       0.0000       0.5355
   10543.5    1265220       0.1205       0.0000       0.0000       5.3376       1.0000       0.4924
   10544.0    1265280       0.1214       0.0000       0.0000     103.6761       1.0000       0.4492
   10544.5    1265340       0.1177       0.0000       0.0000     119.2310       1.0000       0.4247
   10545.0    1265400       0.1166       0.0000       0.0000     163.0100       1.0000       0.4019
   10545.5    1265460       0.1131       0.0000       0.0000     172.4719       1.0000       0.4074
   10546.0    1265520       0.1109       0.0000       0.0000     128.4536       1.0000       0.4205
   10546.5    1265580       0.1119       0.0000       0.0000     195.4375       1.0000       0.4350
   10547.0    1265640       0.1117       0.0000       0.0000     212.4846       1.0000       0.4310
   10547.5    1265700       0.1122       0.0000       0.0000     245.7478       1.0000       0.4426
   10548.0    1265760       0.1106       0.0000       0.0000     127.1721       1.0000       0.4481
   10548.5    1265820       0.1116       0.0000       0.0000     113.4668       1.0000       0.4423
   10549.0    1265880       0.1083       0.0000       0.0000       8.8628       1.0000       0.4262
   10549.5    1265940       0.1047       0.0000       0.0000       6.0017       1.0000       0.4048
   10550.0    1266000       0.1066       0.0000       0.0000     135.0420       1.0000       0.3991
   10550.5    1266060       0.1004       0.0000       0.0000      11.1523       1.0000       0.3800
   10551.0    1266120       0.1069       0.0000       0.0000      92.6566       1.0000       0.3906
   10551.5    1266180       0.1056       0.0000       0.0000      64.7471       1.0000       0.3897
   10552.0    1266240       0.0976       0.0000       0.0000      54.8690       1.0000       0.3943
   10552.5    1266300       0.0951       0.0000       0.0000      39.8572       1.0000       0.3826
   10553.0    1266360       0.0932       0.0000       0.0000      26.0792       1.0000       0.3824
   10553.5    1266420       0.0938       0.0000       0.0000      25.8578       1.0000       0.3588
   10554.0    1266480       0.0883       0.0000       0.0000      14.6048       1.0000       0.3249
   10554.5    1266540       0.0771       0.0000       0.0000       6.0225       1.0000       0.3045
   10555.0    1266600       0.0666       0.0000       0.0000       0.8236       1.0000       0.3148
   10555.5    1266660       0.0605       1.0000       0.0000       0.2390       0.0000       0.3320
   10556.0    1266720       0.0545       1.0000       0.0000       0.0112       0.0000       0.3476
   10556.5    1266780       0.0542       1.0000       0.0000       0.0106       0.0000       0.3548
   10557.0    1266840       0.0717       1.0000       0.0000       0.0370       0.0000       0.3625
   10557.5    1266900       0.0791       0.0000       0.0000       0.8848       1.0000       0.3749
   10558.0    1266960       0.0831       0.0000       0.0000       1.6099       1.0000       0.3828
   10558.5    1267020       0.0876       0.0000       0.0000       1.4700       1.0000       0.4019
   10559.0    1267080       0.0841       0.0000       0.0000       0.1938       0.0000       0.4206
   10559.5    1267140       0.0933       0.0000       0.0000       1.9400       1.0000       0.4309
   10560.0    1267200       0.0941       0.0000       0.0000       0.1848       0.0000       0.4237
   10560.5    1267260       0.0953       0.0000       0.0000       2.2929       1.0000       0.4053
   10561.0    1267320       0.0862       0.0000       0.0000       2.7913       1.0000       0.4004
   10561.5    1267380       0.0807       0.0000       0.0000       2.7961       1.0000       0.3841
   10562.0    1267440       0.0746       0.0000       0.0000       1.5495       1.0000       0.3564
   10562.5    1267500       0.0712       0.0000       0.0000       0.6922       1.0000       0.3132
   10563.0    1267560       0.0649       0.0000       0.0000       0.3099       0.0000       0.2784
   10563.5    1267620       0.0605       1.0000       0.0000       0.1842       0.0000       0.2545
   10564.0    1267680       0.0555       1.0000       0.0000       0.0962       0.0000       0.2383
   10564.5    1267740       0.0553       1.0000       0.0000       0.0490       0.0000       0.2344
   10565.0    1267800       0.0581       1.0000       0.0000       0.0257       0.0000       0.2373
   10565.5    1267860       0.0595       1.0000       0.0000       0.0235       0.0000       0.2863
