~VERSION INFORMATION
VERS.           2.0   :CWLS Log ASCII Standard - VERSION 2.0
WRAP.           NO    :One Line per depth step
PROD.  Schlumberger   :LAS Producer
PROG.  DLIS to ASCII 2.3                               :LAS Program name and version
CREA.        2019/04/03 19:56                          :LAS Creation date {YYYY/MM/DD hh:mm}
DLIS_CREA.  2009-Feb-18 14:32                          :DLIS Creation date and time {YYYY-MMM-DD hh:mm}
SOURCE.     WLC_PETRO_COMPUTED_OUTPUT_1.DLIS           :DLIS File Name
FILE-ID.     OUTPUT.logdata                            :File Identification Number
#--------------------------------------------------
~WELL INFORMATION
#MNEM.UNIT      DATA             DESCRIPTION
#---- ------ --------------   -----------------------------
STRT .F          566.0       :START DEPTH     
STOP .F        12302.0       :STOP DEPTH     
STEP .F            0.5       :STEP     
NULL .          -999.25      :NULL VALUE
COMP .        STATOILHYDRO                             :COMPANY
WELL .        15/9-F-14                                :WELL
FLD  .        VOLVE                                    :FIELD
LOC  .                                                 :LOCATION
CNTY .        MAERSK INSPIRER                          :COUNTY
STAT .                                                 :STATE
CTRY .                                                 :COUNTRY
API  .                                                 :API NUMBER
UWI  .                                                 :UNIQUE WELL ID
DATE .                                                 :LOG DATE
SRVC .        CROCKER DATA PROCESSING                  :SERVICE COMPANY
LATI .DEG                                              :LATITUDE
LONG .DEG                                              :LONGITUDE
GDAT .                                                 :GeoDetic Datum
#-----------------------------------------------------------------------------
~PARAMETER INFORMATION
#MNEM.UNIT    VALUE                      DESCRIPTION
#---- -----   --------------------       ------------------------
CN   .        STATOILHYDRO               :Company
WN   .        15/9-F-14                  :Well Name
FN   .        VOLVE                      :Field
CTRY .        NORWAY                     :Country
COUN .        MAERSK INSPIRER            :County or Rig name
PDAT .        MSL                        :Perm. Datum
ELZ  .M          0.00000                 :Elev. Log Zero (wrt EPD)
SRVC .        UNKNOWN                    :Service company
R2   .        INPUT                      :R2
R4   .        INPUT                      :R4
RUN  .                                   :RUN NUMBER
EPD  .                                   :Elevation of Permanent Datum above Mean Sea Level
LMF  .                                   :Logging Measured From (Name of Logging Elevation Reference)
APD  .                                   :Elevation of Depth Reference (LMF) above Permanent Datum
#-----------------------------------------------------------------------------
~CURVE INFORMATION
#MNEM.UNIT   API CODE                                  DESCRIPTION
#---- -----  --------                                  -----------------------
DEPTH.F                                                :DEPTH (BOREHOLE) {F10.1}
DEPTH..1IN                                             :Measured Depth {I11}
BVW  .V/V_DECIMAL                                      :BVW:UNKNOWN:rC:NONE:v1 {F13.4}
CARB_FLAG.UNKNOWN                                      :CARB_FLAG:UNKNOWN:rC:NONE:v1 {F13.4}
COAL_FLAG.UNKNOWN                                      :COAL_FLAG:UNKNOWN:rC:NONE:v1 {F13.4}
KLOGH.MD                                               :KLOGH:UNKNOWN:rC:NONE:v1 {F13.4}
SAND_FLAG.UNKNOWN                                      :SAND_FLAG:UNKNOWN:rC:NONE:v1 {F13.4}
VSH  .V/V_DECIMAL                                      :VSH:UNKNOWN:rC:NONE:v1 {F13.4}
#-----------------------------------------------------------------------------
# 
#    DEPTH        DEPTH           BVW       CARB_FLAG    COAL_FLAG      KLOGH      SAND_FLAG       VSH
#
~A  
# ...
    9606.0    1152720       0.0228       0.0000       0.0000       0.0010       0.0000       0.1805
    9606.5    1152780       0.0240       0.0000       0.0000       0.0010       0.0000       0.1833
    9607.0    1152840       0.0269       0.0000       0.0000       0.0010       0.0000       0.1878
    9607.5    1152900       0.0228       0.0000       0.0000       0.0010       0.0000       0.1957
    9608.0    1152960       0.0191       0.0000       0.0000       0.0010       0.0000       0.2090
    9608.5    1153020       0.0119       0.0000       0.0000       0.0010       0.0000       0.2114
    9609.0    1153080       0.0125       0.0000       0.0000       0.0010       0.0000       0.2075
    9609.5    1153140       0.0081       0.0000       0.0000       0.0010       0.0000       0.2106
    9610.0    1153200       0.0161       0.0000       0.0000       0.0010       0.0000       0.2196
    9610.5    1153260       0.0165       0.0000       0.0000       0.0010       0.0000       0.2273
    9611.0    1153320       0.0192       0.0000       0.0000       0.0010       0.0000       0.2260
    9611.5    1153380       0.0233       0.0000       0.0000       0.0010       0.0000       0.2335
    9612.0    1153440       0.0285       0.0000       0.0000       0.0010       0.0000       0.2510
    9612.5    1153500       0.0310       0.0000       0.0000       0.0010       0.0000       0.2606
    9613.0    1153560       0.0288       0.0000       0.0000       0.0010       0.0000       0.2694
    9613.5    1153620       0.0251       0.0000       0.0000       0.0010       0.0000       0.2778
    9614.0    1153680       0.0271       0.0000       0.0000       0.0010       0.0000       0.2721
    9614.5    1153740       0.0272       0.0000       0.0000       0.0010       0.0000       0.2722
    9615.0    1153800       0.0298       0.0000       0.0000       0.0010       0.0000       0.2644
    9615.5    1153860       0.0190       0.0000       0.0000       0.0010       0.0000       0.2636
    9616.0    1153920       0.0105       0.0000       0.0000       0.0010       0.0000       0.2480
    9616.5    1153980       0.0032       0.0000       0.0000       0.0010       0.0000       0.2267
    9617.0    1154040       0.0081       0.0000       0.0000       0.0010       0.0000       0.2158
    9617.5    1154100       0.0057       0.0000       0.0000       0.0010       0.0000       0.2050
    9618.0    1154160       0.0018       0.0000       0.0000       0.0010       0.0000       0.1945
    9618.5    1154220       0.0017       0.0000       0.0000       0.0010       0.0000       0.1775
    9619.0    1154280       0.0015       0.0000       0.0000       0.0010       0.0000       0.1639
    9619.5    1154340       0.0044       0.0000       0.0000       0.0010       0.0000       0.1582
    9620.0    1154400       0.0088       0.0000       0.0000       0.0010       0.0000       0.1502
    9620.5    1154460       0.0057       0.0000       0.0000       0.0010       0.0000       0.1531
    9621.0    1154520       0.0076       0.0000       0.0000       0.0010       0.0000       0.1605
    9621.5    1154580       0.0092       0.0000       0.0000       0.0010       0.0000       0.1711
    9622.0    1154640       0.0128       0.0000       0.0000       0.0010       0.0000       0.1702
    9622.5    1154700       0.0139       0.0000       0.0000       0.0010       0.0000       0.1660
    9623.0    1154760       0.0131       0.0000       0.0000       0.0010       0.0000       0.1654
    9623.5    1154820       0.0083       0.0000       0.0000       0.0010       0.0000       0.1549
    9624.0    1154880       0.0068       0.0000       0.0000       0.0010       0.0000       0.1568
    9624.5    1154940       0.0054       0.0000       0.0000       0.0010       0.0000       0.1669
    9625.0    1155000       0.0039       0.0000       0.0000       0.0010       0.0000       0.1947
    9625.5    1155060       0.0167       0.0000       0.0000       0.0010       0.0000       0.2184
    9626.0    1155120       0.0187       0.0000       0.0000       0.0010       0.0000       0.2568
    9626.5    1155180       0.0225       0.0000       0.0000       0.0010       0.0000       0.3048
    9627.0    1155240       0.0287       0.0000       0.0000       0.0010       0.0000       0.3351
    9627.5    1155300       0.0342       0.0000       0.0000       0.0010       0.0000       0.3397
    9628.0    1155360       0.0357       0.0000       0.0000       0.0010       0.0000       0.3117
    9628.5    1155420       0.0331       0.0000       0.0000       0.0010       0.0000       0.2826
    9629.0    1155480       0.0395       0.0000       0.0000       0.0010       0.0000       0.2704
    9629.5    1155540       0.0437       0.0000       0.0000       0.0010       0.0000       0.2802
    9630.0    1155600       0.0519       0.0000       0.0000       0.0010       0.0000       0.3081
    9630.5    1155660       0.0499       0.0000       0.0000       0.0010       0.0000       0.3300
    9631.0    1155720       0.0535       0.0000       0.0000       0.0010       0.0000       0.3553
    9631.5    1155780       0.0500       0.0000       0.0000       0.0010       0.0000       0.3744
    9632.0    1155840       0.0500       0.0000       0.0000       0.0010       0.0000       0.3886
    9632.5    1155900       0.0520       0.0000       0.0000       0.0010       0.0000       0.3809
    9633.0    1155960       0.0550       0.0000       0.0000       0.0010       0.0000       0.3830
    9633.5    1156020       0.0495       0.0000       0.0000       0.0010       0.0000       0.3948
    9634.0    1156080       0.0429       0.0000       0.0000       0.0010       0.0000       0.4062
    9634.5    1156140       0.0397       0.0000       0.0000       0.0010       0.0000       0.3941
    9635.0    1156200       0.0403       0.0000       0.0000       0.0010       0.0000       0.3786
    9635.5    1156260       0.0406       0.0000       0.0000       0.0010       0.0000       0.3605
    9636.0    1156320       0.0439       0.0000       0.0000       0.0010       0.0000       0.3651
    9636.5    1156380       0.0458       0.0000       0.0000       0.0010       0.0000       0.3669
    9637.0    1156440       0.0437       0.0000       0.0000       0.0010       0.0000       0.3951
    9637.5    1156500       0.0388       0.0000       0.0000       0.0010       0.0000       0.3993
    9638.0    1156560       0.0442       0.0000       0.0000       0.0010       0.0000       0.3988
    9638.5    1156620       0.0451       0.0000       0.0000       0.0010       0.0000       0.3818
    9639.0    1156680       0.0496       0.0000       0.0000       0.0010       0.0000       0.3703
    9639.5    1156740       0.0393       0.0000       0.0000       0.0010       0.0000       0.3795
    9640.0    1156800       0.0413       0.0000       0.0000       0.0010       0.0000       0.3797
    9640.5    1156860       0.0433       0.0000       0.0000       0.0010       0.0000       0.3852
    9641.0    1156920       0.0535       0.0000       0.0000       0.0010       0.0000       0.3823
    9641.5    1156980       0.0569       0.0000       0.0000       0.0010       0.0000       0.4099
    9642.0    1157040       0.0504       0.0000       0.0000       0.0010       0.0000       0.4353
    9642.5    1157100       0.0433       0.0000       0.0000       0.0010       0.0000       0.4368
    9643.0    1157160       0.0419       0.0000       0.0000       0.0010       0.0000       0.4148
    9643.5    1157220       0.0413       0.0000       0.0000       0.0010       0.0000       0.3910
    9644.0    1157280       0.0436       0.0000       0.0000       0.0010       0.0000       0.3808
    9644.5    1157340       0.0408       0.0000       0.0000       0.0010       0.0000       0.3694
    9645.0    1157400       0.0415       0.0000       0.0000       0.0010       0.0000       0.3733
    9645.5    1157460       0.0368       0.0000       0.0000       0.0010       0.0000       0.3624
