~VERSION INFORMATION
VERS.           2.0   :CWLS Log ASCII Standard - VERSION 2.0
WRAP.           NO    :One Line per depth step
PROD.  Schlumberger   :LAS Producer
PROG.  DLIS to ASCII 2.3                               :LAS Program name and version
CREA.        2019/04/03 19:56                          :LAS Creation date {YYYY/MM/DD hh:mm}
DLIS_CREA.  2009-Feb-18 14:32                          :DLIS Creation date and time {YYYY-MMM-DD hh:mm}
SOURCE.     WLC_PETRO_COMPUTED_OUTPUT_1.DLIS           :DLIS File Name
FILE-ID.     OUTPUT.logdata                            :File Identification Number
#--------------------------------------------------
~WELL INFORMATION
#MNEM.UNIT      DATA             DESCRIPTION
#---- ------ --------------   -----------------------------
STRT .F          566.0       :START DEPTH     
STOP .F        12302.0       :STOP DEPTH     
STEP .F            0.5       :STEP     
NULL .          -999.25      :NULL VALUE
COMP .        STATOILHYDRO                             :COMPANY
WELL .        15/9-F-14                                :WELL
FLD  .        VOLVE                                    :FIELD
LOC  .                                                 :LOCATION
CNTY .        MAERSK INSPIRER                          :COUNTY
STAT .                                                 :STATE
CTRY .                                                 :COUNTRY
API  .                                                 :API NUMBER
UWI  .                                                 :UNIQUE WELL ID
DATE .                                                 :LOG DATE
SRVC .        CROCKER DATA PROCESSING                  :SERVICE COMPANY
LATI .DEG                                              :LATITUDE
LONG .DEG                                              :LONGITUDE
GDAT .                                                 :GeoDetic Datum
#-----------------------------------------------------------------------------
~PARAMETER INFORMATION
#MNEM.UNIT    VALUE                      DESCRIPTION
#---- -----   --------------------       ------------------------
CN   .        STATOILHYDRO               :Company
WN   .        15/9-F-14                  :Well Name
FN   .        VOLVE                      :Field
CTRY .        NORWAY                     :Country
COUN .        MAERSK INSPIRER            :County or Rig name
PDAT .        MSL                        :Perm. Datum
ELZ  .M          0.00000                 :Elev. Log Zero (wrt EPD)
SRVC .        UNKNOWN                    :Service company
R2   .        INPUT                      :R2
R4   .        INPUT                      :R4
RUN  .                                   :RUN NUMBER
EPD  .                                   :Elevation of Permanent Datum above Mean Sea Level
LMF  .                                   :Logging Measured From (Name of Logging Elevation Reference)
APD  .                                   :Elevation of Depth Reference (LMF) above Permanent Datum
#-----------------------------------------------------------------------------
~CURVE INFORMATION
#MNEM.UNIT   API CODE                                  DESCRIPTION
#---- -----  --------                                  -----------------------
DEPTH.F                                                :DEPTH (BOREHOLE) {F10.1}
DEPTH..1IN                                             :Measured Depth {I11}
BVW  .V/V_DECIMAL                                      :BVW:UNKNOWN:rC:NONE:v1 {F13.4}
CARB_FLAG.UNKNOWN                                      :CARB_FLAG:UNKNOWN:rC:NONE:v1 {F13.4}
COAL_FLAG.UNKNOWN                                      :COAL_FLAG:UNKNOWN:rC:NONE:v1 {F13.4}
KLOGH.MD                                               :KLOGH:UNKNOWN:rC:NONE:v1 {F13.4}
SAND_FLAG.UNKNOWN                                      :SAND_FLAG:UNKNOWN:rC:NONE:v1 {F13.4}
VSH  .V/V_DECIMAL                                      :VSH:UNKNOWN:rC:NONE:v1 {F13.4}
#-----------------------------------------------------------------------------
# 
#    DEPTH        DEPTH           BVW       CARB_FLAG    COAL_FLAG      KLOGH      SAND_FLAG       VSH
#
~A  
# ...
    9766.0    1171920       0.0314       0.0000       0.0000       0.0010       0.0000       0.5557
    9766.5    1171980       0.0302       0.0000       0.0000       0.0010       0.0000       0.5448
    9767.0    1172040       0.0323       0.0000       0.0000       0.0010       0.0000       0.5298
    9767.5    1172100       0.0330       0.0000       0.0000       0.0010       0.0000       0.5070
    9768.0    1172160       0.0295       0.0000       0.0000       0.0010       0.0000       0.4810
    9768.5    1172220       0.0220       0.0000       0.0000       0.0010       0.0000       0.4607
    9769.0    1172280       0.0170       0.0000       0.0000       0.0010       0.0000       0.4332
    9769.5    1172340       0.0166       0.0000       0.0000       0.0010       0.0000       0.4309
    9770.0    1172400       0.0159       0.0000       0.0000       0.0010       0.0000       0.4473
    9770.5    1172460       0.0107       0.0000       0.0000       0.0010       0.0000       0.4908
    9771.0    1172520       0.0059       0.0000       0.0000       0.0010       0.0000       0.5517
    9771.5    1172580       0.0010       0.0000       0.0000       0.0010       0.0000       0.7210
    9772.0    1172640       0.0246       0.0000       0.0000       0.0010       0.0000       1.0000
    9772.5    1172700       0.0669       0.0000       0.0000       0.0010       0.0000       1.0000
    9773.0    1172760       0.0805       0.0000       0.0000       0.0010       0.0000       1.0000
    9773.5    1172820       0.0906       0.0000       0.0000       0.0010       0.0000       1.0000
    9774.0    1172880       0.0988       0.0000       0.0000       0.0010       0.0000       1.0000
    9774.5    1172940       0.0972       0.0000       0.0000       0.0010       0.0000       1.0000
    9775.0    1173000       0.1025       0.0000       0.0000       0.0010       0.0000       1.0000
    9775.5    1173060       0.1134       0.0000       0.0000       0.0010       0.0000       1.0000
    9776.0    1173120       0.1132       0.0000       0.0000       0.0010       0.0000       1.0000
    9776.5    1173180       0.1178       0.0000       0.0000       0.0010       0.0000       1.0000
    9777.0    1173240       0.1116       0.0000       0.0000       0.0010       0.0000       1.0000
    9777.5    1173300       0.1036       0.0000       0.0000       0.0010       0.0000       1.0000
    9778.0    1173360       0.0964       0.0000       0.0000       0.0010       0.0000       1.0000
    9778.5    1173420       0.1010       0.0000       0.0000       0.0010       0.0000       1.0000
    9779.0    1173480       0.1081       0.0000       0.0000       0.0010       0.0000       1.0000
    9779.5    1173540       0.0995       0.0000       0.0000       0.0010       0.0000       1.0000
    9780.0    1173600       0.0899       0.0000       0.0000       0.0010       0.0000       1.0000
    9780.5    1173660       0.0905       0.0000       0.0000       0.0010       0.0000       0.9883
    9781.0    1173720       0.0933       0.0000       0.0000       0.0010       0.0000       0.9686
    9781.5    1173780       0.0870       0.0000       0.0000       0.0010       0.0000       0.9532
    9782.0    1173840       0.0776       0.0000       0.0000       0.0010       0.0000       0.9462
    9782.5    1173900       0.0704       0.0000       0.0000       0.0010       0.0000       0.9225
    9783.0    1173960       0.0566       0.0000       0.0000       0.0010       0.0000       0.9045
    9783.5    1174020       0.0508       0.0000       0.0000       0.0010       0.0000       0.8745
    9784.0    1174080       0.0537       0.0000       0.0000       0.0010       0.0000       0.8551
    9784.5    1174140       0.0673       0.0000       0.0000       0.0010       0.0000       0.8224
    9785.0    1174200       0.0737       0.0000       0.0000       0.0010       0.0000       0.8020
    9785.5    1174260       0.0760       0.0000       0.0000       0.0010       0.0000       0.8078
    9786.0    1174320       0.0648       0.0000       0.0000       0.0010       0.0000       0.8289
    9786.5    1174380       0.0614       0.0000       0.0000       0.0010       0.0000       0.8249
    9787.0    1174440       0.0597       0.0000       0.0000       0.0010       0.0000       0.8372
    9787.5    1174500       0.0679       0.0000       0.0000       0.0010       0.0000       0.8221
    9788.0    1174560       0.0566       0.0000       0.0000       0.0010       0.0000       0.8250
    9788.5    1174620       0.0502       0.0000       0.0000       0.0010       0.0000       0.8143
    9789.0    1174680       0.0511       0.0000       0.0000       0.0010       0.0000       0.8305
    9789.5    1174740       0.0597       0.0000       0.0000       0.0010       0.0000       0.8378
    9790.0    1174800       0.0617       0.0000       0.0000       0.0010       0.0000       0.8096
    9790.5    1174860       0.0526       0.0000       0.0000       0.0010       0.0000       0.7834
    9791.0    1174920       0.0396       0.0000       0.0000       0.0010       0.0000       0.7641
    9791.5    1174980       0.0154       0.0000       0.0000       0.0010       0.0000       0.7678
    9792.0    1175040       0.0099       0.0000       0.0000       0.0010       0.0000       0.7503
    9792.5    1175100       0.0102       0.0000       0.0000       0.0010       0.0000       0.7451
    9793.0    1175160       0.0281       0.0000       0.0000       0.0010       0.0000       0.7138
    9793.5    1175220       0.0302       0.0000       0.0000       0.0010       0.0000       0.7014
    9794.0    1175280       0.0280       0.0000       0.0000       0.0010       0.0000       0.6786
    9794.5    1175340       0.0296       0.0000       0.0000       0.0010       0.0000       0.6933
    9795.0    1175400       0.0371       0.0000       0.0000       0.0010       0.0000       0.7026
    9795.5    1175460       0.0479       0.0000       0.0000       0.0010       0.0000       0.6924
    9796.0    1175520       0.0572       0.0000       0.0000       0.0010       0.0000       0.6809
    9796.5    1175580       0.0624       0.0000       0.0000       0.0010       0.0000       0.6881
    9797.0    1175640       0.0587       0.0000       0.0000       0.0010       0.0000       0.7101
    9797.5    1175700       0.0574       0.0000       0.0000       0.0010       0.0000       0.7132
    9798.0    1175760       0.0577       0.0000       0.0000       0.0010       0.0000       0.6959
    9798.5    1175820       0.0645       0.0000       0.0000       0.0010       0.0000       0.6900
    9799.0    1175880       0.0596       0.0000       0.0000       0.0010       0.0000       0.7017
    9799.5    1175940       0.0412       0.0000       0.0000       0.0010       0.0000       0.6945
    9800.0    1176000       0.0277       0.0000       0.0000       0.0010       0.0000       0.7033
    9800.5    1176060       0.0412       0.0000       0.0000       0.0010       0.0000       0.7025
    9801.0    1176120       0.0345       0.0000       0.0000       0.0010       0.0000       0.7221
    9801.5    1176180       0.0413       0.0000       0.0000       0.0010       0.0000       0.7241
    9802.0    1176240       0.0131       0.0000       0.0000       0.0010       0.0000       0.7089
    9802.5    1176300       0.0010       0.0000       0.0000       0.0010       0.0000       0.6921
    9803.0    1176360       0.0046       0.0000       0.0000       0.0010       0.0000       0.6950
    9803.5    1176420       0.0081       0.0000       0.0000       0.0010       0.0000       0.7489
    9804.0    1176480       0.0502       0.0000       0.0000       0.0010       0.0000       0.8215
    9804.5    1176540       0.0675       0.0000       0.0000       0.0010       0.0000       0.8747
    9805.0    1176600       0.0485       0.0000       0.0000       0.0010       0.0000       0.8742
    9805.5    1176660       0.0463       0.0000       0.0000       0.0010       0.0000       0.8369
