~VERSION INFORMATION
VERS.           2.0   :CWLS Log ASCII Standard - VERSION 2.0
WRAP.           NO    :One Line per depth step
PROD.  Schlumberger   :LAS Producer
PROG.  DLIS to ASCII 2.3                               :LAS Program name and version
CREA.        2019/04/03 19:56                          :LAS Creation date {YYYY/MM/DD hh:mm}
DLIS_CREA.  2009-Feb-18 14:32                          :DLIS Creation date and time {YYYY-MMM-DD hh:mm}
SOURCE.     WLC_PETRO_COMPUTED_OUTPUT_1.DLIS           :DLIS File Name
FILE-ID.     OUTPUT.logdata                            :File Identification Number
#--------------------------------------------------
~WELL INFORMATION
#MNEM.UNIT      DATA             DESCRIPTION
#---- ------ --------------   -----------------------------
STRT .F          566.0       :START DEPTH     
STOP .F        12302.0       :STOP DEPTH     
STEP .F            0.5       :STEP     
NULL .          -999.25      :NULL VALUE
COMP .        STATOILHYDRO                             :COMPANY
WELL .        15/9-F-14                                :WELL
FLD  .        VOLVE                                    :FIELD
LOC  .                                                 :LOCATION
CNTY .        MAERSK INSPIRER                          :COUNTY
STAT .                                                 :STATE
CTRY .                                                 :COUNTRY
API  .                                                 :API NUMBER
UWI  .                                                 :UNIQUE WELL ID
DATE .                                                 :LOG DATE
SRVC .        CROCKER DATA PROCESSING                  :SERVICE COMPANY
LATI .DEG                                              :LATITUDE
LONG .DEG                                              :LONGITUDE
GDAT .                                                 :GeoDetic Datum
#-----------------------------------------------------------------------------
~PARAMETER INFORMATION
#MNEM.UNIT    VALUE                      DESCRIPTION
#---- -----   --------------------       ------------------------
CN   .        STATOILHYDRO               :Company
WN   .        15/9-F-14                  :Well Name
FN   .        VOLVE                      :Field
CTRY .        NORWAY                     :Country
COUN .        MAERSK INSPIRER            :County or Rig name
PDAT .        MSL                        :Perm. Datum
ELZ  .M          0.00000                 :Elev. Log Zero (wrt EPD)
SRVC .        UNKNOWN                    :Service company
R2   .        INPUT                      :R2
R4   .        INPUT                      :R4
RUN  .                                   :RUN NUMBER
EPD  .                                   :Elevation of Permanent Datum above Mean Sea Level
LMF  .                                   :Logging Measured From (Name of Logging Elevation Reference)
APD  .                                   :Elevation of Depth Reference (LMF) above Permanent Datum
#-----------------------------------------------------------------------------
~CURVE INFORMATION
#MNEM.UNIT   API CODE                                  DESCRIPTION
#---- -----  --------                                  -----------------------
DEPTH.F                                                :DEPTH (BOREHOLE) {F10.1}
DEPTH..1IN                                             :Measured Depth {I11}
BVW  .V/V_DECIMAL                                      :BVW:UNKNOWN:rC:NONE:v1 {F13.4}
CARB_FLAG.UNKNOWN                                      :CARB_FLAG:UNKNOWN:rC:NONE:v1 {F13.4}
COAL_FLAG.UNKNOWN                                      :COAL_FLAG:UNKNOWN:rC:NONE:v1 {F13.4}
KLOGH.MD                                               :KLOGH:UNKNOWN:rC:NONE:v1 {F13.4}
SAND_FLAG.UNKNOWN                                      :SAND_FLAG:UNKNOWN:rC:NONE:v1 {F13.4}
VSH  .V/V_DECIMAL                                      :VSH:UNKNOWN:rC:NONE:v1 {F13.4}
#-----------------------------------------------------------------------------
# 
#    DEPTH        DEPTH           BVW       CARB_FLAG    COAL_FLAG      KLOGH      SAND_FLAG       VSH
#
~A  
# ...
   10726.0    1287120       0.0702       0.0000       0.0000      10.0924       1.0000       0.2651
   10726.5    1287180       0.0700       0.0000       0.0000       3.5175       1.0000       0.2606
   10727.0    1287240       0.0695       0.0000       0.0000       2.4848       1.0000       0.2484
   10727.5    1287300       0.0667       1.0000       0.0000       1.0552       0.0000       0.2331
   10728.0    1287360       0.0645       1.0000       0.0000       0.5586       0.0000       0.2249
   10728.5    1287420       0.0634       1.0000       0.0000       0.4293       0.0000       0.2371
   10729.0    1287480       0.0634       1.0000       0.0000       0.3508       0.0000       0.2433
   10729.5    1287540       0.0636       1.0000       0.0000       0.3919       0.0000       0.2476
   10730.0    1287600       0.0647       1.0000       0.0000       0.7614       0.0000       0.2373
   10730.5    1287660       0.0661       0.0000       0.0000       2.0391       1.0000       0.2380
   10731.0    1287720       0.0673       0.0000       0.0000       3.1725       1.0000       0.2302
   10731.5    1287780       0.0675       0.0000       0.0000       2.7170       1.0000       0.2307
   10732.0    1287840       0.0683       0.0000       0.0000       1.8517       1.0000       0.2264
   10732.5    1287900       0.0690       0.0000       0.0000       1.2573       1.0000       0.2378
   10733.0    1287960       0.0698       0.0000       0.0000       1.6489       1.0000       0.2577
   10733.5    1288020       0.0705       0.0000       0.0000       1.7449       1.0000       0.2801
   10734.0    1288080       0.0709       0.0000       0.0000       1.8397       1.0000       0.2760
   10734.5    1288140       0.0709       0.0000       0.0000       1.4962       1.0000       0.2606
   10735.0    1288200       0.0709       0.0000       0.0000       1.9563       1.0000       0.2539
   10735.5    1288260       0.0717       0.0000       0.0000       1.3593       1.0000       0.2750
   10736.0    1288320       0.0724       0.0000       0.0000       2.0624       1.0000       0.2795
   10736.5    1288380       0.0726       0.0000       0.0000       2.5692       1.0000       0.2618
   10737.0    1288440       0.0720       0.0000       0.0000       2.5434       1.0000       0.2503
   10737.5    1288500       0.0734       0.0000       0.0000       3.4044       1.0000       0.2406
   10738.0    1288560       0.0748       0.0000       0.0000       3.8810       1.0000       0.2586
   10738.5    1288620       0.0731       0.0000       0.0000       4.5868       1.0000       0.2561
   10739.0    1288680       0.0722       0.0000       0.0000       5.5397       1.0000       0.2708
   10739.5    1288740       0.0715       0.0000       0.0000       4.3216       1.0000       0.2793
   10740.0    1288800       0.0725       0.0000       0.0000       3.3248       1.0000       0.2970
   10740.5    1288860       0.0745       0.0000       0.0000       2.7502       1.0000       0.3113
   10741.0    1288920       0.0721       0.0000       0.0000       2.4524       1.0000       0.3118
   10741.5    1288980       0.0663       0.0000       0.0000       2.6219       1.0000       0.3194
   10742.0    1289040       0.0666       0.0000       0.0000       2.7398       1.0000       0.3292
   10742.5    1289100       0.0670       0.0000       0.0000       2.5947       1.0000       0.3369
   10743.0    1289160       0.0688       0.0000       0.0000       2.4740       1.0000       0.3300
   10743.5    1289220       0.0669       0.0000       0.0000       0.4579       1.0000       0.3281
   10744.0    1289280       0.0712       0.0000       0.0000       1.1622       1.0000       0.3206
   10744.5    1289340       0.0779       0.0000       0.0000      32.3635       1.0000       0.3190
   10745.0    1289400       0.0874       0.0000       0.0000      39.8314       1.0000       0.3152
   10745.5    1289460       0.0898       0.0000       0.0000      55.4955       1.0000       0.3280
   10746.0    1289520       0.0969       0.0000       0.0000      87.5291       1.0000       0.3312
   10746.5    1289580       0.1003       0.0000       0.0000     170.7716       1.0000       0.3370
   10747.0    1289640       0.1060       0.0000       0.0000     180.1843       1.0000       0.3407
   10747.5    1289700       0.1102       0.0000       0.0000     108.1084       1.0000       0.3555
   10748.0    1289760       0.1136       0.0000       0.0000     172.6931       1.0000       0.3645
   10748.5    1289820       0.1155       0.0000       0.0000     169.9035       1.0000       0.3598
   10749.0    1289880       0.1153       0.0000       0.0000     139.1186       1.0000       0.3506
   10749.5    1289940       0.1164       0.0000       0.0000     125.0029       1.0000       0.3467
   10750.0    1290000       0.1150       0.0000       0.0000     131.2772       1.0000       0.3615
   10750.5    1290060       0.1195       0.0000       0.0000     122.4533       1.0000       0.3823
   10751.0    1290120       0.1089       0.0000       0.0000      96.6777       1.0000       0.3911
   10751.5    1290180       0.1068       0.0000       0.0000      54.6918       1.0000       0.3926
   10752.0    1290240       0.1061       0.0000       0.0000     111.7214       1.0000       0.3989
   10752.5    1290300       0.1002       0.0000       0.0000      53.5830       1.0000       0.4191
   10753.0    1290360       0.0993       0.0000       0.0000      54.6854       1.0000       0.4313
   10753.5    1290420       0.1022       0.0000       0.0000      96.9418       1.0000       0.4162
   10754.0    1290480       0.1046       0.0000       0.0000      86.8019       1.0000       0.3895
   10754.5    1290540       0.1093       0.0000       0.0000      63.9407       1.0000       0.3653
   10755.0    1290600       0.1048       0.0000       0.0000      39.6370       1.0000       0.3558
   10755.5    1290660       0.1033       0.0000       0.0000       5.5770       1.0000       0.3385
   10756.0    1290720       0.1079       0.0000       0.0000     273.6467       1.0000       0.3167
   10756.5    1290780       0.1073       0.0000       0.0000    1257.2430       1.0000       0.2896
   10757.0    1290840       0.1102       0.0000       0.0000    6747.4878       1.0000       0.2704
   10757.5    1290900       0.1108       0.0000       0.0000   10000.0000       1.0000       0.2685
   10758.0    1290960       0.1113       0.0000       0.0000   10000.0000       1.0000       0.2661
   10758.5    1291020       0.1123       0.0000       0.0000   10000.0000       1.0000       0.2671
   10759.0    1291080       0.1113       0.0000       0.0000   10000.0000       1.0000       0.2706
   10759.5    1291140       0.1123       0.0000       0.0000   10000.0000       1.0000       0.2736
   10760.0    1291200       0.1107       0.0000       0.0000   10000.0000       1.0000       0.2802
   10760.5    1291260       0.1110       0.0000       0.0000   10000.0000       1.0000       0.2746
   10761.0    1291320       0.1117       0.0000       0.0000   10000.0000       1.0000       0.2845
   10761.5    1291380       0.1109       0.0000       0.0000    9269.9209       1.0000       0.2836
   10762.0    1291440       0.1111       0.0000       0.0000   10000.0000       1.0000       0.3035
   10762.5    1291500       0.1116       0.0000       0.0000   10000.0000       1.0000       0.3110
   10763.0    1291560       0.1118       0.0000       0.0000   10000.0000       1.0000       0.3098
   10763.5    1291620       0.1111       0.0000       0.0000    9605.7949       1.0000       0.3179
   10764.0    1291680       0.1101       0.0000       0.0000    6840.9248       1.0000       0.3229
   10764.5    1291740       0.1095       0.0000       0.0000    4383.1279       1.0000       0.3406
   10765.0    1291800       0.1087       0.0000       0.0000    2801.5310       1.0000       0.3357
   10765.5    1291860       0.1091       0.0000       0.0000    1752.8960       1.0000       0.3378
