~VERSION INFORMATION
VERS.           2.0   :CWLS Log ASCII Standard - VERSION 2.0
WRAP.           NO    :One Line per depth step
PROD.  Schlumberger   :LAS Producer
PROG.  DLIS to ASCII 2.3                               :LAS Program name and version
CREA.        2019/04/03 19:56                          :LAS Creation date {YYYY/MM/DD hh:mm}
DLIS_CREA.  2009-Feb-18 14:32                          :DLIS Creation date and time {YYYY-MMM-DD hh:mm}
SOURCE.     WLC_PETRO_COMPUTED_OUTPUT_1.DLIS           :DLIS File Name
FILE-ID.     OUTPUT.logdata                            :File Identification Number
#--------------------------------------------------
~WELL INFORMATION
#MNEM.UNIT      DATA             DESCRIPTION
#---- ------ --------------   -----------------------------
STRT .F          566.0       :START DEPTH     
STOP .F        12302.0       :STOP DEPTH     
STEP .F            0.5       :STEP     
NULL .          -999.25      :NULL VALUE
COMP .        STATOILHYDRO                             :COMPANY
WELL .        15/9-F-14                                :WELL
FLD  .        VOLVE                                    :FIELD
LOC  .                                                 :LOCATION
CNTY .        MAERSK INSPIRER                          :COUNTY
STAT .                                                 :STATE
CTRY .                                                 :COUNTRY
API  .                                                 :API NUMBER
UWI  .                                                 :UNIQUE WELL ID
DATE .                                                 :LOG DATE
SRVC .        CROCKER DATA PROCESSING                  :SERVICE COMPANY
LATI .DEG                                              :LATITUDE
LONG .DEG                                              :LONGITUDE
GDAT .                                                 :GeoDetic Datum
#-----------------------------------------------------------------------------
~PARAMETER INFORMATION
#MNEM.UNIT    VALUE                      DESCRIPTION
#---- -----   --------------------       ------------------------
CN   .        STATOILHYDRO               :Company
WN   .        15/9-F-14                  :Well Name
FN   .        VOLVE                      :Field
CTRY .        NORWAY                     :Country
COUN .        MAERSK INSPIRER            :County or Rig name
PDAT .        MSL                        :Perm. Datum
ELZ  .M          0.00000                 :Elev. Log Zero (wrt EPD)
SRVC .        UNKNOWN                    :Service company
R2   .        INPUT                      :R2
R4   .        INPUT                      :R4
RUN  .                                   :RUN NUMBER
EPD  .                                   :Elevation of Permanent Datum above Mean Sea Level
LMF  .                                   :Logging Measured From (Name of Logging Elevation Reference)
APD  .                                   :Elevation of Depth Reference (LMF) above Permanent Datum
#-----------------------------------------------------------------------------
~CURVE INFORMATION
#MNEM.UNIT   API CODE                                  DESCRIPTION
#---- -----  --------                                  -----------------------
DEPTH.F                                                :DEPTH (BOREHOLE) {F10.1}
DEPTH..1IN                                             :Measured Depth {I11}
BVW  .V/V_DECIMAL                                      :BVW:UNKNOWN:rC:NONE:v1 {F13.4}
CARB_FLAG.UNKNOWN                                      :CARB_FLAG:UNKNOWN:rC:NONE:v1 {F13.4}
COAL_FLAG.UNKNOWN                                      :COAL_FLAG:UNKNOWN:rC:NONE:v1 {F13.4}
KLOGH.MD                                               :KLOGH:UNKNOWN:rC:NONE:v1 {F13.4}
SAND_FLAG.UNKNOWN                                      :SAND_FLAG:UNKNOWN:rC:NONE:v1 {F13.4}
VSH  .V/V_DECIMAL                                      :VSH:UNKNOWN:rC:NONE:v1 {F13.4}
#-----------------------------------------------------------------------------
# 
#    DEPTH        DEPTH           BVW       CARB_FLAG    COAL_FLAG      KLOGH      SAND_FLAG       VSH
#
~A  
# ...
   11286.0    1354320       0.0373       0.0000       0.0000       3.7419       1.0000       0.3419
   11286.5    1354380       0.0373       0.0000       0.0000       4.1591       1.0000       0.3441
   11287.0    1354440       0.0374       0.0000       0.0000       6.1034       1.0000       0.3308
   11287.5    1354500       0.0371       0.0000       0.0000       8.5480       1.0000       0.3149
   11288.0    1354560       0.0371       0.0000       0.0000       8.0842       1.0000       0.3183
   11288.5    1354620       0.0374       0.0000       0.0000       6.8114       1.0000       0.3255
   11289.0    1354680       0.0374       0.0000       0.0000       5.6394       1.0000       0.3403
   11289.5    1354740       0.0372       0.0000       0.0000       5.7356       1.0000       0.3367
   11290.0    1354800       0.0375       0.0000       0.0000       5.7699       1.0000       0.3408
   11290.5    1354860       0.0377       0.0000       0.0000       6.5889       1.0000       0.3376
   11291.0    1354920       0.0377       0.0000       0.0000       5.5270       1.0000       0.3412
   11291.5    1354980       0.0377       0.0000       0.0000       4.5459       1.0000       0.3484
   11292.0    1355040       0.0376       0.0000       0.0000       4.9643       1.0000       0.3409
   11292.5    1355100       0.0377       0.0000       0.0000       6.0040       1.0000       0.3296
   11293.0    1355160       0.0378       0.0000       0.0000      11.0722       1.0000       0.3034
   11293.5    1355220       0.0378       0.0000       0.0000      11.0475       1.0000       0.3044
   11294.0    1355280       0.0375       0.0000       0.0000      11.3889       1.0000       0.2972
   11294.5    1355340       0.0376       0.0000       0.0000       9.6636       1.0000       0.3029
   11295.0    1355400       0.0374       0.0000       0.0000       7.2642       1.0000       0.3133
   11295.5    1355460       0.0374       0.0000       0.0000       5.2769       1.0000       0.3341
   11296.0    1355520       0.0378       0.0000       0.0000       3.1480       1.0000       0.3610
   11296.5    1355580       0.0378       0.0000       0.0000       2.9517       1.0000       0.3659
   11297.0    1355640       0.0379       0.0000       0.0000       2.6996       1.0000       0.3757
   11297.5    1355700       0.0377       0.0000       0.0000       3.1473       1.0000       0.3711
   11298.0    1355760       0.0381       0.0000       0.0000       3.0959       1.0000       0.3724
   11298.5    1355820       0.0377       0.0000       0.0000       3.3477       1.0000       0.3683
   11299.0    1355880       0.0378       0.0000       0.0000       3.0875       1.0000       0.3732
   11299.5    1355940       0.0376       0.0000       0.0000       2.3261       1.0000       0.3869
   11300.0    1356000       0.0375       0.0000       0.0000       2.1740       1.0000       0.3899
   11300.5    1356060       0.0379       0.0000       0.0000       2.1369       1.0000       0.3874
   11301.0    1356120       0.0371       0.0000       0.0000       2.1042       1.0000       0.3842
   11301.5    1356180       0.0372       0.0000       0.0000       1.6578       1.0000       0.3911
   11302.0    1356240       0.0371       0.0000       0.0000       1.0174       1.0000       0.4119
   11302.5    1356300       0.0377       0.0000       0.0000       0.5573       1.0000       0.4433
   11303.0    1356360       0.0380       0.0000       0.0000       0.4454       1.0000       0.4679
   11303.5    1356420       0.0389       0.0000       0.0000       0.4464       1.0000       0.4804
   11304.0    1356480       0.0389       0.0000       0.0000       0.3857       1.0000       0.4826
   11304.5    1356540       0.0396       0.0000       0.0000       0.3338       1.0000       0.4948
   11305.0    1356600       0.0397       0.0000       0.0000       0.3986       1.0000       0.4830
   11305.5    1356660       0.0391       0.0000       0.0000       0.5259       1.0000       0.4650
   11306.0    1356720       0.0390       0.0000       0.0000       0.7877       1.0000       0.4409
   11306.5    1356780       0.0393       0.0000       0.0000       0.9964       1.0000       0.4303
   11307.0    1356840       0.0386       0.0000       0.0000       1.3801       1.0000       0.4076
   11307.5    1356900       0.0388       0.0000       0.0000       1.8162       1.0000       0.3903
   11308.0    1356960       0.0381       0.0000       0.0000       3.8231       1.0000       0.3526
   11308.5    1357020       0.0382       0.0000       0.0000       6.3987       1.0000       0.3217
   11309.0    1357080       0.0380       0.0000       0.0000      16.1086       1.0000       0.2815
   11309.5    1357140       0.0377       0.0000       0.0000      19.8984       1.0000       0.2742
   11310.0    1357200       0.0377       0.0000       0.0000      27.9087       1.0000       0.2607
   11310.5    1357260       0.0376       0.0000       0.0000      31.0248       1.0000       0.2548
   11311.0    1357320       0.0378       0.0000       0.0000      22.0044       1.0000       0.2694
   11311.5    1357380       0.0377       0.0000       0.0000      18.7849       1.0000       0.2748
   11312.0    1357440       0.0377       0.0000       0.0000      15.5535       1.0000       0.2836
   11312.5    1357500       0.0387       0.0000       0.0000      31.1421       1.0000       0.2546
   11313.0    1357560       0.0385       0.0000       0.0000      35.4906       1.0000       0.2516
   11313.5    1357620       0.0387       0.0000       0.0000      36.3738       1.0000       0.2490
   11314.0    1357680       0.0388       0.0000       0.0000      24.8946       1.0000       0.2683
   11314.5    1357740       0.0388       0.0000       0.0000      19.6435       1.0000       0.2778
   11315.0    1357800       0.0392       0.0000       0.0000      24.3211       1.0000       0.2701
   11315.5    1357860       0.0388       0.0000       0.0000      27.2164       1.0000       0.2626
   11316.0    1357920       0.0385       0.0000       0.0000      24.0003       1.0000       0.2643
   11316.5    1357980       0.0382       0.0000       0.0000      14.1653       1.0000       0.2883
   11317.0    1358040       0.0384       0.0000       0.0000       7.5135       1.0000       0.3213
   11317.5    1358100       0.0383       0.0000       0.0000       3.5037       1.0000       0.3528
   11318.0    1358160       0.0389       0.0000       0.0000       1.3936       1.0000       0.3932
   11318.5    1358220       0.0392       0.0000       0.0000       0.7047       1.0000       0.4253
   11319.0    1358280       0.0396       0.0000       0.0000       0.3270       1.0000       0.4605
   11319.5    1358340       0.0402       0.0000       0.0000       0.2829       1.0000       0.4715
   11320.0    1358400       0.0408       0.0000       0.0000       0.1730       0.0000       0.5014
   11320.5    1358460       0.0416       0.0000       0.0000       0.1070       0.0000       0.5284
   11321.0    1358520       0.0423       0.0000       0.0000       0.0645       0.0000       0.5609
   11321.5    1358580       0.0424       0.0000       0.0000       0.0485       0.0000       0.5717
   11322.0    1358640       0.0425       0.0000       0.0000       0.0403       0.0000       0.5839
   11322.5    1358700       0.0427       0.0000       0.0000       0.0289       0.0000       0.6026
   11323.0    1358760       0.0430       0.0000       0.0000       0.0188       0.0000       0.6249
   11323.5    1358820       0.0432       0.0000       0.0000       0.0227       0.0000       0.6176
   11324.0    1358880       0.0430       0.0000       0.0000       0.0348       0.0000       0.5950
   11324.5    1358940       0.0432       0.0000       0.0000       0.0613       0.0000       0.5692
   11325.0    1359000       0.0432       0.0000       0.0000       0.0683       0.0000       0.5638
   11325.5    1359060       0.0430       0.0000       0.0000       0.0704       0.0000       0.5608
