~VERSION INFORMATION
VERS.           2.0   :CWLS Log ASCII Standard - VERSION 2.0
WRAP.           NO    :One Line per depth step
PROD.  Schlumberger   :LAS Producer
PROG.  DLIS to ASCII 2.3                               :LAS Program name and version
CREA.        2019/04/03 19:56                          :LAS Creation date {YYYY/MM/DD hh:mm}
DLIS_CREA.  2009-Feb-18 14:32                          :DLIS Creation date and time {YYYY-MMM-DD hh:mm}
SOURCE.     WLC_PETRO_COMPUTED_OUTPUT_1.DLIS           :DLIS File Name
FILE-ID.     OUTPUT.logdata                            :File Identification Number
#--------------------------------------------------
~WELL INFORMATION
#MNEM.UNIT      DATA             DESCRIPTION
#---- ------ --------------   -----------------------------
STRT .F          566.0       :START DEPTH     
STOP .F        12302.0       :STOP DEPTH     
STEP .F            0.5       :STEP     
NULL .          -999.25      :NULL VALUE
COMP .        STATOILHYDRO                             :COMPANY
WELL .        15/9-F-14                                :WELL
FLD  .        VOLVE                                    :FIELD
LOC  .                                                 :LOCATION
CNTY .        MAERSK INSPIRER                          :COUNTY
STAT .                                                 :STATE
CTRY .                                                 :COUNTRY
API  .                                                 :API NUMBER
UWI  .                                                 :UNIQUE WELL ID
DATE .                                                 :LOG DATE
SRVC .        CROCKER DATA PROCESSING                  :SERVICE COMPANY
LATI .DEG                                              :LATITUDE
LONG .DEG                                              :LONGITUDE
GDAT .                                                 :GeoDetic Datum
#-----------------------------------------------------------------------------
~PARAMETER INFORMATION
#MNEM.UNIT    VALUE                      DESCRIPTION
#---- -----   --------------------       ------------------------
CN   .        STATOILHYDRO               :Company
WN   .        15/9-F-14                  :Well Name
FN   .        VOLVE                      :Field
CTRY .        NORWAY                     :Country
COUN .        MAERSK INSPIRER            :County or Rig name
PDAT .        MSL                        :Perm. Datum
ELZ  .M          0.00000                 :Elev. Log Zero (wrt EPD)
SRVC .        UNKNOWN                    :Service company
R2   .        INPUT                      :R2
R4   .        INPUT                      :R4
RUN  .                                   :RUN NUMBER
EPD  .                                   :Elevation of Permanent Datum above Mean Sea Level
LMF  .                                   :Logging Measured From (Name of Logging Elevation Reference)
APD  .                                   :Elevation of Depth Reference (LMF) above Permanent Datum
#-----------------------------------------------------------------------------
~CURVE INFORMATION
#MNEM.UNIT   API CODE                                  DESCRIPTION
#---- -----  --------                                  -----------------------
DEPTH.F                                                :DEPTH (BOREHOLE) {F10.1}
DEPTH..1IN                                             :Measured Depth {I11}
BVW  .V/V_DECIMAL                                      :BVW:UNKNOWN:rC:NONE:v1 {F13.4}
CARB_FLAG.UNKNOWN                                      :CARB_FLAG:UNKNOWN:rC:NONE:v1 {F13.4}
COAL_FLAG.UNKNOWN                                      :COAL_FLAG:UNKNOWN:rC:NONE:v1 {F13.4}
KLOGH.MD                                               :KLOGH:UNKNOWN:rC:NONE:v1 {F13.4}
SAND_FLAG.UNKNOWN                                      :SAND_FLAG:UNKNOWN:rC:NONE:v1 {F13.4}
VSH  .V/V_DECIMAL                                      :VSH:UNKNOWN:rC:NONE:v1 {F13.4}
#-----------------------------------------------------------------------------
# 
#    DEPTH        DEPTH           BVW       CARB_FLAG    COAL_FLAG      KLOGH      SAND_FLAG       VSH
#
~A  
# ...
   11126.0    1335120       0.0395       0.0000       0.0000       0.4908       1.0000       0.4633
   11126.5    1335180       0.0405       0.0000       0.0000       0.1836       0.0000       0.5128
   11127.0    1335240       0.0415       0.0000       0.0000       0.0985       0.0000       0.5458
   11127.5    1335300       0.0418       0.0000       0.0000       0.0641       0.0000       0.5675
   11128.0    1335360       0.0423       0.0000       0.0000       0.0588       0.0000       0.5775
   11128.5    1335420       0.0428       0.0000       0.0000       0.0432       0.0000       0.5957
   11129.0    1335480       0.0423       0.0000       0.0000       0.0438       0.0000       0.5863
   11129.5    1335540       0.0426       0.0000       0.0000       0.1082       0.0000       0.5391
   11130.0    1335600       0.0430       0.0000       0.0000       0.3140       1.0000       0.4857
   11130.5    1335660       0.0429       0.0000       0.0000       1.1776       1.0000       0.4313
   11131.0    1335720       0.0432       0.0000       0.0000       2.1975       1.0000       0.4098
   11131.5    1335780       0.0433       0.0000       0.0000       3.0812       1.0000       0.3924
   11132.0    1335840       0.0433       0.0000       0.0000       2.9531       1.0000       0.3974
   11132.5    1335900       0.0430       0.0000       0.0000       3.4078       1.0000       0.3870
   11133.0    1335960       0.0427       0.0000       0.0000       3.9749       1.0000       0.3764
   11133.5    1336020       0.0425       0.0000       0.0000       4.7783       1.0000       0.3663
   11134.0    1336080       0.0428       0.0000       0.0000       4.6452       1.0000       0.3714
   11134.5    1336140       0.0425       0.0000       0.0000       4.0715       1.0000       0.3783
   11135.0    1336200       0.0429       0.0000       0.0000       3.1742       1.0000       0.3861
   11135.5    1336260       0.0428       0.0000       0.0000       2.8511       1.0000       0.3919
   11136.0    1336320       0.0425       0.0000       0.0000       2.6219       1.0000       0.3943
   11136.5    1336380       0.0431       0.0000       0.0000       3.1516       1.0000       0.3919
   11137.0    1336440       0.0428       0.0000       0.0000       3.5258       1.0000       0.3865
   11137.5    1336500       0.0422       0.0000       0.0000       4.0918       1.0000       0.3776
   11138.0    1336560       0.0417       0.0000       0.0000       4.5832       1.0000       0.3734
   11138.5    1336620       0.0410       0.0000       0.0000       4.4408       1.0000       0.3643
   11139.0    1336680       0.0406       0.0000       0.0000       3.8663       1.0000       0.3589
   11139.5    1336740       0.0400       0.0000       0.0000       2.7412       1.0000       0.3585
   11140.0    1336800       0.0394       0.0000       0.0000       2.0148       1.0000       0.3553
   11140.5    1336860       0.0389       1.0000       0.0000       1.4539       0.0000       0.3572
   11141.0    1336920       0.0389       1.0000       0.0000       1.8862       0.0000       0.3435
   11141.5    1336980       0.0394       1.0000       0.0000       1.8361       0.0000       0.3479
   11142.0    1337040       0.0399       0.0000       0.0000       1.6157       1.0000       0.3585
   11142.5    1337100       0.0410       0.0000       0.0000       0.9608       1.0000       0.3924
   11143.0    1337160       0.0430       0.0000       0.0000       0.9040       1.0000       0.4046
   11143.5    1337220       0.0425       0.0000       0.0000       0.9229       1.0000       0.4115
   11144.0    1337280       0.0432       0.0000       0.0000       1.6348       1.0000       0.3941
   11144.5    1337340       0.0456       0.0000       0.0000       2.0392       1.0000       0.3927
   11145.0    1337400       0.0453       0.0000       0.0000       3.0395       1.0000       0.3865
   11145.5    1337460       0.0456       0.0000       0.0000       1.7844       1.0000       0.4132
   11146.0    1337520       0.0425       0.0000       0.0000       2.3835       1.0000       0.4048
   11146.5    1337580       0.0440       0.0000       0.0000       3.0232       1.0000       0.3987
   11147.0    1337640       0.0422       0.0000       0.0000       3.1348       1.0000       0.3952
   11147.5    1337700       0.0424       0.0000       0.0000       3.1225       1.0000       0.3972
   11148.0    1337760       0.0422       0.0000       0.0000       3.0205       1.0000       0.3982
   11148.5    1337820       0.0410       0.0000       0.0000       4.9710       1.0000       0.3737
   11149.0    1337880       0.0414       0.0000       0.0000       5.1217       1.0000       0.3759
   11149.5    1337940       0.0407       0.0000       0.0000       4.7526       1.0000       0.3788
   11150.0    1338000       0.0399       0.0000       0.0000       4.8364       1.0000       0.3791
   11150.5    1338060       0.0399       0.0000       0.0000       4.3333       1.0000       0.3785
   11151.0    1338120       0.0405       0.0000       0.0000       4.8348       1.0000       0.3735
   11151.5    1338180       0.0393       0.0000       0.0000       5.9878       1.0000       0.3701
   11152.0    1338240       0.0398       0.0000       0.0000       5.6763       1.0000       0.3680
   11152.5    1338300       0.0403       0.0000       0.0000       6.2499       1.0000       0.3677
   11153.0    1338360       0.0392       0.0000       0.0000       3.7752       1.0000       0.3904
   11153.5    1338420       0.0405       0.0000       0.0000       3.1154       1.0000       0.3994
   11154.0    1338480       0.0398       0.0000       0.0000       2.4054       1.0000       0.4078
   11154.5    1338540       0.0400       0.0000       0.0000       2.6956       1.0000       0.4054
   11155.0    1338600       0.0396       0.0000       0.0000       2.9157       1.0000       0.3975
   11155.5    1338660       0.0390       0.0000       0.0000       3.1786       1.0000       0.3946
   11156.0    1338720       0.0390       0.0000       0.0000       4.2027       1.0000       0.3896
   11156.5    1338780       0.0397       0.0000       0.0000       4.0789       1.0000       0.3869
   11157.0    1338840       0.0403       0.0000       0.0000       4.1566       1.0000       0.3864
   11157.5    1338900       0.0388       0.0000       0.0000       4.6118       1.0000       0.3769
   11158.0    1338960       0.0393       0.0000       0.0000       3.7337       1.0000       0.3856
   11158.5    1339020       0.0400       0.0000       0.0000       4.4201       1.0000       0.3766
   11159.0    1339080       0.0395       0.0000       0.0000       4.4700       1.0000       0.3774
   11159.5    1339140       0.0389       0.0000       0.0000       6.1237       1.0000       0.3665
   11160.0    1339200       0.0388       0.0000       0.0000       3.8556       1.0000       0.3872
   11160.5    1339260       0.0389       0.0000       0.0000       3.1197       1.0000       0.3954
   11161.0    1339320       0.0390       0.0000       0.0000       2.5089       1.0000       0.4086
   11161.5    1339380       0.0393       0.0000       0.0000       3.1778       1.0000       0.3967
   11162.0    1339440       0.0391       0.0000       0.0000       2.6916       1.0000       0.4005
   11162.5    1339500       0.0402       0.0000       0.0000       2.6552       1.0000       0.3986
   11163.0    1339560       0.0394       0.0000       0.0000       2.1015       1.0000       0.4031
   11163.5    1339620       0.0398       0.0000       0.0000       1.8098       1.0000       0.4073
   11164.0    1339680       0.0402       0.0000       0.0000       1.7298       1.0000       0.4049
   11164.5    1339740       0.0393       0.0000       0.0000       1.8512       1.0000       0.4070
   11165.0    1339800       0.0368       0.0000       0.0000       1.8061       1.0000       0.4087
   11165.5    1339860       0.0382       0.0000       0.0000       1.2405       1.0000       0.4195
