~VERSION INFORMATION
VERS.           2.0   :CWLS Log ASCII Standard - VERSION 2.0
WRAP.           NO    :One Line per depth step
PROD.  Schlumberger   :LAS Producer
PROG.  DLIS to ASCII 2.3                               :LAS Program name and version
CREA.        2019/04/03 19:56                          :LAS Creation date {YYYY/MM/DD hh:mm}
DLIS_CREA.  2009-Feb-18 14:32                          :DLIS Creation date and time {YYYY-MMM-DD hh:mm}
SOURCE.     WLC_PETRO_COMPUTED_OUTPUT_1.DLIS           :DLIS File Name
FILE-ID.     OUTPUT.logdata                            :File Identification Number
#--------------------------------------------------
~WELL INFORMATION
#MNEM.UNIT      DATA             DESCRIPTION
#---- ------ --------------   -----------------------------
STRT .F          566.0       :START DEPTH     
STOP .F        12302.0       :STOP DEPTH     
STEP .F            0.5       :STEP     
NULL .          -999.25      :NULL VALUE
COMP .        STATOILHYDRO                             :COMPANY
WELL .        15/9-F-14                                :WELL
FLD  .        VOLVE                                    :FIELD
LOC  .                                                 :LOCATION
CNTY .        MAERSK INSPIRER                          :COUNTY
STAT .                                                 :STATE
CTRY .                                                 :COUNTRY
API  .                                                 :API NUMBER
UWI  .                                                 :UNIQUE WELL ID
DATE .                                                 :LOG DATE
SRVC .        CROCKER DATA PROCESSING                  :SERVICE COMPANY
LATI .DEG                                              :LATITUDE
LONG .DEG                                              :LONGITUDE
GDAT .                                                 :GeoDetic Datum
#-----------------------------------------------------------------------------
~PARAMETER INFORMATION
#MNEM.UNIT    VALUE                      DESCRIPTION
#---- -----   --------------------       ------------------------
CN   .        STATOILHYDRO               :Company
WN   .        15/9-F-14                  :Well Name
FN   .        VOLVE                      :Field
CTRY .        NORWAY                     :Country
COUN .        MAERSK INSPIRER            :County or Rig name
PDAT .        MSL                        :Perm. Datum
ELZ  .M          0.00000                 :Elev. Log Zero (wrt EPD)
SRVC .        UNKNOWN                    :Service company
R2   .        INPUT                      :R2
R4   .        INPUT                      :R4
RUN  .                                   :RUN NUMBER
EPD  .                                   :Elevation of Permanent Datum above Mean Sea Level
LMF  .                                   :Logging Measured From (Name of Logging Elevation Reference)
APD  .                                   :Elevation of Depth Reference (LMF) above Permanent Datum
#-----------------------------------------------------------------------------
~CURVE INFORMATION
#MNEM.UNIT   API CODE                                  DESCRIPTION
#---- -----  --------                                  -----------------------
DEPTH.F                                                :DEPTH (BOREHOLE) {F10.1}
DEPTH..1IN                                             :Measured Depth {I11}
BVW  .V/V_DECIMAL                                      :BVW:UNKNOWN:rC:NONE:v1 {F13.4}
CARB_FLAG.UNKNOWN                                      :CARB_FLAG:UNKNOWN:rC:NONE:v1 {F13.4}
COAL_FLAG.UNKNOWN                                      :COAL_FLAG:UNKNOWN:rC:NONE:v1 {F13.4}
KLOGH.MD                                               :KLOGH:UNKNOWN:rC:NONE:v1 {F13.4}
SAND_FLAG.UNKNOWN                                      :SAND_FLAG:UNKNOWN:rC:NONE:v1 {F13.4}
VSH  .V/V_DECIMAL                                      :VSH:UNKNOWN:rC:NONE:v1 {F13.4}
#-----------------------------------------------------------------------------
# 
#    DEPTH        DEPTH           BVW       CARB_FLAG    COAL_FLAG      KLOGH      SAND_FLAG       VSH
#
~A  
# ...
   11686.0    1402320       0.0508       0.0000       0.0000       3.6433       1.0000       0.3709
   11686.5    1402380       0.0502       0.0000       0.0000       3.6474       1.0000       0.3641
   11687.0    1402440       0.0502       0.0000       0.0000       5.2994       1.0000       0.3471
   11687.5    1402500       0.0500       0.0000       0.0000       5.3407       1.0000       0.3471
   11688.0    1402560       0.0500       0.0000       0.0000       5.0354       1.0000       0.3466
   11688.5    1402620       0.0500       0.0000       0.0000       4.6063       1.0000       0.3501
   11689.0    1402680       0.0500       0.0000       0.0000       5.2032       1.0000       0.3453
   11689.5    1402740       0.0496       0.0000       0.0000       5.7795       1.0000       0.3383
   11690.0    1402800       0.0499       0.0000       0.0000       6.1047       1.0000       0.3395
   11690.5    1402860       0.0501       0.0000       0.0000       7.7951       1.0000       0.3261
   11691.0    1402920       0.0503       0.0000       0.0000       8.5450       1.0000       0.3237
   11691.5    1402980       0.0505       0.0000       0.0000       8.8896       1.0000       0.3226
   11692.0    1403040       0.0511       0.0000       0.0000       5.8941       1.0000       0.3454
   11692.5    1403100       0.0509       0.0000       0.0000       5.7324       1.0000       0.3406
   11693.0    1403160       0.0511       0.0000       0.0000       7.8557       1.0000       0.3280
   11693.5    1403220       0.0508       0.0000       0.0000       6.7893       1.0000       0.3280
   11694.0    1403280       0.0510       0.0000       0.0000       6.4489       1.0000       0.3344
   11694.5    1403340       0.0514       0.0000       0.0000       4.7849       1.0000       0.3546
   11695.0    1403400       0.0514       0.0000       0.0000       5.4286       1.0000       0.3519
   11695.5    1403460       0.0511       0.0000       0.0000       4.8807       1.0000       0.3547
   11696.0    1403520       0.0515       0.0000       0.0000       7.4405       1.0000       0.3409
   11696.5    1403580       0.0513       0.0000       0.0000       7.8764       1.0000       0.3335
   11697.0    1403640       0.0509       0.0000       0.0000       9.4032       1.0000       0.3292
   11697.5    1403700       0.0507       0.0000       0.0000      10.6345       1.0000       0.3287
   11698.0    1403760       0.0505       0.0000       0.0000      10.9934       1.0000       0.3260
   11698.5    1403820       0.0503       0.0000       0.0000      10.2393       1.0000       0.3283
   11699.0    1403880       0.0503       0.0000       0.0000       9.2018       1.0000       0.3311
   11699.5    1403940       0.0503       0.0000       0.0000      10.3380       1.0000       0.3270
   11700.0    1404000       0.0503       0.0000       0.0000      11.1312       1.0000       0.3255
   11700.5    1404060       0.0500       0.0000       0.0000      11.4058       1.0000       0.3198
   11701.0    1404120       0.0496       0.0000       0.0000       9.6196       1.0000       0.3211
   11701.5    1404180       0.0498       0.0000       0.0000      11.9356       1.0000       0.3135
   11702.0    1404240       0.0497       0.0000       0.0000      10.1066       1.0000       0.3222
   11702.5    1404300       0.0499       0.0000       0.0000       9.3514       1.0000       0.3273
   11703.0    1404360       0.0497       0.0000       0.0000       6.7244       1.0000       0.3440
   11703.5    1404420       0.0501       0.0000       0.0000       7.8097       1.0000       0.3404
   11704.0    1404480       0.0495       0.0000       0.0000       6.6769       1.0000       0.3411
   11704.5    1404540       0.0496       0.0000       0.0000       9.8432       1.0000       0.3262
   11705.0    1404600       0.0494       0.0000       0.0000       9.4229       1.0000       0.3277
   11705.5    1404660       0.0494       0.0000       0.0000      10.1881       1.0000       0.3234
   11706.0    1404720       0.0495       0.0000       0.0000       7.7873       1.0000       0.3330
   11706.5    1404780       0.0492       0.0000       0.0000       6.9287       1.0000       0.3353
   11707.0    1404840       0.0492       0.0000       0.0000       6.4178       1.0000       0.3376
   11707.5    1404900       0.0493       0.0000       0.0000       7.0207       1.0000       0.3349
   11708.0    1404960       0.0490       0.0000       0.0000       6.1956       1.0000       0.3337
   11708.5    1405020       0.0492       0.0000       0.0000       6.9265       1.0000       0.3294
   11709.0    1405080       0.0495       0.0000       0.0000       8.2349       1.0000       0.3249
   11709.5    1405140       0.0494       0.0000       0.0000       7.2860       1.0000       0.3291
   11710.0    1405200       0.0491       0.0000       0.0000       8.5584       1.0000       0.3195
   11710.5    1405260       0.0491       0.0000       0.0000       7.9022       1.0000       0.3220
   11711.0    1405320       0.0485       0.0000       0.0000       6.8927       1.0000       0.3258
   11711.5    1405380       0.0490       0.0000       0.0000       6.8355       1.0000       0.3335
   11712.0    1405440       0.0490       0.0000       0.0000       7.6521       1.0000       0.3322
   11712.5    1405500       0.0487       0.0000       0.0000       8.7835       1.0000       0.3240
   11713.0    1405560       0.0490       0.0000       0.0000      11.5627       1.0000       0.3170
   11713.5    1405620       0.0491       0.0000       0.0000       8.8195       1.0000       0.3343
   11714.0    1405680       0.0488       0.0000       0.0000       8.7912       1.0000       0.3343
   11714.5    1405740       0.0491       0.0000       0.0000       6.1358       1.0000       0.3515
   11715.0    1405800       0.0488       0.0000       0.0000       6.2399       1.0000       0.3415
   11715.5    1405860       0.0495       0.0000       0.0000       9.1025       1.0000       0.3307
   11716.0    1405920       0.0494       0.0000       0.0000       9.4146       1.0000       0.3310
   11716.5    1405980       0.0492       0.0000       0.0000      10.1122       1.0000       0.3212
   11717.0    1406040       0.0490       0.0000       0.0000       8.7320       1.0000       0.3218
   11717.5    1406100       0.0492       0.0000       0.0000      11.3244       1.0000       0.3141
   11718.0    1406160       0.0490       0.0000       0.0000       9.6129       1.0000       0.3166
   11718.5    1406220       0.0495       0.0000       0.0000       8.5609       1.0000       0.3294
   11719.0    1406280       0.0488       0.0000       0.0000       7.2804       1.0000       0.3273
   11719.5    1406340       0.0490       0.0000       0.0000       8.0146       1.0000       0.3222
   11720.0    1406400       0.0488       0.0000       0.0000       6.0053       1.0000       0.3295
   11720.5    1406460       0.0494       0.0000       0.0000       5.8970       1.0000       0.3406
   11721.0    1406520       0.0492       0.0000       0.0000       3.0595       1.0000       0.3720
   11721.5    1406580       0.0490       0.0000       0.0000       3.0795       1.0000       0.3705
   11722.0    1406640       0.0489       0.0000       0.0000       4.2495       1.0000       0.3567
   11722.5    1406700       0.0483       0.0000       0.0000       7.1181       1.0000       0.3278
   11723.0    1406760       0.0480       0.0000       0.0000       7.3988       1.0000       0.3309
   11723.5    1406820       0.0472       0.0000       0.0000       5.8595       1.0000       0.3414
   11724.0    1406880       0.0476       0.0000       0.0000       4.8052       1.0000       0.3581
   11724.5    1406940       0.0466       0.0000       0.0000       4.5639       1.0000       0.3585
   11725.0    1407000       0.0465       0.0000       0.0000       5.0084       1.0000       0.3551
   11725.5    1407060       0.0453       0.0000       0.0000       8.2533       1.0000       0.3263
