~VERSION INFORMATION
VERS.           2.0   :CWLS Log ASCII Standard - VERSION 2.0
WRAP.           NO    :One Line per depth step
PROD.  Schlumberger   :LAS Producer
PROG.  DLIS to ASCII 2.3                               :LAS Program name and version
CREA.        2019/04/03 19:56                          :LAS Creation date {YYYY/MM/DD hh:mm}
DLIS_CREA.  2009-Feb-18 14:32                          :DLIS Creation date and time {YYYY-MMM-DD hh:mm}
SOURCE.     WLC_PETRO_COMPUTED_OUTPUT_1.DLIS           :DLIS File Name
FILE-ID.     OUTPUT.logdata                            :File Identification Number
#--------------------------------------------------
~WELL INFORMATION
#MNEM.UNIT      DATA             DESCRIPTION
#---- ------ --------------   -----------------------------
STRT .F          566.0       :START DEPTH     
STOP .F        12302.0       :STOP DEPTH     
STEP .F            0.5       :STEP     
NULL .          -999.25      :NULL VALUE
COMP .        STATOILHYDRO                             :COMPANY
WELL .        15/9-F-14                                :WELL
FLD  .        VOLVE                                    :FIELD
LOC  .                                                 :LOCATION
CNTY .        MAERSK INSPIRER                          :COUNTY
STAT .                                                 :STATE
CTRY .                                                 :COUNTRY
API  .                                                 :API NUMBER
UWI  .                                                 :UNIQUE WELL ID
DATE .                                                 :LOG DATE
SRVC .        CROCKER DATA PROCESSING                  :SERVICE COMPANY
LATI .DEG                                              :LATITUDE
LONG .DEG                                              :LONGITUDE
GDAT .                                                 :GeoDetic Datum
#-----------------------------------------------------------------------------
~PARAMETER INFORMATION
#MNEM.UNIT    VALUE                      DESCRIPTION
#---- -----   --------------------       ------------------------
CN   .        STATOILHYDRO               :Company
WN   .        15/9-F-14                  :Well Name
FN   .        VOLVE                      :Field
CTRY .        NORWAY                     :Country
COUN .        MAERSK INSPIRER            :County or Rig name
PDAT .        MSL                        :Perm. Datum
ELZ  .M          0.00000                 :Elev. Log Zero (wrt EPD)
SRVC .        UNKNOWN                    :Service company
R2   .        INPUT                      :R2
R4   .        INPUT                      :R4
RUN  .                                   :RUN NUMBER
EPD  .                                   :Elevation of Permanent Datum above Mean Sea Level
LMF  .                                   :Logging Measured From (Name of Logging Elevation Reference)
APD  .                                   :Elevation of Depth Reference (LMF) above Permanent Datum
#-----------------------------------------------------------------------------
~CURVE INFORMATION
#MNEM.UNIT   API CODE                                  DESCRIPTION
#---- -----  --------                                  -----------------------
DEPTH.F                                                :DEPTH (BOREHOLE) {F10.1}
DEPTH..1IN                                             :Measured Depth {I11}
BVW  .V/V_DECIMAL                                      :BVW:UNKNOWN:rC:NONE:v1 {F13.4}
CARB_FLAG.UNKNOWN                                      :CARB_FLAG:UNKNOWN:rC:NONE:v1 {F13.4}
COAL_FLAG.UNKNOWN                                      :COAL_FLAG:UNKNOWN:rC:NONE:v1 {F13.4}
KLOGH.MD                                               :KLOGH:UNKNOWN:rC:NONE:v1 {F13.4}
SAND_FLAG.UNKNOWN                                      :SAND_FLAG:UNKNOWN:rC:NONE:v1 {F13.4}
VSH  .V/V_DECIMAL                                      :VSH:UNKNOWN:rC:NONE:v1 {F13.4}
#-----------------------------------------------------------------------------
# 
#    DEPTH        DEPTH           BVW       CARB_FLAG    COAL_FLAG      KLOGH      SAND_FLAG       VSH
#
~A  
# ...
   10366.0    1243920       0.0119       0.0000       0.0000    1064.8680       1.0000       0.0885
   10366.5    1243980       0.0119       0.0000       0.0000    1310.3840       1.0000       0.0820
   10367.0    1244040       0.0117       0.0000       0.0000    1044.9620       1.0000       0.0952
   10367.5    1244100       0.0117       0.0000       0.0000    1061.8571       1.0000       0.0970
   10368.0    1244160       0.0120       0.0000       0.0000     932.9857       1.0000       0.1011
   10368.5    1244220       0.0118       0.0000       0.0000     944.7552       1.0000       0.0992
   10369.0    1244280       0.0116       0.0000       0.0000    1023.6490       1.0000       0.0953
   10369.5    1244340       0.0112       0.0000       0.0000     855.4970       1.0000       0.1016
   10370.0    1244400       0.0114       0.0000       0.0000     876.6230       1.0000       0.0961
   10370.5    1244460       0.0118       0.0000       0.0000     998.5200       1.0000       0.0996
   10371.0    1244520       0.0114       0.0000       0.0000    1138.6949       1.0000       0.0865
   10371.5    1244580       0.0112       0.0000       0.0000    1375.9680       1.0000       0.0820
   10372.0    1244640       0.0113       0.0000       0.0000    1434.5190       1.0000       0.0825
   10372.5    1244700       0.0115       0.0000       0.0000    1168.1030       1.0000       0.0949
   10373.0    1244760       0.0113       0.0000       0.0000     902.2534       1.0000       0.1059
   10373.5    1244820       0.0110       0.0000       0.0000     850.2131       1.0000       0.1090
   10374.0    1244880       0.0111       0.0000       0.0000    1110.2510       1.0000       0.1016
   10374.5    1244940       0.0114       0.0000       0.0000    1265.1580       1.0000       0.1006
   10375.0    1245000       0.0111       0.0000       0.0000    1039.1360       1.0000       0.1056
   10375.5    1245060       0.0110       0.0000       0.0000     808.6523       1.0000       0.1140
   10376.0    1245120       0.0110       0.0000       0.0000     826.7905       1.0000       0.1179
   10376.5    1245180       0.0111       0.0000       0.0000     999.2855       1.0000       0.1099
   10377.0    1245240       0.0114       0.0000       0.0000    1264.5920       1.0000       0.1036
   10377.5    1245300       0.0112       0.0000       0.0000    1337.8010       1.0000       0.0968
   10378.0    1245360       0.0107       0.0000       0.0000    1270.7340       1.0000       0.0959
   10378.5    1245420       0.0111       0.0000       0.0000    1154.8740       1.0000       0.1016
   10379.0    1245480       0.0108       0.0000       0.0000     937.8596       1.0000       0.1080
   10379.5    1245540       0.0118       0.0000       0.0000     832.8212       1.0000       0.1183
   10380.0    1245600       0.0112       0.0000       0.0000     709.4866       1.0000       0.1194
   10380.5    1245660       0.0115       0.0000       0.0000     794.3845       1.0000       0.1090
   10381.0    1245720       0.0111       0.0000       0.0000     735.4305       1.0000       0.1161
   10381.5    1245780       0.0114       0.0000       0.0000     649.9150       1.0000       0.1227
   10382.0    1245840       0.0115       0.0000       0.0000     602.2782       1.0000       0.1291
   10382.5    1245900       0.0115       0.0000       0.0000     715.6625       1.0000       0.1188
   10383.0    1245960       0.0118       0.0000       0.0000     747.9854       1.0000       0.1174
   10383.5    1246020       0.0118       0.0000       0.0000     610.8165       1.0000       0.1263
   10384.0    1246080       0.0120       0.0000       0.0000     768.9746       1.0000       0.1175
   10384.5    1246140       0.0113       0.0000       0.0000     885.7778       1.0000       0.1107
   10385.0    1246200       0.0120       0.0000       0.0000     961.3416       1.0000       0.1050
   10385.5    1246260       0.0114       0.0000       0.0000     579.3900       1.0000       0.1172
   10386.0    1246320       0.0110       0.0000       0.0000     473.8119       1.0000       0.1131
   10386.5    1246380       0.0116       0.0000       0.0000     395.1047       1.0000       0.1171
   10387.0    1246440       0.0110       1.0000       0.0000     361.4562       0.0000       0.1157
   10387.5    1246500       0.0105       1.0000       0.0000     254.5353       0.0000       0.1277
   10388.0    1246560       0.0098       1.0000       0.0000     327.1832       0.0000       0.1181
   10388.5    1246620       0.0087       0.0000       0.0000     357.8233       1.0000       0.1173
   10389.0    1246680       0.0070       0.0000       0.0000     552.2106       1.0000       0.1076
   10389.5    1246740       0.0083       0.0000       0.0000     755.7672       1.0000       0.1028
   10390.0    1246800       0.0043       0.0000       0.0000     807.6796       1.0000       0.1094
   10390.5    1246860       0.0050       0.0000       0.0000     777.9590       1.0000       0.1224
   10391.0    1246920       0.0065       0.0000       0.0000     451.5805       1.0000       0.1434
   10391.5    1246980       0.0095       0.0000       0.0000     565.8550       1.0000       0.1303
   10392.0    1247040       0.0071       0.0000       0.0000     844.2985       1.0000       0.1186
   10392.5    1247100       0.0044       0.0000       0.0000    1243.3110       1.0000       0.1031
   10393.0    1247160       0.0044       0.0000       0.0000    1359.0310       1.0000       0.1015
   10393.5    1247220       0.0044       0.0000       0.0000    1254.4690       1.0000       0.1060
   10394.0    1247280       0.0044       0.0000       0.0000    1226.5250       1.0000       0.1061
   10394.5    1247340       0.0044       0.0000       0.0000     943.0327       1.0000       0.1155
   10395.0    1247400       0.0044       0.0000       0.0000    1100.8420       1.0000       0.1069
   10395.5    1247460       0.0044       0.0000       0.0000    1203.4240       1.0000       0.1053
   10396.0    1247520       0.0044       0.0000       0.0000    1127.6260       1.0000       0.1036
   10396.5    1247580       0.0043       0.0000       0.0000     838.3694       1.0000       0.1126
   10397.0    1247640       0.0101       0.0000       0.0000     751.5121       1.0000       0.1194
   10397.5    1247700       0.0113       0.0000       0.0000     665.2357       1.0000       0.1167
   10398.0    1247760       0.0116       0.0000       0.0000     625.0854       1.0000       0.1146
   10398.5    1247820       0.0129       0.0000       0.0000     436.4403       1.0000       0.1261
   10399.0    1247880       0.0134       0.0000       0.0000     313.1873       1.0000       0.1434
   10399.5    1247940       0.0142       0.0000       0.0000     197.3307       1.0000       0.1645
   10400.0    1248000       0.0148       0.0000       0.0000     238.4249       1.0000       0.1545
   10400.5    1248060       0.0121       0.0000       0.0000     293.2877       1.0000       0.1460
   10401.0    1248120       0.0108       0.0000       0.0000     401.1849       1.0000       0.1349
   10401.5    1248180       0.0101       0.0000       0.0000     430.9406       1.0000       0.1353
   10402.0    1248240       0.0153       0.0000       0.0000     551.4227       1.0000       0.1258
   10402.5    1248300       0.0217       0.0000       0.0000     695.5472       1.0000       0.1142
   10403.0    1248360       0.0300       0.0000       0.0000     723.6288       1.0000       0.1137
   10403.5    1248420       0.0274       0.0000       0.0000     669.8265       1.0000       0.1121
   10404.0    1248480       0.0236       0.0000       0.0000     459.3003       1.0000       0.1222
   10404.5    1248540       0.0225       0.0000       0.0000     210.5510       1.0000       0.1310
   10405.0    1248600       0.0238       1.0000       0.0000      57.4958       0.0000       0.1689
   10405.5    1248660       0.0523       1.0000       0.0000      15.3557       0.0000       0.2243
