~VERSION INFORMATION
VERS.           2.0   :CWLS Log ASCII Standard - VERSION 2.0
WRAP.           NO    :One Line per depth step
PROD.  Schlumberger   :LAS Producer
PROG.  DLIS to ASCII 2.3                               :LAS Program name and version
CREA.        2019/04/03 19:56                          :LAS Creation date {YYYY/MM/DD hh:mm}
DLIS_CREA.  2009-Feb-18 14:32                          :DLIS Creation date and time {YYYY-MMM-DD hh:mm}
SOURCE.     WLC_PETRO_COMPUTED_OUTPUT_1.DLIS           :DLIS File Name
FILE-ID.     OUTPUT.logdata                            :File Identification Number
#--------------------------------------------------
~WELL INFORMATION
#MNEM.UNIT      DATA             DESCRIPTION
#---- ------ --------------   -----------------------------
STRT .F          566.0       :START DEPTH     
STOP .F        12302.0       :STOP DEPTH     
STEP .F            0.5       :STEP     
NULL .          -999.25      :NULL VALUE
COMP .        STATOILHYDRO                             :COMPANY
WELL .        15/9-F-14                                :WELL
FLD  .        VOLVE                                    :FIELD
LOC  .                                                 :LOCATION
CNTY .        MAERSK INSPIRER                          :COUNTY
STAT .                                                 :STATE
CTRY .                                                 :COUNTRY
API  .                                                 :API NUMBER
UWI  .                                                 :UNIQUE WELL ID
DATE .                                                 :LOG DATE
SRVC .        CROCKER DATA PROCESSING                  :SERVICE COMPANY
LATI .DEG                                              :LATITUDE
LONG .DEG                                              :LONGITUDE
GDAT .                                                 :GeoDetic Datum
#-----------------------------------------------------------------------------
~PARAMETER INFORMATION
#MNEM.UNIT    VALUE                      DESCRIPTION
#---- -----   --------------------       ------------------------
CN   .        STATOILHYDRO               :Company
WN   .        15/9-F-14                  :Well Name
FN   .        VOLVE                      :Field
CTRY .        NORWAY                     :Country
COUN .        MAERSK INSPIRER            :County or Rig name
PDAT .        MSL                        :Perm. Datum
ELZ  .M          0.00000                 :Elev. Log Zero (wrt EPD)
SRVC .        UNKNOWN                    :Service company
R2   .        INPUT                      :R2
R4   .        INPUT                      :R4
RUN  .                                   :RUN NUMBER
EPD  .                                   :Elevation of Permanent Datum above Mean Sea Level
LMF  .                                   :Logging Measured From (Name of Logging Elevation Reference)
APD  .                                   :Elevation of Depth Reference (LMF) above Permanent Datum
#-----------------------------------------------------------------------------
~CURVE INFORMATION
#MNEM.UNIT   API CODE                                  DESCRIPTION
#---- -----  --------                                  -----------------------
DEPTH.F                                                :DEPTH (BOREHOLE) {F10.1}
DEPTH..1IN                                             :Measured Depth {I11}
BVW  .V/V_DECIMAL                                      :BVW:UNKNOWN:rC:NONE:v1 {F13.4}
CARB_FLAG.UNKNOWN                                      :CARB_FLAG:UNKNOWN:rC:NONE:v1 {F13.4}
COAL_FLAG.UNKNOWN                                      :COAL_FLAG:UNKNOWN:rC:NONE:v1 {F13.4}
KLOGH.MD                                               :KLOGH:UNKNOWN:rC:NONE:v1 {F13.4}
SAND_FLAG.UNKNOWN                                      :SAND_FLAG:UNKNOWN:rC:NONE:v1 {F13.4}
VSH  .V/V_DECIMAL                                      :VSH:UNKNOWN:rC:NONE:v1 {F13.4}
#-----------------------------------------------------------------------------
# 
#    DEPTH        DEPTH           BVW       CARB_FLAG    COAL_FLAG      KLOGH      SAND_FLAG       VSH
#
~A  
# ...
   11486.0    1378320       0.0102       0.0000       0.0000     491.9844       1.0000       0.1147
   11486.5    1378380       0.0098       0.0000       0.0000     602.0926       1.0000       0.1034
   11487.0    1378440       0.0101       0.0000       0.0000     647.4639       1.0000       0.0999
   11487.5    1378500       0.0101       0.0000       0.0000     625.5360       1.0000       0.0987
   11488.0    1378560       0.0103       0.0000       0.0000     637.1087       1.0000       0.0895
   11488.5    1378620       0.0095       0.0000       0.0000     548.4004       1.0000       0.0939
   11489.0    1378680       0.0101       0.0000       0.0000     733.3837       1.0000       0.0884
   11489.5    1378740       0.0106       0.0000       0.0000     733.9285       1.0000       0.0927
   11490.0    1378800       0.0105       0.0000       0.0000     986.6846       1.0000       0.0843
   11490.5    1378860       0.0105       0.0000       0.0000    1021.9950       1.0000       0.0782
   11491.0    1378920       0.0106       0.0000       0.0000     849.7269       1.0000       0.0862
   11491.5    1378980       0.0103       0.0000       0.0000     736.0593       1.0000       0.0905
   11492.0    1379040       0.0104       0.0000       0.0000     730.0565       1.0000       0.0949
   11492.5    1379100       0.0106       0.0000       0.0000     889.2393       1.0000       0.0830
   11493.0    1379160       0.0107       0.0000       0.0000     861.6745       1.0000       0.0909
   11493.5    1379220       0.0107       0.0000       0.0000     632.0987       1.0000       0.1048
   11494.0    1379280       0.0105       0.0000       0.0000     480.6744       1.0000       0.1151
   11494.5    1379340       0.0109       0.0000       0.0000     578.8726       1.0000       0.1028
   11495.0    1379400       0.0108       0.0000       0.0000     705.7107       1.0000       0.0942
   11495.5    1379460       0.0103       0.0000       0.0000     713.9584       1.0000       0.0949
   11496.0    1379520       0.0106       0.0000       0.0000     609.0390       1.0000       0.0994
   11496.5    1379580       0.0107       0.0000       0.0000     724.8973       1.0000       0.0953
   11497.0    1379640       0.0108       0.0000       0.0000     785.4118       1.0000       0.0953
   11497.5    1379700       0.0107       0.0000       0.0000     939.6730       1.0000       0.0867
   11498.0    1379760       0.0106       0.0000       0.0000     974.6058       1.0000       0.0891
   11498.5    1379820       0.0107       0.0000       0.0000     803.7778       1.0000       0.0989
   11499.0    1379880       0.0110       0.0000       0.0000     759.2910       1.0000       0.1079
   11499.5    1379940       0.0105       0.0000       0.0000     520.0338       1.0000       0.1103
   11500.0    1380000       0.0104       0.0000       0.0000     608.4789       1.0000       0.0914
   11500.5    1380060       0.0102       0.0000       0.0000     594.6801       1.0000       0.0860
   11501.0    1380120       0.0103       0.0000       0.0000     667.4556       1.0000       0.0829
   11501.5    1380180       0.0107       0.0000       0.0000     896.9732       1.0000       0.0872
   11502.0    1380240       0.0107       0.0000       0.0000     695.9645       1.0000       0.0952
   11502.5    1380300       0.0108       0.0000       0.0000     933.7220       1.0000       0.0934
   11503.0    1380360       0.0111       0.0000       0.0000     889.7904       1.0000       0.0953
   11503.5    1380420       0.0108       0.0000       0.0000     824.6641       1.0000       0.0961
   11504.0    1380480       0.0107       0.0000       0.0000     666.1628       1.0000       0.1041
   11504.5    1380540       0.0111       0.0000       0.0000     571.2184       1.0000       0.1066
   11505.0    1380600       0.0106       0.0000       0.0000     475.7024       1.0000       0.1143
   11505.5    1380660       0.0106       0.0000       0.0000     531.4735       1.0000       0.1090
   11506.0    1380720       0.0108       0.0000       0.0000     642.9989       1.0000       0.1050
   11506.5    1380780       0.0106       0.0000       0.0000     699.3862       1.0000       0.1051
   11507.0    1380840       0.0108       0.0000       0.0000     708.0313       1.0000       0.1036
   11507.5    1380900       0.0113       0.0000       0.0000     847.9738       1.0000       0.0958
   11508.0    1380960       0.0111       0.0000       0.0000    1285.7419       1.0000       0.0745
   11508.5    1381020       0.0113       0.0000       0.0000    1240.2690       1.0000       0.0749
   11509.0    1381080       0.0111       0.0000       0.0000    1010.5970       1.0000       0.0808
   11509.5    1381140       0.0110       0.0000       0.0000     793.3195       1.0000       0.0918
   11510.0    1381200       0.0109       0.0000       0.0000     663.5686       1.0000       0.1020
   11510.5    1381260       0.0115       0.0000       0.0000     675.0451       1.0000       0.1020
   11511.0    1381320       0.0111       0.0000       0.0000     728.4352       1.0000       0.0944
   11511.5    1381380       0.0110       0.0000       0.0000    1082.3330       1.0000       0.0771
   11512.0    1381440       0.0110       0.0000       0.0000    1001.2750       1.0000       0.0806
   11512.5    1381500       0.0107       0.0000       0.0000     923.6295       1.0000       0.0832
   11513.0    1381560       0.0110       0.0000       0.0000     660.4733       1.0000       0.0947
   11513.5    1381620       0.0112       0.0000       0.0000     813.1672       1.0000       0.0834
   11514.0    1381680       0.0111       0.0000       0.0000     878.3736       1.0000       0.0779
   11514.5    1381740       0.0116       0.0000       0.0000    1136.6100       1.0000       0.0753
   11515.0    1381800       0.0114       0.0000       0.0000     946.5999       1.0000       0.0887
   11515.5    1381860       0.0121       0.0000       0.0000     686.9948       1.0000       0.1004
   11516.0    1381920       0.0112       0.0000       0.0000     585.4524       1.0000       0.0972
   11516.5    1381980       0.0118       0.0000       0.0000     855.0278       1.0000       0.0881
   11517.0    1382040       0.0119       0.0000       0.0000     785.9829       1.0000       0.0894
   11517.5    1382100       0.0120       0.0000       0.0000    1062.6429       1.0000       0.0829
   11518.0    1382160       0.0121       0.0000       0.0000     907.5753       1.0000       0.0835
   11518.5    1382220       0.0120       0.0000       0.0000    1010.8800       1.0000       0.0807
   11519.0    1382280       0.0124       0.0000       0.0000     970.8250       1.0000       0.0785
   11519.5    1382340       0.0122       0.0000       0.0000     982.9516       1.0000       0.0804
   11520.0    1382400       0.0122       0.0000       0.0000    1100.0050       1.0000       0.0716
   11520.5    1382460       0.0129       0.0000       0.0000     998.4482       1.0000       0.0797
   11521.0    1382520       0.0125       0.0000       0.0000    1041.9730       1.0000       0.0766
   11521.5    1382580       0.0133       0.0000       0.0000    1057.0300       1.0000       0.0743
   11522.0    1382640       0.0132       0.0000       0.0000    1177.2841       1.0000       0.0686
   11522.5    1382700       0.0138       0.0000       0.0000    1015.4590       1.0000       0.0760
   11523.0    1382760       0.0142       0.0000       0.0000     654.8846       1.0000       0.0948
   11523.5    1382820       0.0141       0.0000       0.0000     365.5278       1.0000       0.1178
   11524.0    1382880       0.0146       0.0000       0.0000     409.8189       1.0000       0.1127
   11524.5    1382940       0.0153       0.0000       0.0000     526.2506       1.0000       0.1016
   11525.0    1383000       0.0147       0.0000       0.0000     620.5060       1.0000       0.0860
   11525.5    1383060       0.0156       0.0000       0.0000     741.8867       1.0000       0.0808
