~VERSION INFORMATION
VERS.           2.0   :CWLS Log ASCII Standard - VERSION 2.0
WRAP.           NO    :One Line per depth step
PROD.  Schlumberger   :LAS Producer
PROG.  DLIS to ASCII 2.3                               :LAS Program name and version
CREA.        2019/04/03 19:56                          :LAS Creation date {YYYY/MM/DD hh:mm}
DLIS_CREA.  2009-Feb-18 14:32                          :DLIS Creation date and time {YYYY-MMM-DD hh:mm}
SOURCE.     WLC_PETRO_COMPUTED_OUTPUT_1.DLIS           :DLIS File Name
FILE-ID.     OUTPUT.logdata                            :File Identification Number
#--------------------------------------------------
~WELL INFORMATION
#MNEM.UNIT      DATA             DESCRIPTION
#---- ------ --------------   -----------------------------
STRT .F          566.0       :START DEPTH     
STOP .F        12302.0       :STOP DEPTH     
STEP .F            0.5       :STEP     
NULL .          -999.25      :NULL VALUE
COMP .        STATOILHYDRO                             :COMPANY
WELL .        15/9-F-14                                :WELL
FLD  .        VOLVE                                    :FIELD
LOC  .                                                 :LOCATION
CNTY .        MAERSK INSPIRER                          :COUNTY
STAT .                                                 :STATE
CTRY .                                                 :COUNTRY
API  .                                                 :API NUMBER
UWI  .                                                 :UNIQUE WELL ID
DATE .                                                 :LOG DATE
SRVC .        CROCKER DATA PROCESSING                  :SERVICE COMPANY
LATI .DEG                                              :LATITUDE
LONG .DEG                                              :LONGITUDE
GDAT .                                                 :GeoDetic Datum
#-----------------------------------------------------------------------------
~PARAMETER INFORMATION
#MNEM.UNIT    VALUE                      DESCRIPTION
#---- -----   --------------------       ------------------------
CN   .        STATOILHYDRO               :Company
WN   .        15/9-F-14                  :Well Name
FN   .        VOLVE                      :Field
CTRY .        NORWAY                     :Country
COUN .        MAERSK INSPIRER            :County or Rig name
PDAT .        MSL                        :Perm. Datum
ELZ  .M          0.00000                 :Elev. Log Zero (wrt EPD)
SRVC .        UNKNOWN                    :Service company
R2   .        INPUT                      :R2
R4   .        INPUT                      :R4
RUN  .                                   :RUN NUMBER
EPD  .                                   :Elevation of Permanent Datum above Mean Sea Level
LMF  .                                   :Logging Measured From (Name of Logging Elevation Reference)
APD  .                                   :Elevation of Depth Reference (LMF) above Permanent Datum
#-----------------------------------------------------------------------------
~CURVE INFORMATION
#MNEM.UNIT   API CODE                                  DESCRIPTION
#---- -----  --------                                  -----------------------
DEPTH.F                                                :DEPTH (BOREHOLE) {F10.1}
DEPTH..1IN                                             :Measured Depth {I11}
BVW  .V/V_DECIMAL                                      :BVW:UNKNOWN:rC:NONE:v1 {F13.4}
CARB_FLAG.UNKNOWN                                      :CARB_FLAG:UNKNOWN:rC:NONE:v1 {F13.4}
COAL_FLAG.UNKNOWN                                      :COAL_FLAG:UNKNOWN:rC:NONE:v1 {F13.4}
KLOGH.MD                                               :KLOGH:UNKNOWN:rC:NONE:v1 {F13.4}
SAND_FLAG.UNKNOWN                                      :SAND_FLAG:UNKNOWN:rC:NONE:v1 {F13.4}
VSH  .V/V_DECIMAL                                      :VSH:UNKNOWN:rC:NONE:v1 {F13.4}
#-----------------------------------------------------------------------------
# 
#    DEPTH        DEPTH           BVW       CARB_FLAG    COAL_FLAG      KLOGH      SAND_FLAG       VSH
#
~A  
# ...
   10166.0    1219920       0.0079       0.0000       0.0000     119.6079       1.0000       0.2015
   10166.5    1219980       0.0044       0.0000       0.0000     121.9476       1.0000       0.1987
   10167.0    1220040       0.0061       0.0000       0.0000     128.9659       1.0000       0.1929
   10167.5    1220100       0.0044       0.0000       0.0000     165.8149       1.0000       0.1858
   10168.0    1220160       0.0077       0.0000       0.0000     263.8465       1.0000       0.1659
   10168.5    1220220       0.0073       0.0000       0.0000     316.1180       1.0000       0.1611
   10169.0    1220280       0.0083       0.0000       0.0000     275.3269       1.0000       0.1679
   10169.5    1220340       0.0045       0.0000       0.0000     180.3871       1.0000       0.1936
   10170.0    1220400       0.0044       0.0000       0.0000     113.5025       1.0000       0.2121
   10170.5    1220460       0.0045       0.0000       0.0000      51.2660       1.0000       0.2468
   10171.0    1220520       0.0044       0.0000       0.0000      25.4660       1.0000       0.2688
   10171.5    1220580       0.0044       0.0000       0.0000      17.6257       1.0000       0.2858
   10172.0    1220640       0.0044       0.0000       0.0000      11.8432       1.0000       0.3020
   10172.5    1220700       0.0044       0.0000       0.0000       6.4784       1.0000       0.3271
   10173.0    1220760       0.0045       0.0000       0.0000       6.4446       1.0000       0.3327
   10173.5    1220820       0.0045       0.0000       0.0000      14.1005       1.0000       0.3012
   10174.0    1220880       0.0045       0.0000       0.0000      41.5308       1.0000       0.2568
   10174.5    1220940       0.0044       0.0000       0.0000      74.7757       1.0000       0.2196
   10175.0    1221000       0.0044       0.0000       0.0000     135.4921       1.0000       0.1977
   10175.5    1221060       0.0044       0.0000       0.0000     264.6795       1.0000       0.1710
   10176.0    1221120       0.0044       0.0000       0.0000     482.8247       1.0000       0.1441
   10176.5    1221180       0.0044       0.0000       0.0000     860.4069       1.0000       0.1178
   10177.0    1221240       0.0062       0.0000       0.0000    1152.0500       1.0000       0.1043
   10177.5    1221300       0.0069       0.0000       0.0000     929.2366       1.0000       0.1087
   10178.0    1221360       0.0082       0.0000       0.0000    1009.2460       1.0000       0.1080
   10178.5    1221420       0.0092       0.0000       0.0000    1047.6410       1.0000       0.1034
   10179.0    1221480       0.0092       0.0000       0.0000    1374.6550       1.0000       0.0935
   10179.5    1221540       0.0097       0.0000       0.0000    1287.0940       1.0000       0.1003
   10180.0    1221600       0.0106       0.0000       0.0000    1036.4780       1.0000       0.1072
   10180.5    1221660       0.0117       0.0000       0.0000     913.4529       1.0000       0.1171
   10181.0    1221720       0.0117       0.0000       0.0000     853.4800       1.0000       0.1179
   10181.5    1221780       0.0115       0.0000       0.0000     818.2073       1.0000       0.1203
   10182.0    1221840       0.0118       0.0000       0.0000    1002.0980       1.0000       0.1120
   10182.5    1221900       0.0118       0.0000       0.0000     942.3221       1.0000       0.1149
   10183.0    1221960       0.0119       0.0000       0.0000     956.7028       1.0000       0.1105
   10183.5    1222020       0.0120       0.0000       0.0000     797.3007       1.0000       0.1198
   10184.0    1222080       0.0121       0.0000       0.0000    1015.9990       1.0000       0.1095
   10184.5    1222140       0.0125       0.0000       0.0000    1306.1949       1.0000       0.0989
   10185.0    1222200       0.0127       0.0000       0.0000    1751.5240       1.0000       0.0893
   10185.5    1222260       0.0125       0.0000       0.0000    1351.7820       1.0000       0.0989
   10186.0    1222320       0.0129       0.0000       0.0000     949.0053       1.0000       0.1176
   10186.5    1222380       0.0132       0.0000       0.0000     999.9993       1.0000       0.1224
   10187.0    1222440       0.0127       0.0000       0.0000    1055.9440       1.0000       0.1113
   10187.5    1222500       0.0122       0.0000       0.0000    1164.8730       1.0000       0.1051
   10188.0    1222560       0.0116       0.0000       0.0000    1031.4760       1.0000       0.1086
   10188.5    1222620       0.0108       0.0000       0.0000     806.0734       1.0000       0.1207
   10189.0    1222680       0.0109       0.0000       0.0000     799.3279       1.0000       0.1242
   10189.5    1222740       0.0106       0.0000       0.0000     703.7536       1.0000       0.1443
   10190.0    1222800       0.0119       0.0000       0.0000     548.9053       1.0000       0.1584
   10190.5    1222860       0.0167       0.0000       0.0000     397.5811       1.0000       0.1735
   10191.0    1222920       0.0150       0.0000       0.0000     589.7642       1.0000       0.1645
   10191.5    1222980       0.0163       0.0000       0.0000     618.4922       1.0000       0.1572
   10192.0    1223040       0.0151       0.0000       0.0000     633.0358       1.0000       0.1441
   10192.5    1223100       0.0099       0.0000       0.0000     796.6754       1.0000       0.1299
   10193.0    1223160       0.0113       0.0000       0.0000    1007.4670       1.0000       0.1158
   10193.5    1223220       0.0112       0.0000       0.0000    1334.7910       1.0000       0.1024
   10194.0    1223280       0.0109       0.0000       0.0000    1218.0861       1.0000       0.1001
   10194.5    1223340       0.0107       0.0000       0.0000    1349.0291       1.0000       0.0878
   10195.0    1223400       0.0108       0.0000       0.0000    1324.7640       1.0000       0.0865
   10195.5    1223460       0.0101       0.0000       0.0000    1453.5730       1.0000       0.0858
   10196.0    1223520       0.0107       0.0000       0.0000     891.7734       1.0000       0.1074
   10196.5    1223580       0.0102       0.0000       0.0000     687.9229       1.0000       0.1166
   10197.0    1223640       0.0104       0.0000       0.0000     695.4758       1.0000       0.1209
   10197.5    1223700       0.0101       0.0000       0.0000     848.3562       1.0000       0.1128
   10198.0    1223760       0.0102       0.0000       0.0000    1161.3320       1.0000       0.0991
   10198.5    1223820       0.0103       0.0000       0.0000    1405.8940       1.0000       0.0893
   10199.0    1223880       0.0099       0.0000       0.0000    1751.6490       1.0000       0.0821
   10199.5    1223940       0.0103       0.0000       0.0000    1432.8370       1.0000       0.0874
   10200.0    1224000       0.0101       0.0000       0.0000    1080.0320       1.0000       0.1031
   10200.5    1224060       0.0101       0.0000       0.0000    1132.5129       1.0000       0.0989
   10201.0    1224120       0.0096       0.0000       0.0000    1250.2480       1.0000       0.0922
   10201.5    1224180       0.0098       0.0000       0.0000    1797.6090       1.0000       0.0745
   10202.0    1224240       0.0096       0.0000       0.0000    2188.9670       1.0000       0.0731
   10202.5    1224300       0.0100       0.0000       0.0000    2136.2590       1.0000       0.0684
   10203.0    1224360       0.0098       0.0000       0.0000    1918.8370       1.0000       0.0688
   10203.5    1224420       0.0092       0.0000       0.0000    2276.3979       1.0000       0.0625
   10204.0    1224480       0.0098       0.0000       0.0000    2084.6589       1.0000       0.0671
   10204.5    1224540       0.0096       0.0000       0.0000    2004.9930       1.0000       0.0704
   10205.0    1224600       0.0096       0.0000       0.0000    2033.0150       1.0000       0.0764
   10205.5    1224660       0.0098       0.0000       0.0000    2089.8931       1.0000       0.0767
