~VERSION INFORMATION
VERS.           2.0   :CWLS Log ASCII Standard - VERSION 2.0
WRAP.           NO    :One Line per depth step
PROD.  Schlumberger   :LAS Producer
PROG.  DLIS to ASCII 2.3                               :LAS Program name and version
CREA.        2019/04/03 19:56                          :LAS Creation date {YYYY/MM/DD hh:mm}
DLIS_CREA.  2009-Feb-18 14:32                          :DLIS Creation date and time {YYYY-MMM-DD hh:mm}
SOURCE.     WLC_PETRO_COMPUTED_OUTPUT_1.DLIS           :DLIS File Name
FILE-ID.     OUTPUT.logdata                            :File Identification Number
#--------------------------------------------------
~WELL INFORMATION
#MNEM.UNIT      DATA             DESCRIPTION
#---- ------ --------------   -----------------------------
STRT .F          566.0       :START DEPTH     
STOP .F        12302.0       :STOP DEPTH     
STEP .F            0.5       :STEP     
NULL .          -999.25      :NULL VALUE
COMP .        STATOILHYDRO                             :COMPANY
WELL .        15/9-F-14                                :WELL
FLD  .        VOLVE                                    :FIELD
LOC  .                                                 :LOCATION
CNTY .        MAERSK INSPIRER                          :COUNTY
STAT .                                                 :STATE
CTRY .                                                 :COUNTRY
API  .                                                 :API NUMBER
UWI  .                                                 :UNIQUE WELL ID
DATE .                                                 :LOG DATE
SRVC .        CROCKER DATA PROCESSING                  :SERVICE COMPANY
LATI .DEG                                              :LATITUDE
LONG .DEG                                              :LONGITUDE
GDAT .                                                 :GeoDetic Datum
#-----------------------------------------------------------------------------
~PARAMETER INFORMATION
#MNEM.UNIT    VALUE                      DESCRIPTION
#---- -----   --------------------       ------------------------
CN   .        STATOILHYDRO               :Company
WN   .        15/9-F-14                  :Well Name
FN   .        VOLVE                      :Field
CTRY .        NORWAY                     :Country
COUN .        MAERSK INSPIRER            :County or Rig name
PDAT .        MSL                        :Perm. Datum
ELZ  .M          0.00000                 :Elev. Log Zero (wrt EPD)
SRVC .        UNKNOWN                    :Service company
R2   .        INPUT                      :R2
R4   .        INPUT                      :R4
RUN  .                                   :RUN NUMBER
EPD  .                                   :Elevation of Permanent Datum above Mean Sea Level
LMF  .                                   :Logging Measured From (Name of Logging Elevation Reference)
APD  .                                   :Elevation of Depth Reference (LMF) above Permanent Datum
#-----------------------------------------------------------------------------
~CURVE INFORMATION
#MNEM.UNIT   API CODE                                  DESCRIPTION
#---- -----  --------                                  -----------------------
DEPTH.F                                                :DEPTH (BOREHOLE) {F10.1}
DEPTH..1IN                                             :Measured Depth {I11}
BVW  .V/V_DECIMAL                                      :BVW:UNKNOWN:rC:NONE:v1 {F13.4}
CARB_FLAG.UNKNOWN                                      :CARB_FLAG:UNKNOWN:rC:NONE:v1 {F13.4}
COAL_FLAG.UNKNOWN                                      :COAL_FLAG:UNKNOWN:rC:NONE:v1 {F13.4}
KLOGH.MD                                               :KLOGH:UNKNOWN:rC:NONE:v1 {F13.4}
SAND_FLAG.UNKNOWN                                      :SAND_FLAG:UNKNOWN:rC:NONE:v1 {F13.4}
VSH  .V/V_DECIMAL                                      :VSH:UNKNOWN:rC:NONE:v1 {F13.4}
#-----------------------------------------------------------------------------
# 
#    DEPTH        DEPTH           BVW       CARB_FLAG    COAL_FLAG      KLOGH      SAND_FLAG       VSH
#
~A  
# ...
    9406.0    1128720    -999.2500    -999.2500    -999.2500    -999.2500    -999.2500    -999.2500
    9406.5    1128780    -999.2500    -999.2500    -999.2500    -999.2500    -999.2500    -999.2500
    9407.0    1128840    -999.2500    -999.2500    -999.2500    -999.2500    -999.2500    -999.2500
    9407.5    1128900    -999.2500    -999.2500    -999.2500    -999.2500    -999.2500    -999.2500
    9408.0    1128960    -999.2500    -999.2500    -999.2500    -999.2500    -999.2500    -999.2500
    9408.5    1129020    -999.2500    -999.2500    -999.2500    -999.2500    -999.2500    -999.2500
    9409.0    1129080    -999.2500    -999.2500    -999.2500    -999.2500    -999.2500    -999.2500
    9409.5    1129140    -999.2500    -999.2500    -999.2500    -999.2500    -999.2500    -999.2500
    9410.0    1129200    -999.2500    -999.2500    -999.2500    -999.2500    -999.2500    -999.2500
    9410.5    1129260   -4424.2938   -4424.1756   -4424.1756   -4424.1790   -4424.1756   -4424.7469
    9411.0    1129320       0.0345       0.0000       0.0000       0.0010       0.0000       0.1667
    9411.5    1129380       0.0349       0.0000       0.0000       0.0010       0.0000       0.1683
    9412.0    1129440       0.0355       0.0000       0.0000       0.0010       0.0000       0.1778
    9412.5    1129500       0.0338       0.0000       0.0000       0.0010       0.0000       0.1892
    9413.0    1129560       0.0406       0.0000       0.0000       0.0010       0.0000       0.1989
    9413.5    1129620       0.0430       0.0000       0.0000       0.0010       0.0000       0.1897
    9414.0    1129680       0.0401       0.0000       0.0000       0.0010       0.0000       0.1787
    9414.5    1129740       0.0345       0.0000       0.0000       0.0010       0.0000       0.1788
    9415.0    1129800       0.0325       0.0000       0.0000       0.0010       0.0000       0.1796
    9415.5    1129860       0.0336       0.0000       0.0000       0.0010       0.0000       0.1812
    9416.0    1129920       0.0349       0.0000       0.0000       0.0010       0.0000       0.1759
    9416.5    1129980       0.0359       0.0000       0.0000       0.0010       0.0000       0.1830
    9417.0    1130040       0.0360       0.0000       0.0000       0.0010       0.0000       0.1791
    9417.5    1130100       0.0352       0.0000       0.0000       0.0010       0.0000       0.1868
    9418.0    1130160       0.0377       0.0000       0.0000       0.0010       0.0000       0.1885
    9418.5    1130220       0.0434       0.0000       0.0000       0.0010       0.0000       0.1885
    9419.0    1130280       0.0486       0.0000       0.0000       0.0010       0.0000       0.1778
    9419.5    1130340       0.0467       0.0000       0.0000       0.0010       0.0000       0.1771
    9420.0    1130400       0.0463       0.0000       0.0000       0.0010       0.0000       0.1865
    9420.5    1130460       0.0449       0.0000       0.0000       0.0010       0.0000       0.2000
    9421.0    1130520       0.0491       0.0000       0.0000       0.0010       0.0000       0.2078
    9421.5    1130580       0.0537       0.0000       0.0000       0.0010       0.0000       0.2073
    9422.0    1130640       0.0545       0.0000       0.0000       0.0010       0.0000       0.2129
    9422.5    1130700       0.0542       0.0000       0.0000       0.0010       0.0000       0.2251
    9423.0    1130760       0.0516       0.0000       0.0000       0.0010       0.0000       0.2462
    9423.5    1130820       0.0511       0.0000       0.0000       0.0010       0.0000       0.2740
    9424.0    1130880       0.0510       0.0000       0.0000       0.0010       0.0000       0.2857
    9424.5    1130940       0.0511       0.0000       0.0000       0.0010       0.0000       0.2872
    9425.0    1131000       0.0540       0.0000       0.0000       0.0010       0.0000       0.2869
    9425.5    1131060       0.0576       0.0000       0.0000       0.0010       0.0000       0.2956
    9426.0    1131120       0.0568       0.0000       0.0000       0.0010       0.0000       0.3064
    9426.5    1131180       0.0559       0.0000       0.0000       0.0010       0.0000       0.3045
    9427.0    1131240       0.0494       0.0000       0.0000       0.0010       0.0000       0.2876
    9427.5    1131300       0.0461       0.0000       0.0000       0.0010       0.0000       0.2615
    9428.0    1131360       0.0397       0.0000       0.0000       0.0010       0.0000       0.2298
    9428.5    1131420       0.0407       0.0000       0.0000       0.0010       0.0000       0.2200
    9429.0    1131480       0.0467       0.0000       0.0000       0.0010       0.0000       0.2129
    9429.5    1131540       0.0518       0.0000       0.0000       0.0010       0.0000       0.2170
    9430.0    1131600       0.0523       0.0000       0.0000       0.0010       0.0000       0.2073
    9430.5    1131660       0.0478       0.0000       0.0000       0.0010       0.0000       0.2185
    9431.0    1131720       0.0505       0.0000       0.0000       0.0010       0.0000       0.2270
    9431.5    1131780       0.0580       0.0000       0.0000       0.0010       0.0000       0.2516
    9432.0    1131840       0.0667       0.0000       0.0000       0.0010       0.0000       0.2749
    9432.5    1131900       0.0697       0.0000       0.0000       0.0010       0.0000       0.3130
    9433.0    1131960       0.0670       0.0000       0.0000       0.0010       0.0000       0.3281
    9433.5    1132020       0.0625       0.0000       0.0000       0.0010       0.0000       0.3306
    9434.0    1132080       0.0597       0.0000       0.0000       0.0010       0.0000       0.3176
    9434.5    1132140       0.0545       0.0000       0.0000       0.0010       0.0000       0.3070
    9435.0    1132200       0.0519       0.0000       0.0000       0.0010       0.0000       0.3004
    9435.5    1132260       0.0466       0.0000       0.0000       0.0010       0.0000       0.2767
    9436.0    1132320       0.0473       0.0000       0.0000       0.0010       0.0000       0.2556
    9436.5    1132380       0.0450       0.0000       0.0000       0.0010       0.0000       0.2266
    9437.0    1132440       0.0454       0.0000       0.0000       0.0010       0.0000       0.2312
    9437.5    1132500       0.0464       0.0000       0.0000       0.0010       0.0000       0.2561
    9438.0    1132560       0.0470       0.0000       0.0000       0.0010       0.0000       0.2863
    9438.5    1132620       0.0448       0.0000       0.0000       0.0010       0.0000       0.3036
    9439.0    1132680       0.0413       0.0000       0.0000       0.0010       0.0000       0.2891
    9439.5    1132740       0.0375       0.0000       0.0000       0.0010       0.0000       0.2644
    9440.0    1132800       0.0426       0.0000       0.0000       0.0010       0.0000       0.2411
    9440.5    1132860       0.0439       0.0000       0.0000       0.0010       0.0000       0.2508
    9441.0    1132920       0.0404       0.0000       0.0000       0.0010       0.0000       0.2782
    9441.5    1132980       0.0304       0.0000       0.0000       0.0010       0.0000       0.2790
    9442.0    1133040       0.0265       0.0000       0.0000       0.0010       0.0000       0.2450
    9442.5    1133100       0.0320       0.0000       0.0000       0.0010       0.0000       0.2060
    9443.0    1133160       0.0375       0.0000       0.0000       0.0010       0.0000       0.1995
    9443.5    1133220       0.0432       0.0000       0.0000       0.0010       0.0000       0.2442
    9444.0    1133280       0.0459       0.0000       0.0000       0.0010       0.0000       0.2956
    9444.5    1133340       0.0475       0.0000       0.0000       0.0010       0.0000       0.3309
    9445.0    1133400       0.0454       0.0000       0.0000       0.0010       0.0000       0.3251
    9445.5    1133460       0.0427       0.0000       0.0000       0.0010       0.0000       0.2936
