~VERSION INFORMATION
VERS.           2.0   :CWLS Log ASCII Standard - VERSION 2.0
WRAP.           NO    :One Line per depth step
PROD.  Schlumberger   :LAS Producer
PROG.  DLIS to ASCII 2.3                               :LAS Program name and version
CREA.        2019/04/03 19:56                          :LAS Creation date {YYYY/MM/DD hh:mm}
DLIS_CREA.  2009-Feb-18 14:32                          :DLIS Creation date and time {YYYY-MMM-DD hh:mm}
SOURCE.     WLC_PETRO_COMPUTED_OUTPUT_1.DLIS           :DLIS File Name
FILE-ID.     OUTPUT.logdata                            :File Identification Number
#--------------------------------------------------
~WELL INFORMATION
#MNEM.UNIT      DATA             DESCRIPTION
#---- ------ --------------   -----------------------------
STRT .F          566.0       :START DEPTH     
STOP .F        12302.0       :STOP DEPTH     
STEP .F            0.5       :STEP     
NULL .          -999.25      :NULL VALUE
COMP .        STATOILHYDRO                             :COMPANY
WELL .        15/9-F-14                                :WELL
FLD  .        VOLVE                                    :FIELD
LOC  .                                                 :LOCATION
CNTY .        MAERSK INSPIRER                          :COUNTY
STAT .                                                 :STATE
CTRY .                                                 :COUNTRY
API  .                                                 :API NUMBER
UWI  .                                                 :UNIQUE WELL ID
DATE .                                                 :LOG DATE
SRVC .        CROCKER DATA PROCESSING                  :SERVICE COMPANY
LATI .DEG                                              :LATITUDE
LONG .DEG                                              :LONGITUDE
GDAT .                                                 :GeoDetic Datum
#-----------------------------------------------------------------------------
~PARAMETER INFORMATION
#MNEM.UNIT    VALUE                      DESCRIPTION
#---- -----   --------------------       ------------------------
CN   .        STATOILHYDRO               :Company
WN   .        15/9-F-14                  :Well Name
FN   .        VOLVE                      :Field
CTRY .        NORWAY                     :Country
COUN .        MAERSK INSPIRER            :County or Rig name
PDAT .        MSL                        :Perm. Datum
ELZ  .M          0.00000                 :Elev. Log Zero (wrt EPD)
SRVC .        UNKNOWN                    :Service company
R2   .        INPUT                      :R2
R4   .        INPUT                      :R4
RUN  .                                   :RUN NUMBER
EPD  .                                   :Elevation of Permanent Datum above Mean Sea Level
LMF  .                                   :Logging Measured From (Name of Logging Elevation Reference)
APD  .                                   :Elevation of Depth Reference (LMF) above Permanent Datum
#-----------------------------------------------------------------------------
~CURVE INFORMATION
#MNEM.UNIT   API CODE                                  DESCRIPTION
#---- -----  --------                                  -----------------------
DEPTH.F                                                :DEPTH (BOREHOLE) {F10.1}
DEPTH..1IN                                             :Measured Depth {I11}
BVW  .V/V_DECIMAL                                      :BVW:UNKNOWN:rC:NONE:v1 {F13.4}
CARB_FLAG.UNKNOWN                                      :CARB_FLAG:UNKNOWN:rC:NONE:v1 {F13.4}
COAL_FLAG.UNKNOWN                                      :COAL_FLAG:UNKNOWN:rC:NONE:v1 {F13.4}
KLOGH.MD                                               :KLOGH:UNKNOWN:rC:NONE:v1 {F13.4}
SAND_FLAG.UNKNOWN                                      :SAND_FLAG:UNKNOWN:rC:NONE:v1 {F13.4}
VSH  .V/V_DECIMAL                                      :VSH:UNKNOWN:rC:NONE:v1 {F13.4}
#-----------------------------------------------------------------------------
# 
#    DEPTH        DEPTH           BVW       CARB_FLAG    COAL_FLAG      KLOGH      SAND_FLAG       VSH
#
~A  
# ...
   12046.0    1445520       0.0646       0.0000       0.0000       2.3133       1.0000       0.3837
   12046.5    1445580       0.0643       0.0000       0.0000       2.1951       1.0000       0.3835
   12047.0    1445640       0.0647       0.0000       0.0000       2.3219       1.0000       0.3826
   12047.5    1445700       0.0647       0.0000       0.0000       2.5595       1.0000       0.3756
   12048.0    1445760       0.0641       0.0000       0.0000       3.2099       1.0000       0.3639
   12048.5    1445820       0.0644       0.0000       0.0000       3.2259       1.0000       0.3645
   12049.0    1445880       0.0653       0.0000       0.0000       3.6400       1.0000       0.3653
   12049.5    1445940       0.0656       0.0000       0.0000       1.7380       1.0000       0.3975
   12050.0    1446000       0.0656       0.0000       0.0000       1.3808       1.0000       0.4040
   12050.5    1446060       0.0663       0.0000       0.0000       1.1819       1.0000       0.4155
   12051.0    1446120       0.0659       0.0000       0.0000       1.1878       1.0000       0.4096
   12051.5    1446180       0.0665       0.0000       0.0000       0.9177       1.0000       0.4228
   12052.0    1446240       0.0664       0.0000       0.0000       0.6796       1.0000       0.4373
   12052.5    1446300       0.0670       0.0000       0.0000       0.5707       1.0000       0.4498
   12053.0    1446360       0.0673       0.0000       0.0000       0.4398       1.0000       0.4611
   12053.5    1446420       0.0676       0.0000       0.0000       0.2495       1.0000       0.4850
   12054.0    1446480       0.0679       0.0000       0.0000       0.1397       0.0000       0.5106
   12054.5    1446540       0.0681       0.0000       0.0000       0.1319       0.0000       0.5166
   12055.0    1446600       0.0684       0.0000       0.0000       0.2195       1.0000       0.4953
   12055.5    1446660       0.0686       0.0000       0.0000       0.2328       1.0000       0.4935
   12056.0    1446720       0.0686       0.0000       0.0000       0.1789       0.0000       0.5017
   12056.5    1446780       0.0690       0.0000       0.0000       0.1325       0.0000       0.5209
   12057.0    1446840       0.0690       0.0000       0.0000       0.1350       0.0000       0.5224
   12057.5    1446900       0.0688       0.0000       0.0000       0.1653       0.0000       0.5057
   12058.0    1446960       0.0693       0.0000       0.0000       0.2126       1.0000       0.4966
   12058.5    1447020       0.0687       0.0000       0.0000       0.3044       1.0000       0.4769
   12059.0    1447080       0.0696       0.0000       0.0000       0.4694       1.0000       0.4610
   12059.5    1447140       0.0693       0.0000       0.0000       0.4908       1.0000       0.4539
   12060.0    1447200       0.0705       0.0000       0.0000       0.5078       1.0000       0.4550
   12060.5    1447260       0.0708       0.0000       0.0000       0.4166       1.0000       0.4607
   12061.0    1447320       0.0715       0.0000       0.0000       0.6590       1.0000       0.4407
   12061.5    1447380       0.0716       0.0000       0.0000       1.1570       1.0000       0.4158
   12062.0    1447440       0.0714       0.0000       0.0000       1.6170       1.0000       0.3958
   12062.5    1447500       0.0716       0.0000       0.0000       1.2641       1.0000       0.4051
   12063.0    1447560       0.0732       0.0000       0.0000       1.0025       1.0000       0.4120
   12063.5    1447620       0.0749       0.0000       0.0000       0.8063       1.0000       0.4242
   12064.0    1447680       0.0750       0.0000       0.0000       0.7185       1.0000       0.4253
   12064.5    1447740       0.0750       0.0000       0.0000       0.7416       1.0000       0.4194
   12065.0    1447800       0.0757       0.0000       0.0000       0.4914       1.0000       0.4339
   12065.5    1447860       0.0744       0.0000       0.0000       0.6524       1.0000       0.4182
   12066.0    1447920       0.0772       0.0000       0.0000       0.5446       1.0000       0.4222
   12066.5    1447980       0.0786       0.0000       0.0000       0.7031       1.0000       0.4121
   12067.0    1448040       0.0829       0.0000       0.0000       0.6934       1.0000       0.4166
   12067.5    1448100       0.0841       0.0000       0.0000       0.5811       1.0000       0.4232
   12068.0    1448160       0.0852       0.0000       0.0000       0.5649       1.0000       0.4266
   12068.5    1448220       0.0801       0.0000       0.0000       0.4048       1.0000       0.4303
   12069.0    1448280       0.0793       0.0000       0.0000       0.2881       1.0000       0.4436
   12069.5    1448340       0.0755       0.0000       0.0000       0.1190       1.0000       0.4528
   12070.0    1448400       0.0761       0.0000       0.0000       0.0519       1.0000       0.4851
   12070.5    1448460       0.0787       0.0000       0.0000       0.0687       1.0000       0.4982
   12071.0    1448520       0.0789       0.0000       0.0000       0.0457       0.0000       0.5184
   12071.5    1448580       0.0659       0.0000       0.0000       0.0173       0.0000       0.5279
   12072.0    1448640       0.0494       0.0000       0.0000       0.0069       0.0000       0.5245
   12072.5    1448700       0.0378       0.0000       0.0000       0.0069       0.0000       0.5022
   12073.0    1448760       0.0629       0.0000       0.0000       0.0069       0.0000       0.4743
   12073.5    1448820       0.0701       0.0000       0.0000       0.0010       0.0000       0.4621
   12074.0    1448880       1.0000       0.0000       1.0000       0.0010       0.0000       0.4721
   12074.5    1448940       1.0000       0.0000       1.0000       0.0010       0.0000       0.4887
   12075.0    1449000       1.0000       0.0000       1.0000       0.0010       0.0000       0.5293
   12075.5    1449060       1.0000       0.0000       1.0000       0.0010       0.0000       0.5726
   12076.0    1449120       1.0000       0.0000       1.0000       0.0010       0.0000       0.6092
   12076.5    1449180       1.0000       0.0000       1.0000       0.0010       0.0000       0.6194
   12077.0    1449240       1.0000       0.0000       1.0000       0.0010       0.0000       0.6316
   12077.5    1449300       1.0000       0.0000       1.0000       0.0010       0.0000       0.6504
   12078.0    1449360       1.0000       0.0000       1.0000       0.0010       0.0000       0.6561
   12078.5    1449420       1.0000       0.0000       1.0000       0.0010       0.0000       0.6492
   12079.0    1449480       0.0286       0.0000       0.0000       0.0010       0.0000       0.6383
   12079.5    1449540       0.0344       0.0000       0.0000       0.0010       0.0000       0.6169
   12080.0    1449600       0.0400       0.0000       0.0000       0.0638       0.0000       0.5706
   12080.5    1449660       0.0457       1.0000       0.0000       0.0094       0.0000       0.4952
   12081.0    1449720       0.0473       1.0000       0.0000       0.0043       0.0000       0.4403
   12081.5    1449780       0.0474       1.0000       0.0000       0.0054       0.0000       0.3936
   12082.0    1449840       0.0474       1.0000       0.0000       0.0056       0.0000       0.3847
   12082.5    1449900       0.0469       1.0000       0.0000       0.0050       0.0000       0.3994
   12083.0    1449960       0.0477       1.0000       0.0000       0.0044       0.0000       0.4407
   12083.5    1450020       0.0541       1.0000       0.0000       0.0058       0.0000       0.4838
   12084.0    1450080       0.0598       1.0000       0.0000       0.0078       0.0000       0.5108
   12084.5    1450140       0.0600       0.0000       0.0000       0.0063       0.0000       0.5284
   12085.0    1450200       0.0615       0.0000       0.0000       0.0075       0.0000       0.5536
   12085.5    1450260       0.0593       0.0000       0.0000       0.0272       0.0000       0.5918
