~VERSION INFORMATION
VERS.           2.0   :CWLS Log ASCII Standard - VERSION 2.0
WRAP.           NO    :One Line per depth step
PROD.  Schlumberger   :LAS Producer
PROG.  DLIS to ASCII 2.3                               :LAS Program name and version
CREA.        2019/04/03 19:56                          :LAS Creation date {YYYY/MM/DD hh:mm}
DLIS_CREA.  2009-Feb-18 14:32                          :DLIS Creation date and time {YYYY-MMM-DD hh:mm}
SOURCE.     WLC_PETRO_COMPUTED_OUTPUT_1.DLIS           :DLIS File Name
FILE-ID.     OUTPUT.logdata                            :File Identification Number
#--------------------------------------------------
~WELL INFORMATION
#MNEM.UNIT      DATA             DESCRIPTION
#---- ------ --------------   -----------------------------
STRT .F          566.0       :START DEPTH     
STOP .F        12302.0       :STOP DEPTH     
STEP .F            0.5       :STEP     
NULL .          -999.25      :NULL VALUE
COMP .        STATOILHYDRO                             :COMPANY
WELL .        15/9-F-14                                :WELL
FLD  .        VOLVE                                    :FIELD
LOC  .                                                 :LOCATION
CNTY .        MAERSK INSPIRER                          :COUNTY
STAT .                                                 :STATE
CTRY .                                                 :COUNTRY
API  .                                                 :API NUMBER
UWI  .                                                 :UNIQUE WELL ID
DATE .                                                 :LOG DATE
SRVC .        CROCKER DATA PROCESSING                  :SERVICE COMPANY
LATI .DEG                                              :LATITUDE
LONG .DEG                                              :LONGITUDE
GDAT .                                                 :GeoDetic Datum
#-----------------------------------------------------------------------------
~PARAMETER INFORMATION
#MNEM.UNIT    VALUE                      DESCRIPTION
#---- -----   --------------------       ------------------------
CN   .        STATOILHYDRO               :Company
WN   .        15/9-F-14                  :Well Name
FN   .        VOLVE                      :Field
CTRY .        NORWAY                     :Country
COUN .        MAERSK INSPIRER            :County or Rig name
PDAT .        MSL                        :Perm. Datum
ELZ  .M          0.00000                 :Elev. Log Zero (wrt EPD)
SRVC .        UNKNOWN                    :Service company
R2   .        INPUT                      :R2
R4   .        INPUT                      :R4
RUN  .                                   :RUN NUMBER
EPD  .                                   :Elevation of Permanent Datum above Mean Sea Level
LMF  .                                   :Logging Measured From (Name of Logging Elevation Reference)
APD  .                                   :Elevation of Depth Reference (LMF) above Permanent Datum
#-----------------------------------------------------------------------------
~CURVE INFORMATION
#MNEM.UNIT   API CODE                                  DESCRIPTION
#---- -----  --------                                  -----------------------
DEPTH.F                                                :DEPTH (BOREHOLE) {F10.1}
DEPTH..1IN                                             :Measured Depth {I11}
BVW  .V/V_DECIMAL                                      :BVW:UNKNOWN:rC:NONE:v1 {F13.4}
CARB_FLAG.UNKNOWN                                      :CARB_FLAG:UNKNOWN:rC:NONE:v1 {F13.4}
COAL_FLAG.UNKNOWN                                      :COAL_FLAG:UNKNOWN:rC:NONE:v1 {F13.4}
KLOGH.MD                                               :KLOGH:UNKNOWN:rC:NONE:v1 {F13.4}
SAND_FLAG.UNKNOWN                                      :SAND_FLAG:UNKNOWN:rC:NONE:v1 {F13.4}
VSH  .V/V_DECIMAL                                      :VSH:UNKNOWN:rC:NONE:v1 {F13.4}
#-----------------------------------------------------------------------------
# 
#    DEPTH        DEPTH           BVW       CARB_FLAG    COAL_FLAG      KLOGH      SAND_FLAG       VSH
#
~A  
# ...
   10926.0    1311120       0.0403       1.0000       0.0000       0.9224       0.0000       0.3927
   10926.5    1311180       0.0403       1.0000       0.0000       1.4729       0.0000       0.3734
   10927.0    1311240       0.0402       1.0000       0.0000       1.0960       0.0000       0.3812
   10927.5    1311300       0.0407       0.0000       0.0000       1.0687       1.0000       0.3904
   10928.0    1311360       0.0413       0.0000       0.0000       1.1177       1.0000       0.3878
   10928.5    1311420       0.0405       0.0000       0.0000       1.3613       1.0000       0.3821
   10929.0    1311480       0.0408       0.0000       0.0000       2.2891       1.0000       0.3699
   10929.5    1311540       0.0404       0.0000       0.0000       2.3352       1.0000       0.3772
   10930.0    1311600       0.0412       0.0000       0.0000       2.7677       1.0000       0.3781
   10930.5    1311660       0.0407       0.0000       0.0000       4.0287       1.0000       0.3666
   10931.0    1311720       0.0408       0.0000       0.0000       5.0974       1.0000       0.3543
   10931.5    1311780       0.0389       0.0000       0.0000       6.0695       1.0000       0.3439
   10932.0    1311840       0.0399       0.0000       0.0000       7.3594       1.0000       0.3321
   10932.5    1311900       0.0385       0.0000       0.0000       9.1082       1.0000       0.3282
   10933.0    1311960       0.0389       0.0000       0.0000       8.0321       1.0000       0.3365
   10933.5    1312020       0.0386       0.0000       0.0000       6.7833       1.0000       0.3473
   10934.0    1312080       0.0386       0.0000       0.0000       5.0152       1.0000       0.3595
   10934.5    1312140       0.0379       0.0000       0.0000       4.4689       1.0000       0.3607
   10935.0    1312200       0.0380       0.0000       0.0000       4.5486       1.0000       0.3624
   10935.5    1312260       0.0376       0.0000       0.0000       3.8217       1.0000       0.3703
   10936.0    1312320       0.0375       0.0000       0.0000       3.6685       1.0000       0.3743
   10936.5    1312380       0.0387       0.0000       0.0000       3.0907       1.0000       0.3864
   10937.0    1312440       0.0369       0.0000       0.0000       3.6669       1.0000       0.3774
   10937.5    1312500       0.0373       0.0000       0.0000       3.6588       1.0000       0.3769
   10938.0    1312560       0.0378       0.0000       0.0000       4.3422       1.0000       0.3722
   10938.5    1312620       0.0363       0.0000       0.0000       4.2305       1.0000       0.3757
   10939.0    1312680       0.0361       0.0000       0.0000       5.0168       1.0000       0.3607
   10939.5    1312740       0.0370       0.0000       0.0000       6.4673       1.0000       0.3576
   10940.0    1312800       0.0356       0.0000       0.0000       7.9489       1.0000       0.3409
   10940.5    1312860       0.0368       0.0000       0.0000       5.9221       1.0000       0.3544
   10941.0    1312920       0.0376       0.0000       0.0000       6.8642       1.0000       0.3519
   10941.5    1312980       0.0363       0.0000       0.0000       5.5819       1.0000       0.3679
   10942.0    1313040       0.0358       0.0000       0.0000       5.7178       1.0000       0.3605
   10942.5    1313100       0.0361       0.0000       0.0000       4.6207       1.0000       0.3631
   10943.0    1313160       0.0367       0.0000       0.0000       4.9046       1.0000       0.3588
   10943.5    1313220       0.0362       0.0000       0.0000       6.8645       1.0000       0.3481
   10944.0    1313280       0.0372       0.0000       0.0000       7.6922       1.0000       0.3408
   10944.5    1313340       0.0369       0.0000       0.0000       6.1926       1.0000       0.3453
   10945.0    1313400       0.0380       0.0000       0.0000       4.5932       1.0000       0.3570
   10945.5    1313460       0.0375       0.0000       0.0000       4.8793       1.0000       0.3567
   10946.0    1313520       0.0379       0.0000       0.0000       5.1883       1.0000       0.3507
   10946.5    1313580       0.0382       0.0000       0.0000       4.9610       1.0000       0.3522
   10947.0    1313640       0.0381       0.0000       0.0000       4.5046       1.0000       0.3594
   10947.5    1313700       0.0390       0.0000       0.0000       4.2679       1.0000       0.3666
   10948.0    1313760       0.0388       0.0000       0.0000       4.7340       1.0000       0.3569
   10948.5    1313820       0.0384       0.0000       0.0000       3.9454       1.0000       0.3620
   10949.0    1313880       0.0383       0.0000       0.0000       4.3583       1.0000       0.3626
   10949.5    1313940       0.0388       0.0000       0.0000       3.9621       1.0000       0.3679
   10950.0    1314000       0.0393       0.0000       0.0000       5.3877       1.0000       0.3518
   10950.5    1314060       0.0393       0.0000       0.0000       5.3432       1.0000       0.3494
   10951.0    1314120       0.0390       0.0000       0.0000       6.3060       1.0000       0.3441
   10951.5    1314180       0.0385       0.0000       0.0000       5.5622       1.0000       0.3502
   10952.0    1314240       0.0389       0.0000       0.0000       4.1627       1.0000       0.3606
   10952.5    1314300       0.0384       0.0000       0.0000       3.3393       1.0000       0.3701
   10953.0    1314360       0.0390       0.0000       0.0000       3.0530       1.0000       0.3755
   10953.5    1314420       0.0397       0.0000       0.0000       4.3987       1.0000       0.3660
   10954.0    1314480       0.0393       0.0000       0.0000       5.5251       1.0000       0.3551
   10954.5    1314540       0.0394       0.0000       0.0000       5.4683       1.0000       0.3538
   10955.0    1314600       0.0395       0.0000       0.0000       7.7967       1.0000       0.3363
   10955.5    1314660       0.0399       0.0000       0.0000       7.6516       1.0000       0.3375
   10956.0    1314720       0.0402       0.0000       0.0000       9.0262       1.0000       0.3345
   10956.5    1314780       0.0397       0.0000       0.0000       6.2558       1.0000       0.3476
   10957.0    1314840       0.0390       0.0000       0.0000       8.4716       1.0000       0.3387
   10957.5    1314900       0.0390       0.0000       0.0000       9.0578       1.0000       0.3268
   10958.0    1314960       0.0398       0.0000       0.0000      10.2325       1.0000       0.3218
   10958.5    1315020       0.0392       0.0000       0.0000       4.4776       1.0000       0.3584
   10959.0    1315080       0.0393       0.0000       0.0000       2.9847       1.0000       0.3819
   10959.5    1315140       0.0380       0.0000       0.0000       2.3242       1.0000       0.3907
   10960.0    1315200       0.0386       0.0000       0.0000       3.5413       1.0000       0.3657
   10960.5    1315260       0.0386       0.0000       0.0000       3.9806       1.0000       0.3612
   10961.0    1315320       0.0381       0.0000       0.0000       3.8550       1.0000       0.3640
   10961.5    1315380       0.0379       0.0000       0.0000       3.8051       1.0000       0.3704
   10962.0    1315440       0.0388       0.0000       0.0000       4.3294       1.0000       0.3656
   10962.5    1315500       0.0374       0.0000       0.0000       4.1221       1.0000       0.3690
   10963.0    1315560       0.0369       0.0000       0.0000       4.2707       1.0000       0.3712
   10963.5    1315620       0.0369       0.0000       0.0000       3.8950       1.0000       0.3757
   10964.0    1315680       0.0365       0.0000       0.0000       2.5638       1.0000       0.3907
   10964.5    1315740       0.0371       0.0000       0.0000       2.2312       1.0000       0.3956
   10965.0    1315800       0.0375       0.0000       0.0000       2.5798       1.0000       0.3895
   10965.5    1315860       0.0371       0.0000       0.0000       4.0134       1.0000       0.3710
