~VERSION INFORMATION
VERS.           2.0   :CWLS Log ASCII Standard - VERSION 2.0
WRAP.           NO    :One Line per depth step
PROD.  Schlumberger   :LAS Producer
PROG.  DLIS to ASCII 2.3                               :LAS Program name and version
CREA.        2019/04/03 19:56                          :LAS Creation date {YYYY/MM/DD hh:mm}
DLIS_CREA.  2009-Feb-18 14:32                          :DLIS Creation date and time {YYYY-MMM-DD hh:mm}
SOURCE.     WLC_PETRO_COMPUTED_OUTPUT_1.DLIS           :DLIS File Name
FILE-ID.     OUTPUT.logdata                            :File Identification Number
#--------------------------------------------------
~WELL INFORMATION
#MNEM.UNIT      DATA             DESCRIPTION
#---- ------ --------------   -----------------------------
STRT .F          566.0       :START DEPTH     
STOP .F        12302.0       :STOP DEPTH     
STEP .F            0.5       :STEP     
NULL .          -999.25      :NULL VALUE
COMP .        STATOILHYDRO                             :COMPANY
WELL .        15/9-F-14                                :WELL
FLD  .        VOLVE                                    :FIELD
LOC  .                                                 :LOCATION
CNTY .        MAERSK INSPIRER                          :COUNTY
STAT .                                                 :STATE
CTRY .                                                 :COUNTRY
API  .                                                 :API NUMBER
UWI  .                                                 :UNIQUE WELL ID
DATE .                                                 :LOG DATE
SRVC .        CROCKER DATA PROCESSING                  :SERVICE COMPANY
LATI .DEG                                              :LATITUDE
LONG .DEG                                              :LONGITUDE
GDAT .                                                 :GeoDetic Datum
#-----------------------------------------------------------------------------
~PARAMETER INFORMATION
#MNEM.UNIT    VALUE                      DESCRIPTION
#---- -----   --------------------       ------------------------
CN   .        STATOILHYDRO               :Company
WN   .        15/9-F-14                  :Well Name
FN   .        VOLVE                      :Field
CTRY .        NORWAY                     :Country
COUN .        MAERSK INSPIRER            :County or Rig name
PDAT .        MSL                        :Perm. Datum
ELZ  .M          0.00000                 :Elev. Log Zero (wrt EPD)
SRVC .        UNKNOWN                    :Service company
R2   .        INPUT                      :R2
R4   .        INPUT                      :R4
RUN  .                                   :RUN NUMBER
EPD  .                                   :Elevation of Permanent Datum above Mean Sea Level
LMF  .                                   :Logging Measured From (Name of Logging Elevation Reference)
APD  .                                   :Elevation of Depth Reference (LMF) above Permanent Datum
#-----------------------------------------------------------------------------
~CURVE INFORMATION
#MNEM.UNIT   API CODE                                  DESCRIPTION
#---- -----  --------                                  -----------------------
DEPTH.F                                                :DEPTH (BOREHOLE) {F10.1}
DEPTH..1IN                                             :Measured Depth {I11}
BVW  .V/V_DECIMAL                                      :BVW:UNKNOWN:rC:NONE:v1 {F13.4}
CARB_FLAG.UNKNOWN                                      :CARB_FLAG:UNKNOWN:rC:NONE:v1 {F13.4}
COAL_FLAG.UNKNOWN                                      :COAL_FLAG:UNKNOWN:rC:NONE:v1 {F13.4}
KLOGH.MD                                               :KLOGH:UNKNOWN:rC:NONE:v1 {F13.4}
SAND_FLAG.UNKNOWN                                      :SAND_FLAG:UNKNOWN:rC:NONE:v1 {F13.4}
VSH  .V/V_DECIMAL                                      :VSH:UNKNOWN:rC:NONE:v1 {F13.4}
#-----------------------------------------------------------------------------
# 
#    DEPTH        DEPTH           BVW       CARB_FLAG    COAL_FLAG      KLOGH      SAND_FLAG       VSH
#
~A  
# ...
   11886.0    1426320       0.0215       0.0000       0.0000      43.2713       1.0000       0.2112
   11886.5    1426380       0.0212       0.0000       0.0000      28.1645       1.0000       0.2260
   11887.0    1426440       0.0220       0.0000       0.0000      11.3099       1.0000       0.2630
   11887.5    1426500       0.0205       0.0000       0.0000       4.4796       1.0000       0.3037
   11888.0    1426560       0.0192       1.0000       0.0000       1.7841       0.0000       0.3389
   11888.5    1426620       0.0249       1.0000       0.0000       0.9807       0.0000       0.3671
   11889.0    1426680       0.0262       1.0000       0.0000       0.6996       0.0000       0.3917
   11889.5    1426740       0.0246       0.0000       0.0000       0.5809       1.0000       0.4112
   11890.0    1426800       0.0266       0.0000       0.0000       0.4730       1.0000       0.4231
   11890.5    1426860       0.0273       0.0000       0.0000       0.3268       1.0000       0.4418
   11891.0    1426920       0.0372       0.0000       0.0000       0.3626       1.0000       0.4518
   11891.5    1426980       0.0449       0.0000       0.0000       0.4596       1.0000       0.4529
   11892.0    1427040       0.0474       0.0000       0.0000       0.6252       1.0000       0.4453
   11892.5    1427100       0.0491       0.0000       0.0000       0.9896       1.0000       0.4278
   11893.0    1427160       0.0513       0.0000       0.0000       1.2190       1.0000       0.4171
   11893.5    1427220       0.0532       0.0000       0.0000       1.4094       1.0000       0.4146
   11894.0    1427280       0.0535       0.0000       0.0000       1.2631       1.0000       0.4177
   11894.5    1427340       0.0549       0.0000       0.0000       1.3666       1.0000       0.4156
   11895.0    1427400       0.0559       0.0000       0.0000       1.6069       1.0000       0.4069
   11895.5    1427460       0.0552       0.0000       0.0000       1.8427       1.0000       0.3957
   11896.0    1427520       0.0575       0.0000       0.0000       2.3168       1.0000       0.3799
   11896.5    1427580       0.0581       0.0000       0.0000       2.9245       1.0000       0.3699
   11897.0    1427640       0.0577       0.0000       0.0000       2.6582       1.0000       0.3710
   11897.5    1427700       0.0578       0.0000       0.0000       2.1004       1.0000       0.3807
   11898.0    1427760       0.0564       0.0000       0.0000       2.1509       1.0000       0.3785
   11898.5    1427820       0.0560       0.0000       0.0000       3.4766       1.0000       0.3681
   11899.0    1427880       0.0545       0.0000       0.0000       4.7269       1.0000       0.3518
   11899.5    1427940       0.0541       0.0000       0.0000       7.6683       1.0000       0.3346
   11900.0    1428000       0.0537       0.0000       0.0000       9.3477       1.0000       0.3217
   11900.5    1428060       0.0527       0.0000       0.0000       9.5554       1.0000       0.3181
   11901.0    1428120       0.0525       0.0000       0.0000       7.9015       1.0000       0.3269
   11901.5    1428180       0.0522       0.0000       0.0000       5.4147       1.0000       0.3439
   11902.0    1428240       0.0512       0.0000       0.0000       5.2794       1.0000       0.3476
   11902.5    1428300       0.0495       0.0000       0.0000       4.5960       1.0000       0.3456
   11903.0    1428360       0.0491       0.0000       0.0000       6.3489       1.0000       0.3369
   11903.5    1428420       0.0472       0.0000       0.0000       8.7900       1.0000       0.3204
   11904.0    1428480       0.0473       0.0000       0.0000      11.5176       1.0000       0.3166
   11904.5    1428540       0.0456       0.0000       0.0000      10.6139       1.0000       0.3071
   11905.0    1428600       0.0415       0.0000       0.0000       6.9231       1.0000       0.3121
   11905.5    1428660       0.0385       0.0000       0.0000       6.1436       1.0000       0.2936
   11906.0    1428720       0.0359       0.0000       0.0000       5.7168       1.0000       0.2747
   11906.5    1428780       0.0332       0.0000       0.0000       5.2547       1.0000       0.2592
   11907.0    1428840       0.0313       1.0000       0.0000       3.2078       0.0000       0.2596
   11907.5    1428900       0.0290       1.0000       0.0000       1.9099       0.0000       0.2593
   11908.0    1428960       0.0220       1.0000       0.0000       0.8735       0.0000       0.2496
   11908.5    1429020       0.0132       1.0000       0.0000       0.8973       0.0000       0.2392
   11909.0    1429080       0.0103       1.0000       0.0000       1.1208       0.0000       0.2259
   11909.5    1429140       0.0135       1.0000       0.0000       1.3206       0.0000       0.2208
   11910.0    1429200       0.0123       1.0000       0.0000       1.3522       0.0000       0.2186
   11910.5    1429260       0.0246       1.0000       0.0000       2.0386       0.0000       0.2259
   11911.0    1429320       0.0017       1.0000       0.0000       1.0058       0.0000       0.2234
   11911.5    1429380       0.0015       1.0000       0.0000       1.1583       0.0000       0.2168
   11912.0    1429440       0.0013       1.0000       0.0000       1.3109       0.0000       0.2083
   11912.5    1429500       0.0011       1.0000       0.0000       1.4635       0.0000       0.2049
   11913.0    1429560       0.0228       1.0000       0.0000       3.0690       0.0000       0.2029
   11913.5    1429620       0.0226       1.0000       0.0000       2.6153       0.0000       0.2097
   11914.0    1429680       0.0229       1.0000       0.0000       2.5622       0.0000       0.2136
   11914.5    1429740       0.0231       1.0000       0.0000       2.7508       0.0000       0.2122
   11915.0    1429800       0.0229       1.0000       0.0000       2.3999       0.0000       0.2181
   11915.5    1429860       0.0230       1.0000       0.0000       1.6754       0.0000       0.2351
   11916.0    1429920       0.0228       1.0000       0.0000       1.0872       0.0000       0.2536
   11916.5    1429980       0.0229       1.0000       0.0000       0.9268       0.0000       0.2614
   11917.0    1430040       0.0017       1.0000       0.0000       0.5155       0.0000       0.2557
   11917.5    1430100       0.0097       1.0000       0.0000       0.8797       0.0000       0.2354
   11918.0    1430160       0.0170       1.0000       0.0000       1.2438       0.0000       0.2062
   11918.5    1430220       0.0188       1.0000       0.0000       1.6079       0.0000       0.2076
   11919.0    1430280       0.0218       1.0000       0.0000       1.9720       0.0000       0.2195
   11919.5    1430340       0.0223       1.0000       0.0000       1.7163       0.0000       0.2281
   11920.0    1430400       0.0229       1.0000       0.0000       2.6575       0.0000       0.2124
   11920.5    1430460       0.0229       1.0000       0.0000       3.5739       0.0000       0.1988
   11921.0    1430520       0.0228       1.0000       0.0000       3.1013       0.0000       0.2046
   11921.5    1430580       0.0223       1.0000       0.0000       2.3243       0.0000       0.2139
   11922.0    1430640       0.0206       1.0000       0.0000       2.1846       0.0000       0.2312
   11922.5    1430700       0.0203       1.0000       0.0000       2.0449       0.0000       0.2235
   11923.0    1430760       0.0202       1.0000       0.0000       1.9052       0.0000       0.2174
   11923.5    1430820       0.0201       1.0000       0.0000       1.7655       0.0000       0.2091
   11924.0    1430880       0.0202       1.0000       0.0000       1.6258       0.0000       0.2224
   11924.5    1430940       0.0201       1.0000       0.0000       1.4862       0.0000       0.2285
   11925.0    1431000       0.0199       1.0000       0.0000       1.3465       0.0000       0.2404
   11925.5    1431060       0.0217       1.0000       0.0000       1.2068       0.0000       0.2433
