~VERSION INFORMATION
VERS.           2.0   :CWLS Log ASCII Standard - VERSION 2.0
WRAP.           NO    :One Line per depth step
PROD.  Schlumberger   :LAS Producer
PROG.  DLIS to ASCII 2.3                               :LAS Program name and version
CREA.        2019/04/03 19:56                          :LAS Creation date {YYYY/MM/DD hh:mm}
DLIS_CREA.  2009-Feb-18 14:32                          :DLIS Creation date and time {YYYY-MMM-DD hh:mm}
SOURCE.     WLC_PETRO_COMPUTED_OUTPUT_1.DLIS           :DLIS File Name
FILE-ID.     OUTPUT.logdata                            :File Identification Number
#--------------------------------------------------
~WELL INFORMATION
#MNEM.UNIT      DATA             DESCRIPTION
#---- ------ --------------   -----------------------------
STRT .F          566.0       :START DEPTH     
STOP .F        12302.0       :STOP DEPTH     
STEP .F            0.5       :STEP     
NULL .          -999.25      :NULL VALUE
COMP .        STATOILHYDRO                             :COMPANY
WELL .        15/9-F-14                                :WELL
FLD  .        VOLVE                                    :FIELD
LOC  .                                                 :LOCATION
CNTY .        MAERSK INSPIRER                          :COUNTY
STAT .                                                 :STATE
CTRY .                                                 :COUNTRY
API  .                                                 :API NUMBER
UWI  .                                                 :UNIQUE WELL ID
DATE .                                                 :LOG DATE
SRVC .        CROCKER DATA PROCESSING                  :SERVICE COMPANY
LATI .DEG                                              :LATITUDE
LONG .DEG                                              :LONGITUDE
GDAT .                                                 :GeoDetic Datum
#-----------------------------------------------------------------------------
~PARAMETER INFORMATION
#MNEM.UNIT    VALUE                      DESCRIPTION
#---- -----   --------------------       ------------------------
CN   .        STATOILHYDRO               :Company
WN   .        15/9-F-14                  :Well Name
FN   .        VOLVE                      :Field
CTRY .        NORWAY                     :Country
COUN .        MAERSK INSPIRER            :County or Rig name
PDAT .        MSL                        :Perm. Datum
ELZ  .M          0.00000                 :Elev. Log Zero (wrt EPD)
SRVC .        UNKNOWN                    :Service company
R2   .        INPUT                      :R2
R4   .        INPUT                      :R4
RUN  .                                   :RUN NUMBER
EPD  .                                   :Elevation of Permanent Datum above Mean Sea Level
LMF  .                                   :Logging Measured From (Name of Logging Elevation Reference)
APD  .                                   :Elevation of Depth Reference (LMF) above Permanent Datum
#-----------------------------------------------------------------------------
~CURVE INFORMATION
#MNEM.UNIT   API CODE                                  DESCRIPTION
#---- -----  --------                                  -----------------------
DEPTH.F                                                :DEPTH (BOREHOLE) {F10.1}
DEPTH..1IN                                             :Measured Depth {I11}
BVW  .V/V_DECIMAL                                      :BVW:UNKNOWN:rC:NONE:v1 {F13.4}
CARB_FLAG.UNKNOWN                                      :CARB_FLAG:UNKNOWN:rC:NONE:v1 {F13.4}
COAL_FLAG.UNKNOWN                                      :COAL_FLAG:UNKNOWN:rC:NONE:v1 {F13.4}
KLOGH.MD                                               :KLOGH:UNKNOWN:rC:NONE:v1 {F13.4}
SAND_FLAG.UNKNOWN                                      :SAND_FLAG:UNKNOWN:rC:NONE:v1 {F13.4}
VSH  .V/V_DECIMAL                                      :VSH:UNKNOWN:rC:NONE:v1 {F13.4}
#-----------------------------------------------------------------------------
# 
#    DEPTH        DEPTH           BVW       CARB_FLAG    COAL_FLAG      KLOGH      SAND_FLAG       VSH
#
~A  
# ...
   12246.0    1469520       0.1742       0.0000       0.0000     102.4055       1.0000       0.3690
   12246.5    1469580       0.1668       0.0000       0.0000      59.9562       1.0000       0.3445
   12247.0    1469640       0.1692       0.0000       0.0000      52.1174       1.0000       0.3493
   12247.5    1469700       0.1727       0.0000       0.0000      64.9743       1.0000       0.3564
   12248.0    1469760       0.1742       0.0000       0.0000      68.6433       1.0000       0.3687
   12248.5    1469820       0.1614       0.0000       0.0000      26.1110       1.0000       0.3737
   12249.0    1469880       0.1523       0.0000       0.0000      13.1526       1.0000       0.3770
   12249.5    1469940       0.1529       0.0000       0.0000      12.6854       1.0000       0.3944
   12250.0    1470000       0.1634       0.0000       0.0000      24.6277       1.0000       0.4183
   12250.5    1470060       0.1657       0.0000       0.0000      52.5222       1.0000       0.4446
   12251.0    1470120       0.1625       0.0000       0.0000      72.5780       1.0000       0.4337
   12251.5    1470180       0.1594       0.0000       0.0000      44.7355       1.0000       0.4251
   12252.0    1470240       0.1396       0.0000       0.0000      32.0033       1.0000       0.4230
   12252.5    1470300       0.1366       0.0000       0.0000      33.5422       1.0000       0.4474
   12253.0    1470360       0.1331       0.0000       0.0000      43.0627       1.0000       0.4553
   12253.5    1470420       0.1335       0.0000       0.0000      54.6955       1.0000       0.4686
   12254.0    1470480       0.1488       0.0000       0.0000      35.6993       1.0000       0.4728
   12254.5    1470540       0.1581       0.0000       0.0000      37.6979       1.0000       0.4796
   12255.0    1470600       0.1287       0.0000       0.0000      55.7903       1.0000       0.4729
   12255.5    1470660       0.1206       0.0000       0.0000      68.7382       1.0000       0.4702
   12256.0    1470720       0.1200       0.0000       0.0000      58.6110       1.0000       0.4741
   12256.5    1470780       0.1348       0.0000       0.0000      16.6828       1.0000       0.4978
   12257.0    1470840       0.1330       0.0000       0.0000       2.6774       0.0000       0.5447
   12257.5    1470900    -999.2500       0.0000    -999.2500    -999.2500       1.0000    -999.2500
   12258.0    1470960    -999.2500       0.0000    -999.2500    -999.2500       1.0000    -999.2500
   12258.5    1471020    -999.2500       0.0000    -999.2500    -999.2500       1.0000    -999.2500
   12259.0    1471080    -999.2500       0.0000    -999.2500    -999.2500       1.0000    -999.2500
   12259.5    1471140    -999.2500       0.0000    -999.2500    -999.2500       1.0000    -999.2500
   12260.0    1471200    -999.2500       0.0000    -999.2500    -999.2500       1.0000    -999.2500
   12260.5    1471260    -999.2500       0.0000    -999.2500    -999.2500       1.0000    -999.2500
   12261.0    1471320    -999.2500       0.0000    -999.2500    -999.2500       1.0000    -999.2500
   12261.5    1471380    -999.2500       0.0000    -999.2500    -999.2500    -999.2500    -999.2500
   12262.0    1471440    -999.2500       0.0000    -999.2500    -999.2500    -999.2500    -999.2500
   12262.5    1471500    -999.2500       0.0000    -999.2500    -999.2500    -999.2500    -999.2500
   12263.0    1471560    -999.2500       0.0000    -999.2500    -999.2500    -999.2500    -999.2500
   12263.5    1471620    -999.2500       0.0000    -999.2500    -999.2500    -999.2500    -999.2500
   12264.0    1471680    -999.2500       0.0000    -999.2500    -999.2500    -999.2500    -999.2500
   12264.5    1471740    -999.2500       0.0000    -999.2500    -999.2500    -999.2500    -999.2500
   12265.0    1471800    -999.2500       0.0000    -999.2500    -999.2500    -999.2500    -999.2500
   12265.5    1471860    -999.2500       0.0000    -999.2500    -999.2500    -999.2500    -999.2500
   12266.0    1471920    -999.2500       0.0000    -999.2500    -999.2500    -999.2500    -999.2500
   12266.5    1471980    -999.2500       0.0000    -999.2500    -999.2500    -999.2500    -999.2500
   12267.0    1472040    -999.2500       0.0000    -999.2500    -999.2500    -999.2500    -999.2500
   12267.5    1472100    -999.2500       0.0000    -999.2500    -999.2500    -999.2500    -999.2500
   12268.0    1472160    -999.2500       0.0000    -999.2500    -999.2500    -999.2500    -999.2500
   12268.5    1472220    -999.2500       0.0000    -999.2500    -999.2500    -999.2500    -999.2500
   12269.0    1472280    -999.2500       0.0000    -999.2500    -999.2500    -999.2500    -999.2500
   12269.5    1472340    -999.2500       0.0000    -999.2500    -999.2500    -999.2500    -999.2500
   12270.0    1472400    -999.2500       0.0000    -999.2500    -999.2500    -999.2500    -999.2500
   12270.5    1472460    -999.2500       0.0000    -999.2500    -999.2500    -999.2500    -999.2500
   12271.0    1472520    -999.2500       0.0000    -999.2500    -999.2500    -999.2500    -999.2500
   12271.5    1472580    -999.2500       0.0000    -999.2500    -999.2500    -999.2500    -999.2500
   12272.0    1472640    -999.2500       0.0000    -999.2500    -999.2500    -999.2500    -999.2500
   12272.5    1472700    -999.2500       0.0000    -999.2500    -999.2500    -999.2500    -999.2500
   12273.0    1472760    -999.2500       0.0000    -999.2500    -999.2500    -999.2500    -999.2500
   12273.5    1472820    -999.2500       0.0000    -999.2500    -999.2500    -999.2500    -999.2500
   12274.0    1472880    -999.2500       0.0000    -999.2500    -999.2500    -999.2500    -999.2500
   12274.5    1472940    -999.2500       0.0000    -999.2500    -999.2500    -999.2500    -999.2500
   12275.0    1473000    -999.2500       0.0000    -999.2500    -999.2500    -999.2500    -999.2500
   12275.5    1473060    -999.2500       0.0000    -999.2500    -999.2500    -999.2500    -999.2500
   12276.0    1473120    -999.2500       0.0000    -999.2500    -999.2500    -999.2500    -999.2500
   12276.5    1473180    -999.2500       0.0000    -999.2500    -999.2500    -999.2500    -999.2500
   12277.0    1473240    -999.2500       0.0000    -999.2500    -999.2500    -999.2500    -999.2500
   12277.5    1473300    -999.2500       0.0000    -999.2500    -999.2500    -999.2500    -999.2500
   12278.0    1473360    -999.2500       0.0000    -999.2500    -999.2500    -999.2500    -999.2500
   12278.5    1473420    -999.2500       0.0000    -999.2500    -999.2500    -999.2500    -999.2500
   12279.0    1473480    -999.2500       0.0000    -999.2500    -999.2500    -999.2500    -999.2500
   12279.5    1473540    -999.2500       0.0000    -999.2500    -999.2500    -999.2500    -999.2500
   12280.0    1473600    -999.2500       0.0000    -999.2500    -999.2500    -999.2500    -999.2500
   12280.5    1473660    -999.2500       0.0000    -999.2500    -999.2500    -999.2500    -999.2500
   12281.0    1473720    -999.2500       0.0000    -999.2500    -999.2500    -999.2500    -999.2500
   12281.5    1473780    -999.2500       0.0000    -999.2500    -999.2500    -999.2500    -999.2500
   12282.0    1473840    -999.2500       0.0000    -999.2500    -999.2500    -999.2500    -999.2500
   12282.5    1473900    -999.2500       0.0000    -999.2500    -999.2500    -999.2500    -999.2500
   12283.0    1473960    -999.2500       0.0000    -999.2500    -999.2500    -999.2500    -999.2500
   12283.5    1474020    -999.2500       0.0000    -999.2500    -999.2500    -999.2500    -999.2500
   12284.0    1474080    -999.2500       0.0000    -999.2500    -999.2500    -999.2500    -999.2500
   12284.5    1474140    -999.2500       0.0000    -999.2500    -999.2500    -999.2500    -999.2500
   12285.0    1474200    -999.2500       0.0000    -999.2500    -999.2500    -999.2500    -999.2500
   12285.5    1474260    -999.2500       0.0000    -999.2500    -999.2500    -999.2500    -999.2500
