~VERSION INFORMATION
VERS.           2.0   :CWLS Log ASCII Standard - VERSION 2.0
WRAP.           NO    :One Line per depth step
PROD.  Schlumberger   :LAS Producer
PROG.  DLIS to ASCII 2.3                               :LAS Program name and version
CREA.        2019/04/03 19:56                          :LAS Creation date {YYYY/MM/DD hh:mm}
DLIS_CREA.  2009-Feb-18 14:32                          :DLIS Creation date and time {YYYY-MMM-DD hh:mm}
SOURCE.     WLC_PETRO_COMPUTED_OUTPUT_1.DLIS           :DLIS File Name
FILE-ID.     OUTPUT.logdata                            :File Identification Number
#--------------------------------------------------
~WELL INFORMATION
#MNEM.UNIT      DATA             DESCRIPTION
#---- ------ --------------   -----------------------------
STRT .F          566.0       :START DEPTH     
STOP .F        12302.0       :STOP DEPTH     
STEP .F            0.5       :STEP     
NULL .          -999.25      :NULL VALUE
COMP .        STATOILHYDRO                             :COMPANY
WELL .        15/9-F-14                                :WELL
FLD  .        VOLVE                                    :FIELD
LOC  .                                                 :LOCATION
CNTY .        MAERSK INSPIRER                          :COUNTY
STAT .                                                 :STATE
CTRY .                                                 :COUNTRY
API  .                                                 :API NUMBER
UWI  .                                                 :UNIQUE WELL ID
DATE .                                                 :LOG DATE
SRVC .        CROCKER DATA PROCESSING                  :SERVICE COMPANY
LATI .DEG                                              :LATITUDE
LONG .DEG                                              :LONGITUDE
GDAT .                                                 :GeoDetic Datum
#-----------------------------------------------------------------------------
~PARAMETER INFORMATION
#MNEM.UNIT    VALUE                      DESCRIPTION
#---- -----   --------------------       ------------------------
CN   .        STATOILHYDRO               :Company
WN   .        15/9-F-14                  :Well Name
FN   .        VOLVE                      :Field
CTRY .        NORWAY                     :Country
COUN .        MAERSK INSPIRER            :County or Rig name
PDAT .        MSL                        :Perm. Datum
ELZ  .M          0.00000                 :Elev. Log Zero (wrt EPD)
SRVC .        UNKNOWN                    :Service company
R2   .        INPUT                      :R2
R4   .        INPUT                      :R4
RUN  .                                   :RUN NUMBER
EPD  .                                   :Elevation of Permanent Datum above Mean Sea Level
LMF  .                                   :Logging Measured From (Name of Logging Elevation Reference)
APD  .                                   :Elevation of Depth Reference (LMF) above Permanent Datum
#-----------------------------------------------------------------------------
~CURVE INFORMATION
#MNEM.UNIT   API CODE                                  DESCRIPTION
#---- -----  --------                                  -----------------------
DEPTH.F                                                :DEPTH (BOREHOLE) {F10.1}
DEPTH..1IN                                             :Measured Depth {I11}
BVW  .V/V_DECIMAL                                      :BVW:UNKNOWN:rC:NONE:v1 {F13.4}
CARB_FLAG.UNKNOWN                                      :CARB_FLAG:UNKNOWN:rC:NONE:v1 {F13.4}
COAL_FLAG.UNKNOWN                                      :COAL_FLAG:UNKNOWN:rC:NONE:v1 {F13.4}
KLOGH.MD                                               :KLOGH:UNKNOWN:rC:NONE:v1 {F13.4}
SAND_FLAG.UNKNOWN                                      :SAND_FLAG:UNKNOWN:rC:NONE:v1 {F13.4}
VSH  .V/V_DECIMAL                                      :VSH:UNKNOWN:rC:NONE:v1 {F13.4}
#-----------------------------------------------------------------------------
# 
#    DEPTH        DEPTH           BVW       CARB_FLAG    COAL_FLAG      KLOGH      SAND_FLAG       VSH
#
~A  
# ...
    9966.0    1195920       0.0541       1.0000       0.0000       0.0966       0.0000       0.4089
    9966.5    1195980       0.0076       1.0000       0.0000       0.0191       0.0000       0.4200
    9967.0    1196040       0.0103       1.0000       0.0000       0.0174       0.0000       0.4153
    9967.5    1196100       0.0131       1.0000       0.0000       0.0157       0.0000       0.4237
    9968.0    1196160       0.0158       1.0000       0.0000       0.0140       0.0000       0.4423
    9968.5    1196220       0.0165       1.0000       0.0000       0.0115       0.0000       0.4688
    9969.0    1196280       0.0121       1.0000       0.0000       0.0085       0.0000       0.4906
    9969.5    1196340       0.0250       1.0000       0.0000       0.0136       0.0000       0.4907
    9970.0    1196400       0.0409       0.0000       0.0000       0.0101       0.0000       0.5226
    9970.5    1196460       0.0585       0.0000       0.0000       0.0129       0.0000       0.5414
    9971.0    1196520       0.0504       0.0000       0.0000       0.0080       0.0000       0.5633
    9971.5    1196580       0.0520       0.0000       0.0000       0.0093       0.0000       0.5588
    9972.0    1196640       0.0644       0.0000       0.0000       0.0085       0.0000       0.5684
    9972.5    1196700       0.0692       0.0000       0.0000       0.0085       0.0000       0.5767
    9973.0    1196760       0.0710       0.0000       0.0000       0.0052       0.0000       0.6025
    9973.5    1196820       0.0743       0.0000       0.0000       0.0031       0.0000       0.6088
    9974.0    1196880       0.0689       1.0000       0.0000       0.0019       0.0000       0.5962
    9974.5    1196940       0.0371       1.0000       0.0000       0.0017       0.0000       0.5629
    9975.0    1197000       0.0115       1.0000       0.0000       0.0015       0.0000       0.5462
    9975.5    1197060       0.0124       1.0000       0.0000       0.0016       0.0000       0.5454
    9976.0    1197120       0.0180       1.0000       0.0000       0.0017       0.0000       0.5470
    9976.5    1197180       0.0247       1.0000       0.0000       0.0019       0.0000       0.5472
    9977.0    1197240       0.0430       1.0000       0.0000       0.0027       0.0000       0.5450
    9977.5    1197300       0.0585       1.0000       0.0000       0.0050       0.0000       0.5345
    9978.0    1197360       0.0602       1.0000       0.0000       0.0125       0.0000       0.5123
    9978.5    1197420       0.0592       1.0000       0.0000       0.0264       0.0000       0.4954
    9979.0    1197480       0.0593       1.0000       0.0000       0.0603       0.0000       0.4651
    9979.5    1197540       0.0573       0.0000       0.0000       0.1874       1.0000       0.4304
    9980.0    1197600       0.0574       0.0000       0.0000       0.5188       1.0000       0.3977
    9980.5    1197660       0.0442       0.0000       0.0000       3.7342       1.0000       0.3641
    9981.0    1197720       0.0559       0.0000       0.0000      11.7986       1.0000       0.3278
    9981.5    1197780       0.0334       0.0000       0.0000      30.1577       1.0000       0.2991
    9982.0    1197840       0.0152       0.0000       0.0000      45.4237       1.0000       0.2861
    9982.5    1197900       0.0046       0.0000       0.0000      42.6309       1.0000       0.2897
    9983.0    1197960       0.0046       0.0000       0.0000      48.3009       1.0000       0.2836
    9983.5    1198020       0.0046       0.0000       0.0000      51.8375       1.0000       0.2815
    9984.0    1198080       0.0046       0.0000       0.0000      50.2925       1.0000       0.2792
    9984.5    1198140       0.0046       0.0000       0.0000      51.6209       1.0000       0.2795
    9985.0    1198200       0.0046       0.0000       0.0000      42.6174       1.0000       0.2890
    9985.5    1198260       0.0046       0.0000       0.0000      38.7114       1.0000       0.2886
    9986.0    1198320       0.0046       0.0000       0.0000      45.9563       1.0000       0.2790
    9986.5    1198380       0.0046       0.0000       0.0000      95.7533       1.0000       0.2498
    9987.0    1198440       0.0046       0.0000       0.0000     185.3432       1.0000       0.2120
    9987.5    1198500       0.0045       0.0000       0.0000     247.9042       1.0000       0.1964
    9988.0    1198560       0.0045       0.0000       0.0000     169.4668       1.0000       0.2121
    9988.5    1198620       0.0046       0.0000       0.0000     118.0606       1.0000       0.2312
    9989.0    1198680       0.0046       0.0000       0.0000     104.2891       1.0000       0.2353
    9989.5    1198740       0.0046       0.0000       0.0000     122.3389       1.0000       0.2293
    9990.0    1198800       0.0083       0.0000       0.0000      91.4088       1.0000       0.2415
    9990.5    1198860       0.0211       0.0000       0.0000      96.0564       1.0000       0.2457
    9991.0    1198920       0.0268       0.0000       0.0000      97.6609       1.0000       0.2495
    9991.5    1198980       0.0314       0.0000       0.0000      90.3265       1.0000       0.2435
    9992.0    1199040       0.0333       0.0000       0.0000      79.6640       1.0000       0.2561
    9992.5    1199100       0.0348       0.0000       0.0000      42.0442       1.0000       0.2830
    9993.0    1199160       0.0370       0.0000       0.0000      31.8605       1.0000       0.3004
    9993.5    1199220       0.0387       0.0000       0.0000      21.4257       1.0000       0.3095
    9994.0    1199280       0.0392       0.0000       0.0000      27.7398       1.0000       0.2837
    9994.5    1199340       0.0406       0.0000       0.0000      27.0199       1.0000       0.2626
    9995.0    1199400       0.0461       0.0000       0.0000      35.3004       1.0000       0.2211
    9995.5    1199460       0.0355       0.0000       0.0000      70.8610       1.0000       0.1786
    9996.0    1199520       0.0314       0.0000       0.0000     155.7076       1.0000       0.1355
    9996.5    1199580       0.0308       0.0000       0.0000     256.0596       1.0000       0.1122
    9997.0    1199640       0.0290       0.0000       0.0000     273.4977       1.0000       0.1091
    9997.5    1199700       0.0277       1.0000       0.0000     207.3463       0.0000       0.1222
    9998.0    1199760       0.0249       1.0000       0.0000     180.0725       0.0000       0.1292
    9998.5    1199820       0.0248       1.0000       0.0000     165.8015       0.0000       0.1309
    9999.0    1199880       0.0246       1.0000       0.0000     237.4138       0.0000       0.1179
    9999.5    1199940       0.0225       0.0000       0.0000     293.7543       1.0000       0.1161
   10000.0    1200000       0.0214       0.0000       0.0000     439.5314       1.0000       0.1110
   10000.5    1200060       0.0302       0.0000       0.0000     650.8910       1.0000       0.1086
   10001.0    1200120       0.0249       0.0000       0.0000     833.0649       1.0000       0.1017
   10001.5    1200180       0.0214       0.0000       0.0000    1028.4561       1.0000       0.0936
   10002.0    1200240       0.0199       0.0000       0.0000    1164.7939       1.0000       0.0914
   10002.5    1200300       0.0188       0.0000       0.0000    1157.1121       1.0000       0.0935
   10003.0    1200360       0.0150       0.0000       0.0000     817.0939       1.0000       0.1078
   10003.5    1200420       0.0149       0.0000       0.0000     784.2330       1.0000       0.1117
   10004.0    1200480       0.0151       0.0000       0.0000     798.4006       1.0000       0.1106
   10004.5    1200540       0.0152       0.0000       0.0000    1243.5010       1.0000       0.0906
   10005.0    1200600       0.0151       0.0000       0.0000    1472.9510       1.0000       0.0814
   10005.5    1200660       0.0155       0.0000       0.0000    1548.8590       1.0000       0.0839
