~VERSION INFORMATION
VERS.           2.0   :CWLS Log ASCII Standard - VERSION 2.0
WRAP.           NO    :One Line per depth step
PROD.  Schlumberger   :LAS Producer
PROG.  DLIS to ASCII 2.3                               :LAS Program name and version
CREA.        2019/04/03 19:50                          :LAS Creation date {YYYY/MM/DD hh:mm}
DLIS_CREA.  2009-Feb-18 14:27                          :DLIS Creation date and time {YYYY-MMM-DD hh:mm}
SOURCE.     WLC_PETRO_COMPUTED_OUTPUT_1.DLIS           :DLIS File Name
FILE-ID.     OUTPUT.logdata                            :File Identification Number
#--------------------------------------------------
~WELL INFORMATION
#MNEM.UNIT      DATA             DESCRIPTION
#---- ------ --------------   -----------------------------
STRT .F          657.0       :START DEPTH     
STOP .F        11567.5       :STOP DEPTH     
STEP .F            0.5       :STEP     
NULL .          -999.25      :NULL VALUE
COMP .        STATOILHYDRO                             :COMPANY
WELL .        15/9-F-4                                 :WELL
FLD  .        VOLVE                                    :FIELD
LOC  .                                                 :LOCATION
CNTY .        MAERSK INSPIRER                          :COUNTY
STAT .                                                 :STATE
CTRY .                                                 :COUNTRY
API  .                                                 :API NUMBER
UWI  .                                                 :UNIQUE WELL ID
DATE .                                                 :LOG DATE
SRVC .        CROCKER DATA PROCESSING                  :SERVICE COMPANY
LATI .DEG                                              :LATITUDE
LONG .DEG                                              :LONGITUDE
GDAT .                                                 :GeoDetic Datum
#-----------------------------------------------------------------------------
~PARAMETER INFORMATION
#MNEM.UNIT    VALUE                      DESCRIPTION
#---- -----   --------------------       ------------------------
CN   .        STATOILHYDRO               :Company
WN   .        15/9-F-4                   :Well Name
FN   .        VOLVE                      :Field
CTRY .        NORWAY                     :Country
COUN .        MAERSK INSPIRER            :County or Rig name
PDAT .        MSL                        :Perm. Datum
ELZ  .M          0.00000                 :Elev. Log Zero (wrt EPD)
R2   .        INPUT                      :R2
RUN  .                                   :RUN NUMBER
EPD  .                                   :Elevation of Permanent Datum above Mean Sea Level
LMF  .                                   :Logging Measured From (Name of Logging Elevation Reference)
APD  .                                   :Elevation of Depth Reference (LMF) above Permanent Datum
#-----------------------------------------------------------------------------
~CURVE INFORMATION
#MNEM.UNIT   API CODE                                  DESCRIPTION
#---- -----  --------                                  -----------------------
DEPTH.F                                                :DEPTH (BOREHOLE) {F10.1}
DEPTH..1IN                                             :Measured Depth {I11}
VSH  .V/V_DECIMAL                                      :VSH:UNKNOWN:rC:NONE:v1 {F13.4}
SW   .V/V_DECIMAL                                      :SW:UNKNOWN:rC:NONE:v1 {F13.4}
SAND_FLAG.UNKNOWN                                      :SAND_FLAG:UNKNOWN:rC:NONE:v1 {F13.4}
PHIF .V/V_DECIMAL                                      :PHIF:UNKNOWN:rC:NONE:v1 {F13.4}
KLOGH.MD                                               :KLOGH:UNKNOWN:rC:NONE:v2 {F13.4}
COAL_FLAG.UNKNOWN                                      :COAL_FLAG:UNKNOWN:rC:NONE:v1 {F13.4}
CARB_FLAG.UNKNOWN                                      :CARB_FLAG:UNKNOWN:rC:NONE:v1 {F13.4}
BVW  .V/V_DECIMAL                                      :BVW:UNKNOWN:rC:NONE:v1 {F13.4}
#-----------------------------------------------------------------------------
# 
#    DEPTH        DEPTH           VSH          SW        SAND_FLAG       PHIF        KLOGH      COAL_FLAG    CARB_FLAG       BVW
#
~A  
# ...
   11345.0    1361400       0.3059       1.0000       0.0000       0.0254       0.0014       0.0000       0.0000       0.0254
   11345.5    1361460       0.2679       1.0000       0.0000       0.0274       0.0020       0.0000       0.0000       0.0274
   11346.0    1361520       0.2483       1.0000       0.0000       0.0240       0.0018       0.0000       0.0000       0.0240
   11346.5    1361580       0.2284       0.9670       0.0000       0.0569       0.0223       0.0000       0.0000       0.0551
   11347.0    1361640       0.2068       0.9386       0.0000       0.0560       0.0236       0.0000       0.0000       0.0526
   11347.5    1361700       0.1887       0.9376       0.0000       0.0578       0.0298       0.0000       0.0000       0.0542
   11348.0    1361760       0.1732       0.9663       0.0000       0.0543       0.0251       0.0000       0.0000       0.0524
   11348.5    1361820       0.1613       1.0000       0.0000       0.0473       0.0161       0.0000       0.0000       0.0473
   11349.0    1361880       0.1655       1.0000       0.0000       0.0450       0.0132       0.0000       0.0000       0.0450
   11349.5    1361940       0.1679       1.0000       0.0000       0.0519       0.0218       0.0000       0.0000       0.0519
   11350.0    1362000       0.1872       0.8723       0.0000       0.0670       0.0592       0.0000       0.0000       0.0584
   11350.5    1362060       0.2399       0.7869       0.0000       0.0755       0.0819       0.0000       0.0000       0.0594
   11351.0    1362120       0.3433       1.0000       0.0000       0.0340       0.0021       0.0000       0.0000       0.0340
   11351.5    1362180       0.4512       1.0000       0.0000       0.0264       0.0010       0.0000       0.0000       0.0264
   11352.0    1362240       0.5263       1.0000       0.0000       0.0273       0.0010       0.0000       0.0000       0.0273
   11352.5    1362300       0.5649       1.0000       0.0000       0.0234       0.0010       0.0000       0.0000       0.0234
   11353.0    1362360       0.5944       1.0000       0.0000       0.0285       0.0010       0.0000       0.0000       0.0285
   11353.5    1362420       0.5990       1.0000       0.0000       0.0311       0.0010       0.0000       0.0000       0.0311
   11354.0    1362480       0.5832       1.0000       0.0000       0.0452       0.0012       0.0000       0.0000       0.0452
   11354.5    1362540       0.5346       1.0000       0.0000       0.0547       0.0033       0.0000       0.0000       0.0547
   11355.0    1362600       0.4937       1.0000       0.0000       0.0623       0.0072       0.0000       0.0000       0.0623
   11355.5    1362660       0.4514       1.0000       0.0000       0.0643       0.0107       0.0000       0.0000       0.0643
   11356.0    1362720       0.4172       1.0000       0.0000       0.0553       0.0067       0.0000       0.0000       0.0553
   11356.5    1362780       0.3651       1.0000       0.0000       0.0553       0.0090       0.0000       0.0000       0.0553
   11357.0    1362840       0.3386       1.0000       0.0000       0.0611       0.0161       0.0000       0.0000       0.0611
   11357.5    1362900       0.3074       0.9666       0.0000       0.0989       0.3127       0.0000       0.0000       0.0956
   11358.0    1362960       0.3108       0.9713       0.0000       0.0993       0.3155       0.0000       0.0000       0.0965
   11358.5    1363020       0.3050       1.0000       0.0000       0.0632       0.0228       0.0000       0.0000       0.0632
   11359.0    1363080       0.3215       0.9938       0.0000       0.0985       0.2783       0.0000       0.0000       0.0978
   11359.5    1363140       0.3257       0.9467       0.0000       0.0997       0.2977       0.0000       0.0000       0.0944
   11360.0    1363200       0.3398       0.8812       0.0000       0.1038       0.3718       0.0000       0.0000       0.0915
   11360.5    1363260       0.3616       1.0000       0.0000       0.0738       0.0360       0.0000       0.0000       0.0738
   11361.0    1363320       0.3742       0.9207       0.0000       0.1042       0.3151       0.0000       0.0000       0.0960
   11361.5    1363380       0.3705       0.8981       0.0000       0.1113       0.5399       0.0000       0.0000       0.0999
   11362.0    1363440       0.3593       0.8779       0.0000       0.1137       0.6892       0.0000       0.0000       0.0998
   11362.5    1363500       0.3505       0.8457       0.0000       0.1171       0.9291       0.0000       0.0000       0.0990
   11363.0    1363560       0.3613       0.8670       0.0000       0.1143       0.7120       0.0000       0.0000       0.0991
   11363.5    1363620       0.3595       1.0000       0.0000       0.0794       0.0549       0.0000       0.0000       0.0794
   11364.0    1363680       0.3820       1.0000       0.0000       0.0739       0.0323       0.0000       0.0000       0.0739
   11364.5    1363740       0.3853       1.0000       0.0000       0.0655       0.0170       0.0000       0.0000       0.0655
   11365.0    1363800       0.3987       1.0000       0.0000       0.0629       0.0130       0.0000       0.0000       0.0629
   11365.5    1363860       0.3966       1.0000       0.0000       0.0622       0.0125       0.0000       0.0000       0.0622
   11366.0    1363920       0.4047       1.0000       0.0000       0.0622       0.0119       0.0000       0.0000       0.0622
   11366.5    1363980       0.4058       1.0000       0.0000       0.0652       0.0148       0.0000       0.0000       0.0652
   11367.0    1364040       0.4168       1.0000       0.0000       0.0661       0.0148       0.0000       0.0000       0.0661
   11367.5    1364100       0.4288       1.0000       0.0000       0.0661       0.0139       0.0000       0.0000       0.0661
   11368.0    1364160       0.4492       1.0000       0.0000       0.0655       0.0118       0.0000       0.0000       0.0655
   11368.5    1364220       0.4540       1.0000       0.0000       0.0633       0.0097       0.0000       0.0000       0.0633
   11369.0    1364280       0.4452       1.0000       0.0000       0.0559       0.0059       0.0000       0.0000       0.0559
   11369.5    1364340       0.4363       1.0000       0.0000       0.0483       0.0036       0.0000       0.0000       0.0483
   11370.0    1364400       0.4335       1.0000       0.0000       0.0497       0.0040       0.0000       0.0000       0.0497
   11370.5    1364460       0.4397       1.0000       0.0000       0.0625       0.0100       0.0000       0.0000       0.0625
   11371.0    1364520       0.4477       1.0000       0.0000       0.0706       0.0174       0.0000       0.0000       0.0706
   11371.5    1364580       0.4544       1.0000       0.0000       0.0746       0.0223       0.0000       0.0000       0.0746
   11372.0    1364640       0.4737       1.0000       0.0000       0.0711       0.0155       0.0000       0.0000       0.0711
   11372.5    1364700       0.4801       1.0000       0.0000       0.0573       0.0054       0.0000       0.0000       0.0573
   11373.0    1364760       0.4732       1.0000       0.0000       0.0382       0.0014       0.0000       0.0000       0.0382
   11373.5    1364820       0.4380       1.0000       0.0000       0.0213       0.0010       0.0000       0.0000       0.0213
   11374.0    1364880       0.4067       1.0000       0.0000       0.0109       0.0010       0.0000       0.0000       0.0109
   11374.5    1364940       0.3893       1.0000       0.0000       0.0064       0.0010       0.0000       0.0000       0.0064
   11375.0    1365000       0.3708       1.0000       0.0000       0.0089       0.0010       0.0000       0.0000       0.0089
   11375.5    1365060       0.3564       1.0000       0.0000       0.0213       0.0010       0.0000       0.0000       0.0213
   11376.0    1365120       0.3384       1.0000       0.0000       0.0295       0.0016       0.0000       0.0000       0.0295
   11376.5    1365180       0.3419       1.0000       0.0000       0.0328       0.0020       0.0000       0.0000       0.0328
