~VERSION INFORMATION
VERS.           2.0   :CWLS Log ASCII Standard - VERSION 2.0
WRAP.           NO    :One Line per depth step
PROD.  Schlumberger   :LAS Producer
PROG.  DLIS to ASCII 2.3                               :LAS Program name and version
CREA.        2019/04/03 19:50                          :LAS Creation date {YYYY/MM/DD hh:mm}
DLIS_CREA.  2009-Feb-18 14:27                          :DLIS Creation date and time {YYYY-MMM-DD hh:mm}
SOURCE.     WLC_PETRO_COMPUTED_OUTPUT_1.DLIS           :DLIS File Name
FILE-ID.     OUTPUT.logdata                            :File Identification Number
#--------------------------------------------------
~WELL INFORMATION
#MNEM.UNIT      DATA             DESCRIPTION
#---- ------ --------------   -----------------------------
STRT .F          657.0       :START DEPTH     
STOP .F        11567.5       :STOP DEPTH     
STEP .F            0.5       :STEP     
NULL .          -999.25      :NULL VALUE
COMP .        STATOILHYDRO                             :COMPANY
WELL .        15/9-F-4                                 :WELL
FLD  .        VOLVE                                    :FIELD
LOC  .                                                 :LOCATION
CNTY .        MAERSK INSPIRER                          :COUNTY
STAT .                                                 :STATE
CTRY .                                                 :COUNTRY
API  .                                                 :API NUMBER
UWI  .                                                 :UNIQUE WELL ID
DATE .                                                 :LOG DATE
SRVC .        CROCKER DATA PROCESSING                  :SERVICE COMPANY
LATI .DEG                                              :LATITUDE
LONG .DEG                                              :LONGITUDE
GDAT .                                                 :GeoDetic Datum
#-----------------------------------------------------------------------------
~PARAMETER INFORMATION
#MNEM.UNIT    VALUE                      DESCRIPTION
#---- -----   --------------------       ------------------------
CN   .        STATOILHYDRO               :Company
WN   .        15/9-F-4                   :Well Name
FN   .        VOLVE                      :Field
CTRY .        NORWAY                     :Country
COUN .        MAERSK INSPIRER            :County or Rig name
PDAT .        MSL                        :Perm. Datum
ELZ  .M          0.00000                 :Elev. Log Zero (wrt EPD)
R2   .        INPUT                      :R2
RUN  .                                   :RUN NUMBER
EPD  .                                   :Elevation of Permanent Datum above Mean Sea Level
LMF  .                                   :Logging Measured From (Name of Logging Elevation Reference)
APD  .                                   :Elevation of Depth Reference (LMF) above Permanent Datum
#-----------------------------------------------------------------------------
~CURVE INFORMATION
#MNEM.UNIT   API CODE                                  DESCRIPTION
#---- -----  --------                                  -----------------------
DEPTH.F                                                :DEPTH (BOREHOLE) {F10.1}
DEPTH..1IN                                             :Measured Depth {I11}
VSH  .V/V_DECIMAL                                      :VSH:UNKNOWN:rC:NONE:v1 {F13.4}
SW   .V/V_DECIMAL                                      :SW:UNKNOWN:rC:NONE:v1 {F13.4}
SAND_FLAG.UNKNOWN                                      :SAND_FLAG:UNKNOWN:rC:NONE:v1 {F13.4}
PHIF .V/V_DECIMAL                                      :PHIF:UNKNOWN:rC:NONE:v1 {F13.4}
KLOGH.MD                                               :KLOGH:UNKNOWN:rC:NONE:v2 {F13.4}
COAL_FLAG.UNKNOWN                                      :COAL_FLAG:UNKNOWN:rC:NONE:v1 {F13.4}
CARB_FLAG.UNKNOWN                                      :CARB_FLAG:UNKNOWN:rC:NONE:v1 {F13.4}
BVW  .V/V_DECIMAL                                      :BVW:UNKNOWN:rC:NONE:v1 {F13.4}
#-----------------------------------------------------------------------------
# 
#    DEPTH        DEPTH           VSH          SW        SAND_FLAG       PHIF        KLOGH      COAL_FLAG    CARB_FLAG       BVW
#
~A  
# ...
   11281.0    1353720       0.5054       1.0000       0.0000       0.0560       0.0042       0.0000       0.0000       0.0560
   11281.5    1353780       0.5170       1.0000       0.0000       0.0606       0.0056       0.0000       0.0000       0.0606
   11282.0    1353840       0.5150       1.0000       0.0000       0.0629       0.0067       0.0000       0.0000       0.0629
   11282.5    1353900       0.5016       1.0000       0.0000       0.0576       0.0049       0.0000       0.0000       0.0576
   11283.0    1353960       0.4973       1.0000       0.0000       0.0586       0.0054       0.0000       0.0000       0.0586
   11283.5    1354020       0.4766       1.0000       0.0000       0.0505       0.0033       0.0000       0.0000       0.0505
   11284.0    1354080       0.4602       1.0000       0.0000       0.0547       0.0050       0.0000       0.0000       0.0547
   11284.5    1354140       0.4338       1.0000       0.0000       0.0435       0.0026       0.0000       0.0000       0.0435
   11285.0    1354200       0.4201       1.0000       0.0000       0.0443       0.0029       0.0000       0.0000       0.0443
   11285.5    1354260       0.4022       1.0000       0.0000       0.0372       0.0019       0.0000       0.0000       0.0372
   11286.0    1354320       0.3888       1.0000       0.0000       0.0356       0.0018       0.0000       0.0000       0.0356
   11286.5    1354380       0.3775       1.0000       0.0000       0.0302       0.0013       0.0000       0.0000       0.0302
   11287.0    1354440       0.3647       1.0000       0.0000       0.0353       0.0021       0.0000       0.0000       0.0353
   11287.5    1354500       0.3416       1.0000       0.0000       0.0479       0.0060       0.0000       0.0000       0.0479
   11288.0    1354560       0.3074       0.7334       0.0000       0.0932       0.2054       0.0000       0.0000       0.0684
   11288.5    1354620       0.2786       0.7350       0.0000       0.0936       0.2485       0.0000       0.0000       0.0688
   11289.0    1354680       0.2446       0.7184       0.0000       0.1032       0.6144       0.0000       0.0000       0.0741
   11289.5    1354740       0.2226       0.7872       0.0000       0.1013       0.6040       0.0000       0.0000       0.0797
   11290.0    1354800       0.1991       0.8444       0.0000       0.1138       1.7410       0.0000       0.0000       0.0961
   11290.5    1354860       0.1884       0.9295       0.0000       0.1089       1.2892       0.0000       0.0000       0.1012
   11291.0    1354920       0.1815       0.9131       0.0000       0.1103       1.4835       0.0000       0.0000       0.1007
   11291.5    1354980       0.1807       0.9070       0.0000       0.1074       1.2066       0.0000       0.0000       0.0974
   11292.0    1355040       0.1736       0.8949       0.0000       0.1070       1.2209       0.0000       0.0000       0.0958
   11292.5    1355100       0.1682       0.9233       0.0000       0.0994       0.7189       0.0000       0.0000       0.0918
   11293.0    1355160       0.1746       0.9572       0.0000       0.0933       0.4436       0.0000       0.0000       0.0893
   11293.5    1355220       0.2103       0.9611       0.0000       0.0848       0.1923       0.0000       0.0000       0.0815
   11294.0    1355280       0.2415       0.9772       0.0000       0.0802       0.1147       0.0000       0.0000       0.0784
   11294.5    1355340       0.2730       0.9856       0.0000       0.0799       0.0934       0.0000       0.0000       0.0787
   11295.0    1355400       0.2703       0.9527       0.0000       0.0822       0.1125       0.0000       0.0000       0.0783
   11295.5    1355460       0.2622       0.8947       0.0000       0.0878       0.1781       0.0000       0.0000       0.0785
   11296.0    1355520       0.2375       0.8825       0.0000       0.0913       0.2656       0.0000       0.0000       0.0806
   11296.5    1355580       0.2124       0.9427       0.0000       0.0955       0.4184       0.0000       0.0000       0.0900
   11297.0    1355640       0.1838       0.9196       0.0000       0.1029       0.8516       0.0000       0.0000       0.0946
   11297.5    1355700       0.1687       0.8746       0.0000       0.1078       1.3326       0.0000       0.0000       0.0943
   11298.0    1355760       0.1699       0.8728       0.0000       0.1064       1.1904       0.0000       0.0000       0.0928
   11298.5    1355820       0.1798       0.8922       0.0000       0.0974       0.5810       0.0000       0.0000       0.0869
   11299.0    1355880       0.2023       0.9196       0.0000       0.0951       0.4304       0.0000       0.0000       0.0874
   11299.5    1355940       0.2316       0.9745       0.0000       0.0897       0.2444       0.0000       0.0000       0.0874
   11300.0    1356000       0.2851       0.9370       0.0000       0.0899       0.1820       0.0000       0.0000       0.0842
   11300.5    1356060       0.3243       0.9998       0.0000       0.0827       0.0856       0.0000       0.0000       0.0826
   11301.0    1356120       0.3460       0.9830       0.0000       0.0781       0.0540       0.0000       0.0000       0.0768
   11301.5    1356180       0.3355       0.9653       0.0000       0.0787       0.0600       0.0000       0.0000       0.0760
   11302.0    1356240       0.2937       0.9232       0.0000       0.0822       0.0987       0.0000       0.0000       0.0759
   11302.5    1356300       0.2509       0.8855       0.0000       0.0867       0.1752       0.0000       0.0000       0.0767
   11303.0    1356360       0.2235       0.8858       0.0000       0.0938       0.3459       0.0000       0.0000       0.0831
   11303.5    1356420       0.2099       0.8674       0.0000       0.0949       0.4067       0.0000       0.0000       0.0823
   11304.0    1356480       0.2116       0.8333       0.0000       0.0973       0.4805       0.0000       0.0000       0.0811
   11304.5    1356540       0.2012       0.8426       0.0000       0.0947       0.4199       0.0000       0.0000       0.0798
   11305.0    1356600       0.1988       0.9355       0.0000       0.0890       0.2806       0.0000       0.0000       0.0833
   11305.5    1356660       0.1991       0.9635       0.0000       0.0864       0.2308       0.0000       0.0000       0.0832
   11306.0    1356720       0.2190       1.0000       0.0000       0.0740       0.0824       0.0000       0.0000       0.0740
   11306.5    1356780       0.2325       1.0000       0.0000       0.0723       0.0676       0.0000       0.0000       0.0723
   11307.0    1356840       0.2449       1.0000       0.0000       0.0694       0.0509       0.0000       0.0000       0.0694
   11307.5    1356900       0.2537       1.0000       0.0000       0.0701       0.0507       0.0000       0.0000       0.0701
   11308.0    1356960       0.2588       1.0000       0.0000       0.0700       0.0489       0.0000       0.0000       0.0700
   11308.5    1357020       0.2642       0.9670       0.0000       0.0722       0.0558       0.0000       0.0000       0.0698
   11309.0    1357080       0.2537       0.9311       0.0000       0.0751       0.0734       0.0000       0.0000       0.0699
   11309.5    1357140       0.2668       1.0000       0.0000       0.0451       0.0075       0.0000       0.0000       0.0451
   11310.0    1357200       0.2794       1.0000       0.0000       0.0509       0.0106       0.0000       0.0000       0.0509
   11310.5    1357260       0.3041       1.0000       0.0000       0.0543       0.0119       0.0000       0.0000       0.0543
   11311.0    1357320       0.3337       1.0000       0.0000       0.0533       0.0093       0.0000       0.0000       0.0533
   11311.5    1357380       0.3569       1.0000       0.0000       0.0514       0.0071       0.0000       0.0000       0.0514
   11312.0    1357440       0.3686       1.0000       0.0000       0.0456       0.0043       0.0000       0.0000       0.0456
   11312.5    1357500       0.3628       1.0000       0.0000       0.0513       0.0068       0.0000       0.0000       0.0513
