~VERSION INFORMATION
VERS.           2.0   :CWLS Log ASCII Standard - VERSION 2.0
WRAP.           NO    :One Line per depth step
PROD.  Schlumberger   :LAS Producer
PROG.  DLIS to ASCII 2.3                               :LAS Program name and version
CREA.        2019/04/03 19:50                          :LAS Creation date {YYYY/MM/DD hh:mm}
DLIS_CREA.  2009-Feb-18 14:27                          :DLIS Creation date and time {YYYY-MMM-DD hh:mm}
SOURCE.     WLC_PETRO_COMPUTED_OUTPUT_1.DLIS           :DLIS File Name
FILE-ID.     OUTPUT.logdata                            :File Identification Number
#--------------------------------------------------
~WELL INFORMATION
#MNEM.UNIT      DATA             DESCRIPTION
#---- ------ --------------   -----------------------------
STRT .F          657.0       :START DEPTH     
STOP .F        11567.5       :STOP DEPTH     
STEP .F            0.5       :STEP     
NULL .          -999.25      :NULL VALUE
COMP .        STATOILHYDRO                             :COMPANY
WELL .        15/9-F-4                                 :WELL
FLD  .        VOLVE                                    :FIELD
LOC  .                                                 :LOCATION
CNTY .        MAERSK INSPIRER                          :COUNTY
STAT .                                                 :STATE
CTRY .                                                 :COUNTRY
API  .                                                 :API NUMBER
UWI  .                                                 :UNIQUE WELL ID
DATE .                                                 :LOG DATE
SRVC .        CROCKER DATA PROCESSING                  :SERVICE COMPANY
LATI .DEG                                              :LATITUDE
LONG .DEG                                              :LONGITUDE
GDAT .                                                 :GeoDetic Datum
#-----------------------------------------------------------------------------
~PARAMETER INFORMATION
#MNEM.UNIT    VALUE                      DESCRIPTION
#---- -----   --------------------       ------------------------
CN   .        STATOILHYDRO               :Company
WN   .        15/9-F-4                   :Well Name
FN   .        VOLVE                      :Field
CTRY .        NORWAY                     :Country
COUN .        MAERSK INSPIRER            :County or Rig name
PDAT .        MSL                        :Perm. Datum
ELZ  .M          0.00000                 :Elev. Log Zero (wrt EPD)
R2   .        INPUT                      :R2
RUN  .                                   :RUN NUMBER
EPD  .                                   :Elevation of Permanent Datum above Mean Sea Level
LMF  .                                   :Logging Measured From (Name of Logging Elevation Reference)
APD  .                                   :Elevation of Depth Reference (LMF) above Permanent Datum
#-----------------------------------------------------------------------------
~CURVE INFORMATION
#MNEM.UNIT   API CODE                                  DESCRIPTION
#---- -----  --------                                  -----------------------
DEPTH.F                                                :DEPTH (BOREHOLE) {F10.1}
DEPTH..1IN                                             :Measured Depth {I11}
VSH  .V/V_DECIMAL                                      :VSH:UNKNOWN:rC:NONE:v1 {F13.4}
SW   .V/V_DECIMAL                                      :SW:UNKNOWN:rC:NONE:v1 {F13.4}
SAND_FLAG.UNKNOWN                                      :SAND_FLAG:UNKNOWN:rC:NONE:v1 {F13.4}
PHIF .V/V_DECIMAL                                      :PHIF:UNKNOWN:rC:NONE:v1 {F13.4}
KLOGH.MD                                               :KLOGH:UNKNOWN:rC:NONE:v2 {F13.4}
COAL_FLAG.UNKNOWN                                      :COAL_FLAG:UNKNOWN:rC:NONE:v1 {F13.4}
CARB_FLAG.UNKNOWN                                      :CARB_FLAG:UNKNOWN:rC:NONE:v1 {F13.4}
BVW  .V/V_DECIMAL                                      :BVW:UNKNOWN:rC:NONE:v1 {F13.4}
#-----------------------------------------------------------------------------
# 
#    DEPTH        DEPTH           VSH          SW        SAND_FLAG       PHIF        KLOGH      COAL_FLAG    CARB_FLAG       BVW
#
~A  
# ...
   11025.0    1323000       0.0969       0.1153       1.0000       0.2039     940.2457       0.0000       0.0000       0.0235
   11025.5    1323060       0.0994       0.1106       1.0000       0.2108    1000.1840       0.0000       0.0000       0.0233
   11026.0    1323120       0.1037       0.1121       1.0000       0.2035     782.6569       0.0000       0.0000       0.0228
   11026.5    1323180       0.0929       0.1092       1.0000       0.2068    1100.2930       0.0000       0.0000       0.0226
   11027.0    1323240       0.0869       0.1087       1.0000       0.2078    1308.3199       0.0000       0.0000       0.0226
   11027.5    1323300       0.0776       0.1078       1.0000       0.2083    1677.0720       0.0000       0.0000       0.0225
   11028.0    1323360       0.0792       0.1077       1.0000       0.2069    1569.8831       0.0000       0.0000       0.0223
   11028.5    1323420       0.0838       0.1056       1.0000       0.2119    1525.4919       0.0000       0.0000       0.0224
   11029.0    1323480       0.0886       0.1026       1.0000       0.2231    1660.0460       0.0000       0.0000       0.0229
   11029.5    1323540       0.0879       0.1022       1.0000       0.2257    1771.4301       0.0000       0.0000       0.0231
   11030.0    1323600       0.0854       0.0994       1.0000       0.2323    2130.5540       0.0000       0.0000       0.0231
   11030.5    1323660       0.0826       0.1001       1.0000       0.2272    2089.7419       0.0000       0.0000       0.0227
   11031.0    1323720       0.0845       0.1014       1.0000       0.2266    1970.1600       0.0000       0.0000       0.0230
   11031.5    1323780       0.0791       0.1018       1.0000       0.2254    2213.2390       0.0000       0.0000       0.0229
   11032.0    1323840       0.0797       0.0996       1.0000       0.2241    2125.5161       0.0000       0.0000       0.0223
   11032.5    1323900       0.0813       0.0993       1.0000       0.2203    1902.3920       0.0000       0.0000       0.0219
   11033.0    1323960       0.0840       0.1003       1.0000       0.2159    1635.9390       0.0000       0.0000       0.0217
   11033.5    1324020       0.0824       0.1006       1.0000       0.2160    1708.4290       0.0000       0.0000       0.0217
   11034.0    1324080       0.0820       0.1029       1.0000       0.2055    1424.6331       0.0000       0.0000       0.0212
   11034.5    1324140       0.0797       0.1051       1.0000       0.1974    1299.5031       0.0000       0.0000       0.0207
   11035.0    1324200       0.0809       0.1084       1.0000       0.1891    1083.4850       0.0000       0.0000       0.0205
   11035.5    1324260       0.0782       0.1089       1.0000       0.1820    1017.9920       0.0000       0.0000       0.0198
   11036.0    1324320       0.0733       0.1101       1.0000       0.1734     984.5461       0.0000       0.0000       0.0191
   11036.5    1324380       0.0635       0.1092       1.0000       0.1724    1245.9320       0.0000       0.0000       0.0188
   11037.0    1324440       0.0540       0.1052       1.0000       0.1787    1790.9830       0.0000       0.0000       0.0188
   11037.5    1324500       0.0519       0.0979       1.0000       0.1944    2521.0320       0.0000       0.0000       0.0190
   11038.0    1324560       0.0501       0.0962       1.0000       0.1963    2739.3130       0.0000       0.0000       0.0189
   11038.5    1324620       0.0588       0.0953       1.0000       0.2001    2347.6389       0.0000       0.0000       0.0191
   11039.0    1324680       0.0588       0.0962       1.0000       0.1983    2268.2610       0.0000       0.0000       0.0191
   11039.5    1324740       0.0578       0.0971       1.0000       0.1939    2143.0471       0.0000       0.0000       0.0188
   11040.0    1324800       0.0489       0.0958       1.0000       0.1980    2908.6101       0.0000       0.0000       0.0190
   11040.5    1324860       0.0518       0.0940       1.0000       0.2015    2879.7090       0.0000       0.0000       0.0189
   11041.0    1324920       0.0597       0.0911       1.0000       0.2110    2800.5391       0.0000       0.0000       0.0192
   11041.5    1324980       0.0597       0.0882       1.0000       0.2214    3392.7700       0.0000       0.0000       0.0195
   11042.0    1325040       0.0641       0.0857       1.0000       0.2305    3574.1250       0.0000       0.0000       0.0197
   11042.5    1325100       0.0695       0.0853       1.0000       0.2333    3280.7180       0.0000       0.0000       0.0199
   11043.0    1325160       0.0821       0.0856       1.0000       0.2359    2488.1609       0.0000       0.0000       0.0202
   11043.5    1325220       0.0835       0.0823       1.0000       0.2482    3005.6130       0.0000       0.0000       0.0204
   11044.0    1325280       0.0795       0.0816       1.0000       0.2490    3378.4480       0.0000       0.0000       0.0203
   11044.5    1325340       0.0762       0.0801       1.0000       0.2545    4080.6819       0.0000       0.0000       0.0204
   11045.0    1325400       0.0790       0.0814       1.0000       0.2488    3419.5259       0.0000       0.0000       0.0203
   11045.5    1325460       0.0877       0.0830       1.0000       0.2410    2364.8701       0.0000       0.0000       0.0200
   11046.0    1325520       0.0825       0.0868       1.0000       0.2317    2275.1211       0.0000       0.0000       0.0201
   11046.5    1325580       0.0737       0.0876       1.0000       0.2302    2776.7351       0.0000       0.0000       0.0202
   11047.0    1325640       0.0583       0.0843       1.0000       0.2328    4338.0889       0.0000       0.0000       0.0196
   11047.5    1325700       0.0587       0.0842       1.0000       0.2321    4243.5420       0.0000       0.0000       0.0195
   11048.0    1325760       0.0553       0.0863       1.0000       0.2282    4309.1182       0.0000       0.0000       0.0197
   11048.5    1325820       0.0593       0.0856       1.0000       0.2280    3868.5911       0.0000       0.0000       0.0195
   11049.0    1325880       0.0579       0.0850       1.0000       0.2291    4089.3911       0.0000       0.0000       0.0195
   11049.5    1325940       0.0683       0.0851       1.0000       0.2273    3026.8140       0.0000       0.0000       0.0193
   11050.0    1326000       0.0716       0.0852       1.0000       0.2237    2604.7839       0.0000       0.0000       0.0190
   11050.5    1326060       0.0787       0.0872       1.0000       0.2121    1747.2340       0.0000       0.0000       0.0185
   11051.0    1326120       0.0785       0.0862       1.0000       0.2163    1901.2159       0.0000       0.0000       0.0187
   11051.5    1326180       0.0759       0.0817       1.0000       0.2184    2107.4751       0.0000       0.0000       0.0178
   11052.0    1326240       0.0719       0.0794       1.0000       0.2216    2484.8469       0.0000       0.0000       0.0176
   11052.5    1326300       0.0692       0.0713       1.0000       0.2266    2918.3369       0.0000       0.0000       0.0162
   11053.0    1326360       0.0733       0.0645       1.0000       0.2308    2839.9451       0.0000       0.0000       0.0149
   11053.5    1326420       0.0793       0.0668       1.0000       0.2305    2419.5259       0.0000       0.0000       0.0154
   11054.0    1326480       0.0817       0.0741       1.0000       0.2305    2270.2000       0.0000       0.0000       0.0171
   11054.5    1326540       0.0870       0.0810       1.0000       0.2301    1968.9230       0.0000       0.0000       0.0186
   11055.0    1326600       0.0931       0.0804       1.0000       0.2324    1754.8890       0.0000       0.0000       0.0187
   11055.5    1326660       0.1078       0.0847       1.0000       0.2273    1091.3790       0.0000       0.0000       0.0193
   11056.0    1326720       0.1301       0.0825       1.0000       0.2252     590.6921       0.0000       0.0000       0.0186
   11056.5    1326780       0.1541       0.0823       1.0000       0.2293     342.1348       0.0000       0.0000       0.0189
