~VERSION INFORMATION
VERS.           2.0   :CWLS Log ASCII Standard - VERSION 2.0
WRAP.           NO    :One Line per depth step
PROD.  Schlumberger   :LAS Producer
PROG.  DLIS to ASCII 2.3                               :LAS Program name and version
CREA.        2019/04/03 19:50                          :LAS Creation date {YYYY/MM/DD hh:mm}
DLIS_CREA.  2009-Feb-18 14:27                          :DLIS Creation date and time {YYYY-MMM-DD hh:mm}
SOURCE.     WLC_PETRO_COMPUTED_OUTPUT_1.DLIS           :DLIS File Name
FILE-ID.     OUTPUT.logdata                            :File Identification Number
#--------------------------------------------------
~WELL INFORMATION
#MNEM.UNIT      DATA             DESCRIPTION
#---- ------ --------------   -----------------------------
STRT .F          657.0       :START DEPTH     
STOP .F        11567.5       :STOP DEPTH     
STEP .F            0.5       :STEP     
NULL .          -999.25      :NULL VALUE
COMP .        STATOILHYDRO                             :COMPANY
WELL .        15/9-F-4                                 :WELL
FLD  .        VOLVE                                    :FIELD
LOC  .                                                 :LOCATION
CNTY .        MAERSK INSPIRER                          :COUNTY
STAT .                                                 :STATE
CTRY .                                                 :COUNTRY
API  .                                                 :API NUMBER
UWI  .                                                 :UNIQUE WELL ID
DATE .                                                 :LOG DATE
SRVC .        CROCKER DATA PROCESSING                  :SERVICE COMPANY
LATI .DEG                                              :LATITUDE
LONG .DEG                                              :LONGITUDE
GDAT .                                                 :GeoDetic Datum
#-----------------------------------------------------------------------------
~PARAMETER INFORMATION
#MNEM.UNIT    VALUE                      DESCRIPTION
#---- -----   --------------------       ------------------------
CN   .        STATOILHYDRO               :Company
WN   .        15/9-F-4                   :Well Name
FN   .        VOLVE                      :Field
CTRY .        NORWAY                     :Country
COUN .        MAERSK INSPIRER            :County or Rig name
PDAT .        MSL                        :Perm. Datum
ELZ  .M          0.00000                 :Elev. Log Zero (wrt EPD)
R2   .        INPUT                      :R2
RUN  .                                   :RUN NUMBER
EPD  .                                   :Elevation of Permanent Datum above Mean Sea Level
LMF  .                                   :Logging Measured From (Name of Logging Elevation Reference)
APD  .                                   :Elevation of Depth Reference (LMF) above Permanent Datum
#-----------------------------------------------------------------------------
~CURVE INFORMATION
#MNEM.UNIT   API CODE                                  DESCRIPTION
#---- -----  --------                                  -----------------------
DEPTH.F                                                :DEPTH (BOREHOLE) {F10.1}
DEPTH..1IN                                             :Measured Depth {I11}
VSH  .V/V_DECIMAL                                      :VSH:UNKNOWN:rC:NONE:v1 {F13.4}
SW   .V/V_DECIMAL                                      :SW:UNKNOWN:rC:NONE:v1 {F13.4}
SAND_FLAG.UNKNOWN                                      :SAND_FLAG:UNKNOWN:rC:NONE:v1 {F13.4}
PHIF .V/V_DECIMAL                                      :PHIF:UNKNOWN:rC:NONE:v1 {F13.4}
KLOGH.MD                                               :KLOGH:UNKNOWN:rC:NONE:v2 {F13.4}
COAL_FLAG.UNKNOWN                                      :COAL_FLAG:UNKNOWN:rC:NONE:v1 {F13.4}
CARB_FLAG.UNKNOWN                                      :CARB_FLAG:UNKNOWN:rC:NONE:v1 {F13.4}
BVW  .V/V_DECIMAL                                      :BVW:UNKNOWN:rC:NONE:v1 {F13.4}
#-----------------------------------------------------------------------------
# 
#    DEPTH        DEPTH           VSH          SW        SAND_FLAG       PHIF        KLOGH      COAL_FLAG    CARB_FLAG       BVW
#
~A  
# ...
   10161.0    1219320       0.3796    -999.2500    -999.2500    -999.2500    -999.2500    -999.2500    -999.2500    -999.2500
   10161.5    1219380       0.3898    -999.2500    -999.2500    -999.2500    -999.2500    -999.2500    -999.2500    -999.2500
   10162.0    1219440       0.4067    -999.2500    -999.2500    -999.2500    -999.2500    -999.2500    -999.2500    -999.2500
   10162.5    1219500       0.4155    -999.2500    -999.2500    -999.2500    -999.2500    -999.2500    -999.2500    -999.2500
   10163.0    1219560       0.4037    -999.2500    -999.2500    -999.2500    -999.2500    -999.2500    -999.2500    -999.2500
   10163.5    1219620       0.3958    -999.2500    -999.2500    -999.2500    -999.2500    -999.2500    -999.2500    -999.2500
   10164.0    1219680       0.3943    -999.2500    -999.2500    -999.2500    -999.2500    -999.2500    -999.2500    -999.2500
   10164.5    1219740       0.3983    -999.2500    -999.2500    -999.2500    -999.2500    -999.2500    -999.2500    -999.2500
   10165.0    1219800       0.3902    -999.2500    -999.2500    -999.2500    -999.2500    -999.2500    -999.2500    -999.2500
   10165.5    1219860       0.3836    -999.2500    -999.2500    -999.2500    -999.2500    -999.2500    -999.2500    -999.2500
   10166.0    1219920       0.3811    -999.2500    -999.2500    -999.2500    -999.2500    -999.2500    -999.2500    -999.2500
   10166.5    1219980       0.3865    -999.2500    -999.2500    -999.2500    -999.2500    -999.2500    -999.2500    -999.2500
   10167.0    1220040       0.4009    -999.2500    -999.2500    -999.2500    -999.2500    -999.2500    -999.2500    -999.2500
   10167.5    1220100       0.4040    -999.2500    -999.2500    -999.2500    -999.2500    -999.2500    -999.2500    -999.2500
   10168.0    1220160       0.3824    -999.2500    -999.2500    -999.2500    -999.2500    -999.2500    -999.2500    -999.2500
   10168.5    1220220       0.3649    -999.2500    -999.2500    -999.2500    -999.2500    -999.2500    -999.2500    -999.2500
   10169.0    1220280       0.3556    -999.2500    -999.2500    -999.2500    -999.2500    -999.2500    -999.2500    -999.2500
   10169.5    1220340       0.3597    -999.2500    -999.2500    -999.2500    -999.2500    -999.2500    -999.2500    -999.2500
   10170.0    1220400       0.3804    -999.2500    -999.2500    -999.2500    -999.2500    -999.2500    -999.2500    -999.2500
   10170.5    1220460       0.3858    -999.2500    -999.2500    -999.2500    -999.2500    -999.2500    -999.2500    -999.2500
   10171.0    1220520       0.3837    -999.2500    -999.2500    -999.2500    -999.2500    -999.2500    -999.2500    -999.2500
   10171.5    1220580       0.3338    -999.2500    -999.2500    -999.2500    -999.2500    -999.2500    -999.2500    -999.2500
   10172.0    1220640       0.3342    -999.2500    -999.2500    -999.2500    -999.2500    -999.2500    -999.2500    -999.2500
   10172.5    1220700       0.3500    -999.2500    -999.2500    -999.2500    -999.2500    -999.2500    -999.2500    -999.2500
   10173.0    1220760       0.3965    -999.2500    -999.2500    -999.2500    -999.2500    -999.2500    -999.2500    -999.2500
   10173.5    1220820       0.4444    -999.2500    -999.2500    -999.2500    -999.2500    -999.2500    -999.2500    -999.2500
   10174.0    1220880       0.5583   -4095.2783   -4092.1830   -4092.5303   -4092.1861   -4092.1830   -4092.1830   -4092.5303
   10174.5    1220940       0.7218       1.0000       0.0000       0.1122       0.0010       0.0000       0.0000       0.1122
   10175.0    1221000       0.7221       1.0000       0.0000       0.1466       0.0010       0.0000       0.0000       0.1466
   10175.5    1221060       0.7223       0.9406       0.0000       0.1976       0.0010       0.0000       0.0000       0.1858
   10176.0    1221120       0.7226       0.6506       0.0000       0.2286       0.0010       0.0000       0.0000       0.1487
   10176.5    1221180       0.7228       0.5681       0.0000       0.2671       0.0010       0.0000       0.0000       0.1518
   10177.0    1221240       0.7231       0.5518       0.0000       0.2748       0.0010       0.0000       0.0000       0.1516
   10177.5    1221300       0.7234       0.4805       0.0000       0.2758       0.0010       0.0000       0.0000       0.1325
   10178.0    1221360       0.7236       0.5177       0.0000       0.2562       0.0010       0.0000       0.0000       0.1326
   10178.5    1221420       0.7239       0.5701       0.0000       0.2401       0.0010       0.0000       0.0000       0.1369
   10179.0    1221480       0.7242       0.6108       0.0000       0.2280       0.0010       0.0000       0.0000       0.1393
   10179.5    1221540       0.7244       0.7262       0.0000       0.2230       0.0010       0.0000       0.0000       0.1620
   10180.0    1221600       0.7247       0.6692       0.0000       0.2349       0.0010       0.0000       0.0000       0.1572
   10180.5    1221660       0.7250       0.6400       0.0000       0.2383       0.0010       0.0000       0.0000       0.1525
   10181.0    1221720       0.7252       0.6510       0.0000       0.2316       0.0010       0.0000       0.0000       0.1508
   10181.5    1221780       0.7255       0.7369       0.0000       0.2238       0.0010       0.0000       0.0000       0.1649
   10182.0    1221840       0.7257       0.7486       0.0000       0.2044       0.0010       0.0000       0.0000       0.1530
   10182.5    1221900       0.7260       0.8128       0.0000       0.1908       0.0010       0.0000       0.0000       0.1551
   10183.0    1221960       0.7263       1.0000       0.0000       0.1699       0.0010       0.0000       0.0000       0.1699
   10183.5    1222020       0.7265       1.0000       0.0000       0.1748       0.0010       0.0000       0.0000       0.1748
   10184.0    1222080       0.7268       0.7823       0.0000       0.2033       0.0010       0.0000       0.0000       0.1590
   10184.5    1222140       0.7271       0.5999       0.0000       0.2230       0.0010       0.0000       0.0000       0.1338
   10185.0    1222200       0.7273       0.6185       0.0000       0.2333       0.0010       0.0000       0.0000       0.1443
   10185.5    1222260       0.7276       0.6404       0.0000       0.2353       0.0010       0.0000       0.0000       0.1507
   10186.0    1222320       0.7278       0.6561       0.0000       0.2283       0.0010       0.0000       0.0000       0.1498
   10186.5    1222380       0.7281       0.6027       0.0000       0.2278       0.0010       0.0000       0.0000       0.1373
   10187.0    1222440       0.7284       0.6657       0.0000       0.2273       0.0010       0.0000       0.0000       0.1513
   10187.5    1222500       0.7286       0.6726       0.0000       0.2303       0.0010       0.0000       0.0000       0.1549
   10188.0    1222560       0.7289       0.6268       0.0000       0.2369       0.0010       0.0000       0.0000       0.1485
   10188.5    1222620       0.7292       0.6422       0.0000       0.2341       0.0010       0.0000       0.0000       0.1503
   10189.0    1222680       0.7294       0.6333       0.0000       0.2386       0.0010       0.0000       0.0000       0.1511
   10189.5    1222740       0.7297       0.5832       0.0000       0.2387       0.0010       0.0000       0.0000       0.1392
   10190.0    1222800       0.7299       0.5785       0.0000       0.2457       0.0010       0.0000       0.0000       0.1421
   10190.5    1222860       0.7302       0.5948       0.0000       0.2511       0.0010       0.0000       0.0000       0.1494
   10191.0    1222920       0.7305       0.5919       0.0000       0.2505       0.0010       0.0000       0.0000       0.1483
   10191.5    1222980       0.7307       0.5737       0.0000       0.2449       0.0010       0.0000       0.0000       0.1405
   10192.0    1223040       0.7310       0.5999       0.0000       0.2405       0.0010       0.0000       0.0000       0.1443
   10192.5    1223100       0.7313       0.5564       0.0000       0.2375       0.0010       0.0000       0.0000       0.1321
