~VERSION INFORMATION
VERS.           2.0   :CWLS Log ASCII Standard - VERSION 2.0
WRAP.           NO    :One Line per depth step
PROD.  Schlumberger   :LAS Producer
PROG.  DLIS to ASCII 2.3                               :LAS Program name and version
CREA.        2019/04/03 19:50                          :LAS Creation date {YYYY/MM/DD hh:mm}
DLIS_CREA.  2009-Feb-18 14:27                          :DLIS Creation date and time {YYYY-MMM-DD hh:mm}
SOURCE.     WLC_PETRO_COMPUTED_OUTPUT_1.DLIS           :DLIS File Name
FILE-ID.     OUTPUT.logdata                            :File Identification Number
#--------------------------------------------------
~WELL INFORMATION
#MNEM.UNIT      DATA             DESCRIPTION
#---- ------ --------------   -----------------------------
STRT .F          657.0       :START DEPTH     
STOP .F        11567.5       :STOP DEPTH     
STEP .F            0.5       :STEP     
NULL .          -999.25      :NULL VALUE
COMP .        STATOILHYDRO                             :COMPANY
WELL .        15/9-F-4                                 :WELL
FLD  .        VOLVE                                    :FIELD
LOC  .                                                 :LOCATION
CNTY .        MAERSK INSPIRER                          :COUNTY
STAT .                                                 :STATE
CTRY .                                                 :COUNTRY
API  .                                                 :API NUMBER
UWI  .                                                 :UNIQUE WELL ID
DATE .                                                 :LOG DATE
SRVC .        CROCKER DATA PROCESSING                  :SERVICE COMPANY
LATI .DEG                                              :LATITUDE
LONG .DEG                                              :LONGITUDE
GDAT .                                                 :GeoDetic Datum
#-----------------------------------------------------------------------------
~PARAMETER INFORMATION
#MNEM.UNIT    VALUE                      DESCRIPTION
#---- -----   --------------------       ------------------------
CN   .        STATOILHYDRO               :Company
WN   .        15/9-F-4                   :Well Name
FN   .        VOLVE                      :Field
CTRY .        NORWAY                     :Country
COUN .        MAERSK INSPIRER            :County or Rig name
PDAT .        MSL                        :Perm. Datum
ELZ  .M          0.00000                 :Elev. Log Zero (wrt EPD)
R2   .        INPUT                      :R2
RUN  .                                   :RUN NUMBER
EPD  .                                   :Elevation of Permanent Datum above Mean Sea Level
LMF  .                                   :Logging Measured From (Name of Logging Elevation Reference)
APD  .                                   :Elevation of Depth Reference (LMF) above Permanent Datum
#-----------------------------------------------------------------------------
~CURVE INFORMATION
#MNEM.UNIT   API CODE                                  DESCRIPTION
#---- -----  --------                                  -----------------------
DEPTH.F                                                :DEPTH (BOREHOLE) {F10.1}
DEPTH..1IN                                             :Measured Depth {I11}
VSH  .V/V_DECIMAL                                      :VSH:UNKNOWN:rC:NONE:v1 {F13.4}
SW   .V/V_DECIMAL                                      :SW:UNKNOWN:rC:NONE:v1 {F13.4}
SAND_FLAG.UNKNOWN                                      :SAND_FLAG:UNKNOWN:rC:NONE:v1 {F13.4}
PHIF .V/V_DECIMAL                                      :PHIF:UNKNOWN:rC:NONE:v1 {F13.4}
KLOGH.MD                                               :KLOGH:UNKNOWN:rC:NONE:v2 {F13.4}
COAL_FLAG.UNKNOWN                                      :COAL_FLAG:UNKNOWN:rC:NONE:v1 {F13.4}
CARB_FLAG.UNKNOWN                                      :CARB_FLAG:UNKNOWN:rC:NONE:v1 {F13.4}
BVW  .V/V_DECIMAL                                      :BVW:UNKNOWN:rC:NONE:v1 {F13.4}
#-----------------------------------------------------------------------------
# 
#    DEPTH        DEPTH           VSH          SW        SAND_FLAG       PHIF        KLOGH      COAL_FLAG    CARB_FLAG       BVW
#
~A  
# ...
   11185.0    1342200       0.2356       0.5335       1.0000       0.2240      37.8651       0.0000       0.0000       0.1195
   11185.5    1342260       0.2308       0.5339       1.0000       0.2318      49.5134       0.0000       0.0000       0.1238
   11186.0    1342320       0.2314       0.5460       1.0000       0.2324      49.3544       0.0000       0.0000       0.1269
   11186.5    1342380       0.2286       0.5521       1.0000       0.2351      55.7464       0.0000       0.0000       0.1298
   11187.0    1342440       0.2376       0.5600       1.0000       0.2361      44.9680       0.0000       0.0000       0.1322
   11187.5    1342500       0.2406       0.5640       1.0000       0.2409      45.4204       0.0000       0.0000       0.1359
   11188.0    1342560       0.2419       0.5777       1.0000       0.2385      42.1026       0.0000       0.0000       0.1378
   11188.5    1342620       0.2439       0.5789       1.0000       0.2458      45.6912       0.0000       0.0000       0.1423
   11189.0    1342680       0.2485       0.5979       1.0000       0.2386      35.5635       0.0000       0.0000       0.1426
   11189.5    1342740       0.2515       0.5969       1.0000       0.2423      35.1697       0.0000       0.0000       0.1446
   11190.0    1342800       0.2619       0.6026       1.0000       0.2428      27.1492       0.0000       0.0000       0.1463
   11190.5    1342860       0.2492       0.5907       1.0000       0.2493      42.4889       0.0000       0.0000       0.1473
   11191.0    1342920       0.2595       0.5918       1.0000       0.2515      33.9834       0.0000       0.0000       0.1489
   11191.5    1342980       0.2579       0.6132       1.0000       0.2420      29.6535       0.0000       0.0000       0.1484
   11192.0    1343040       0.2729       0.6130       1.0000       0.2427      20.3905       0.0000       0.0000       0.1488
   11192.5    1343100       0.2526       0.6024       1.0000       0.2473      37.4533       0.0000       0.0000       0.1490
   11193.0    1343160       0.2433       0.5909       1.0000       0.2519      51.8993       0.0000       0.0000       0.1488
   11193.5    1343220       0.2295       0.6078       1.0000       0.2413      60.9242       0.0000       0.0000       0.1466
   11194.0    1343280       0.2400       0.6129       1.0000       0.2394      44.8956       0.0000       0.0000       0.1467
   11194.5    1343340       0.2552       0.6154       1.0000       0.2400      30.6511       0.0000       0.0000       0.1477
   11195.0    1343400       0.2679       0.6281       1.0000       0.2357      20.4156       0.0000       0.0000       0.1480
   11195.5    1343460       0.2709       0.6076       1.0000       0.2458      22.7589       0.0000       0.0000       0.1494
   11196.0    1343520       0.2613       0.5936       1.0000       0.2531      33.3146       0.0000       0.0000       0.1502
   11196.5    1343580       0.2618       0.6027       1.0000       0.2511      31.7603       0.0000       0.0000       0.1513
   11197.0    1343640       0.2641       0.5868       1.0000       0.2512      29.9829       0.0000       0.0000       0.1474
   11197.5    1343700       0.2644       0.5871       1.0000       0.2503      29.2495       0.0000       0.0000       0.1469
   11198.0    1343760       0.2443       0.5950       1.0000       0.2464      45.7124       0.0000       0.0000       0.1466
   11198.5    1343820       0.2445       0.5828       1.0000       0.2533      51.6573       0.0000       0.0000       0.1476
   11199.0    1343880       0.2475       0.5831       1.0000       0.2554      49.7048       0.0000       0.0000       0.1489
   11199.5    1343940       0.2545       0.5903       1.0000       0.2522      39.1181       0.0000       0.0000       0.1489
   11200.0    1344000       0.2391       0.5916       1.0000       0.2515      57.4678       0.0000       0.0000       0.1488
   11200.5    1344060       0.2151       0.6076       1.0000       0.2404      86.8986       0.0000       0.0000       0.1460
   11201.0    1344120       0.2107       0.5920       1.0000       0.2443     104.6537       0.0000       0.0000       0.1446
   11201.5    1344180       0.2000       0.5858       1.0000       0.2440     137.1130       0.0000       0.0000       0.1429
   11202.0    1344240       0.2064       0.5701       1.0000       0.2450     118.4564       0.0000       0.0000       0.1397
   11202.5    1344300       0.2147       0.5653       1.0000       0.2403      87.7927       0.0000       0.0000       0.1359
   11203.0    1344360       0.2292       0.5592       1.0000       0.2414      61.6183       0.0000       0.0000       0.1350
   11203.5    1344420       0.2325       0.5655       1.0000       0.2342      49.4727       0.0000       0.0000       0.1324
   11204.0    1344480       0.2165       0.5675       1.0000       0.2300      69.2694       0.0000       0.0000       0.1305
   11204.5    1344540       0.2043       0.5713       1.0000       0.2296      94.1657       0.0000       0.0000       0.1312
   11205.0    1344600       0.2059       0.5753       1.0000       0.2279      87.6790       0.0000       0.0000       0.1311
   11205.5    1344660       0.2146       0.6151       1.0000       0.2090      49.3924       0.0000       0.0000       0.1285
   11206.0    1344720       0.2092       0.6055       1.0000       0.2100      57.8121       0.0000       0.0000       0.1271
   11206.5    1344780       0.1975       0.6099       1.0000       0.2048      71.0596       0.0000       0.0000       0.1249
   11207.0    1344840       0.1929       0.6007       1.0000       0.2079      84.7328       0.0000       0.0000       0.1249
   11207.5    1344900       0.1850       0.6138       1.0000       0.2029      94.8422       0.0000       0.0000       0.1246
   11208.0    1344960       0.1876       0.5962       1.0000       0.2139     108.5072       0.0000       0.0000       0.1275
   11208.5    1345020       0.1719       0.6010       1.0000       0.2164     170.5476       0.0000       0.0000       0.1300
   11209.0    1345080       0.1822       0.6097       1.0000       0.2177     134.0727       0.0000       0.0000       0.1327
   11209.5    1345140       0.1837       0.6231       1.0000       0.2154     123.3401       0.0000       0.0000       0.1342
   11210.0    1345200       0.1914       0.6181       1.0000       0.2202     110.5765       0.0000       0.0000       0.1361
   11210.5    1345260       0.1845       0.5827       1.0000       0.2417     196.5350       0.0000       0.0000       0.1408
   11211.0    1345320       0.1909       0.5923       1.0000       0.2432     171.2762       0.0000       0.0000       0.1440
   11211.5    1345380       0.1972       0.5965       1.0000       0.2481     159.0503       0.0000       0.0000       0.1480
   11212.0    1345440       0.2050       0.6085       1.0000       0.2437     119.8136       0.0000       0.0000       0.1483
   11212.5    1345500       0.2103       0.6096       1.0000       0.2481     113.3056       0.0000       0.0000       0.1512
   11213.0    1345560       0.2214       0.6141       1.0000       0.2471      83.7108       0.0000       0.0000       0.1518
   11213.5    1345620       0.2421       0.6153       1.0000       0.2509      52.6122       0.0000       0.0000       0.1544
   11214.0    1345680       0.2330       0.5972       1.0000       0.2593      77.4673       0.0000       0.0000       0.1548
   11214.5    1345740       0.2266       0.6016       1.0000       0.2556      85.6517       0.0000       0.0000       0.1538
   11215.0    1345800       0.2230       0.6306       1.0000       0.2380      67.8833       0.0000       0.0000       0.1501
   11215.5    1345860       0.2250       0.6428       1.0000       0.2327      58.4909       0.0000       0.0000       0.1496
   11216.0    1345920       0.2236       0.6380       1.0000       0.2235      51.2313       0.0000       0.0000       0.1426
   11216.5    1345980       0.2094       0.6293       1.0000       0.2248      75.5947       0.0000       0.0000       0.1415
