~VERSION INFORMATION
VERS.           2.0   :CWLS Log ASCII Standard - VERSION 2.0
WRAP.           NO    :One Line per depth step
PROD.  Schlumberger   :LAS Producer
PROG.  DLIS to ASCII 2.3                               :LAS Program name and version
CREA.        2019/04/03 19:50                          :LAS Creation date {YYYY/MM/DD hh:mm}
DLIS_CREA.  2009-Feb-18 14:27                          :DLIS Creation date and time {YYYY-MMM-DD hh:mm}
SOURCE.     WLC_PETRO_COMPUTED_OUTPUT_1.DLIS           :DLIS File Name
FILE-ID.     OUTPUT.logdata                            :File Identification Number
#--------------------------------------------------
~WELL INFORMATION
#MNEM.UNIT      DATA             DESCRIPTION
#---- ------ --------------   -----------------------------
STRT .F          657.0       :START DEPTH     
STOP .F        11567.5       :STOP DEPTH     
STEP .F            0.5       :STEP     
NULL .          -999.25      :NULL VALUE
COMP .        STATOILHYDRO                             :COMPANY
WELL .        15/9-F-4                                 :WELL
FLD  .        VOLVE                                    :FIELD
LOC  .                                                 :LOCATION
CNTY .        MAERSK INSPIRER                          :COUNTY
STAT .                                                 :STATE
CTRY .                                                 :COUNTRY
API  .                                                 :API NUMBER
UWI  .                                                 :UNIQUE WELL ID
DATE .                                                 :LOG DATE
SRVC .        CROCKER DATA PROCESSING                  :SERVICE COMPANY
LATI .DEG                                              :LATITUDE
LONG .DEG                                              :LONGITUDE
GDAT .                                                 :GeoDetic Datum
#-----------------------------------------------------------------------------
~PARAMETER INFORMATION
#MNEM.UNIT    VALUE                      DESCRIPTION
#---- -----   --------------------       ------------------------
CN   .        STATOILHYDRO               :Company
WN   .        15/9-F-4                   :Well Name
FN   .        VOLVE                      :Field
CTRY .        NORWAY                     :Country
COUN .        MAERSK INSPIRER            :County or Rig name
PDAT .        MSL                        :Perm. Datum
ELZ  .M          0.00000                 :Elev. Log Zero (wrt EPD)
R2   .        INPUT                      :R2
RUN  .                                   :RUN NUMBER
EPD  .                                   :Elevation of Permanent Datum above Mean Sea Level
LMF  .                                   :Logging Measured From (Name of Logging Elevation Reference)
APD  .                                   :Elevation of Depth Reference (LMF) above Permanent Datum
#-----------------------------------------------------------------------------
~CURVE INFORMATION
#MNEM.UNIT   API CODE                                  DESCRIPTION
#---- -----  --------                                  -----------------------
DEPTH.F                                                :DEPTH (BOREHOLE) {F10.1}
DEPTH..1IN                                             :Measured Depth {I11}
VSH  .V/V_DECIMAL                                      :VSH:UNKNOWN:rC:NONE:v1 {F13.4}
SW   .V/V_DECIMAL                                      :SW:UNKNOWN:rC:NONE:v1 {F13.4}
SAND_FLAG.UNKNOWN                                      :SAND_FLAG:UNKNOWN:rC:NONE:v1 {F13.4}
PHIF .V/V_DECIMAL                                      :PHIF:UNKNOWN:rC:NONE:v1 {F13.4}
KLOGH.MD                                               :KLOGH:UNKNOWN:rC:NONE:v2 {F13.4}
COAL_FLAG.UNKNOWN                                      :COAL_FLAG:UNKNOWN:rC:NONE:v1 {F13.4}
CARB_FLAG.UNKNOWN                                      :CARB_FLAG:UNKNOWN:rC:NONE:v1 {F13.4}
BVW  .V/V_DECIMAL                                      :BVW:UNKNOWN:rC:NONE:v1 {F13.4}
#-----------------------------------------------------------------------------
# 
#    DEPTH        DEPTH           VSH          SW        SAND_FLAG       PHIF        KLOGH      COAL_FLAG    CARB_FLAG       BVW
#
~A  
# ...
   10833.0    1299960       0.1077       0.2103       1.0000       0.2259    1066.4110       0.0000       0.0000       0.0475
   10833.5    1300020       0.1004       0.2797       1.0000       0.2125    1006.3490       0.0000       0.0000       0.0594
   10834.0    1300080       0.0977       0.2938       1.0000       0.2099    1027.5400       0.0000       0.0000       0.0617
   10834.5    1300140       0.0979       0.2243       1.0000       0.2173    1171.1350       0.0000       0.0000       0.0487
   10835.0    1300200       0.1001       0.1942       1.0000       0.2261    1302.0660       0.0000       0.0000       0.0439
   10835.5    1300260       0.0985       0.1932       1.0000       0.2324    1524.2390       0.0000       0.0000       0.0449
   10836.0    1300320       0.0917       0.1915       1.0000       0.2365    1959.4060       0.0000       0.0000       0.0453
   10836.5    1300380       0.0856       0.1680       1.0000       0.2387    2388.9419       0.0000       0.0000       0.0401
   10837.0    1300440       0.0771       0.1466       1.0000       0.2348    2763.8750       0.0000       0.0000       0.0344
   10837.5    1300500       0.0799       0.1221       1.0000       0.2366    2661.3730       0.0000       0.0000       0.0289
   10838.0    1300560       0.0850       0.1152       1.0000       0.2349    2261.9260       0.0000       0.0000       0.0271
   10838.5    1300620       0.0872       0.1147       1.0000       0.2358    2173.6311       0.0000       0.0000       0.0270
   10839.0    1300680       0.0857       0.1104       1.0000       0.2408    2472.3660       0.0000       0.0000       0.0266
   10839.5    1300740       0.0866       0.1128       1.0000       0.2327    2085.1431       0.0000       0.0000       0.0263
   10840.0    1300800       0.0933       0.1086       1.0000       0.2274    1588.1591       0.0000       0.0000       0.0247
   10840.5    1300860       0.0961       0.1347       1.0000       0.2249    1412.6110       0.0000       0.0000       0.0303
   10841.0    1300920       0.1008       0.1199       1.0000       0.2297    1367.3420       0.0000       0.0000       0.0275
   10841.5    1300980       0.1021       0.1109       1.0000       0.2308    1349.0110       0.0000       0.0000       0.0256
   10842.0    1301040       0.0988       0.1095       1.0000       0.2304    1458.8860       0.0000       0.0000       0.0252
   10842.5    1301100       0.0841       0.1096       1.0000       0.2207    1780.2570       0.0000       0.0000       0.0242
   10843.0    1301160       0.0808       0.1120       1.0000       0.2146    1733.0220       0.0000       0.0000       0.0240
   10843.5    1301220       0.0754       0.1074       1.0000       0.2143    1981.8800       0.0000       0.0000       0.0230
   10844.0    1301280       0.0774       0.1041       1.0000       0.2143    1881.9750       0.0000       0.0000       0.0223
   10844.5    1301340       0.0737       0.1008       1.0000       0.2194    2277.5850       0.0000       0.0000       0.0221
   10845.0    1301400       0.0747       0.0982       1.0000       0.2203    2257.4819       0.0000       0.0000       0.0216
   10845.5    1301460       0.0698       0.0972       1.0000       0.2204    2562.5950       0.0000       0.0000       0.0214
   10846.0    1301520       0.0697       0.0955       1.0000       0.2214    2619.4080       0.0000       0.0000       0.0211
   10846.5    1301580       0.0691       0.0939       1.0000       0.2213    2652.2930       0.0000       0.0000       0.0208
   10847.0    1301640       0.0738       0.0939       1.0000       0.2175    2193.1299       0.0000       0.0000       0.0204
   10847.5    1301700       0.0697       0.0953       1.0000       0.2102    2132.1340       0.0000       0.0000       0.0200
   10848.0    1301760       0.0806       0.0932       1.0000       0.2126    1680.4790       0.0000       0.0000       0.0198
   10848.5    1301820       0.0883       0.0959       1.0000       0.2055    1208.4050       0.0000       0.0000       0.0197
   10849.0    1301880       0.0988       0.0942       1.0000       0.2093     987.7830       0.0000       0.0000       0.0197
   10849.5    1301940       0.0944       0.0959       1.0000       0.2062    1046.4570       0.0000       0.0000       0.0198
   10850.0    1302000       0.0927       0.0928       1.0000       0.2138    1256.7990       0.0000       0.0000       0.0198
   10850.5    1302060       0.0874       0.0916       1.0000       0.2171    1531.9041       0.0000       0.0000       0.0199
   10851.0    1302120       0.0885       0.0901       1.0000       0.2196    1557.9530       0.0000       0.0000       0.0198
   10851.5    1302180       0.0833       0.0896       1.0000       0.2232    1904.2080       0.0000       0.0000       0.0200
   10852.0    1302240       0.0839       0.0900       1.0000       0.2246    1927.8480       0.0000       0.0000       0.0202
   10852.5    1302300       0.0917       0.0905       1.0000       0.2245    1572.4250       0.0000       0.0000       0.0203
   10853.0    1302360       0.0969       0.0907       1.0000       0.2241    1364.0890       0.0000       0.0000       0.0203
   10853.5    1302420       0.0998       0.0937       1.0000       0.2227    1233.1820       0.0000       0.0000       0.0209
   10854.0    1302480       0.0951       0.0931       1.0000       0.2298    1586.3640       0.0000       0.0000       0.0214
   10854.5    1302540       0.0968       0.0937       1.0000       0.2293    1503.7410       0.0000       0.0000       0.0215
   10855.0    1302600       0.1067       0.0946       1.0000       0.2300    1181.9210       0.0000       0.0000       0.0218
   10855.5    1302660       0.1094       0.0944       1.0000       0.2344    1193.2650       0.0000       0.0000       0.0221
   10856.0    1302720       0.1175       0.0957       1.0000       0.2335     954.1884       0.0000       0.0000       0.0224
   10856.5    1302780       0.1169       0.0968       1.0000       0.2320     941.1128       0.0000       0.0000       0.0225
   10857.0    1302840       0.1201       0.0986       1.0000       0.2338     895.9975       0.0000       0.0000       0.0230
   10857.5    1302900       0.1094       0.1025       1.0000       0.2286    1072.6310       0.0000       0.0000       0.0234
   10858.0    1302960       0.0988       0.1027       1.0000       0.2342    1563.9980       0.0000       0.0000       0.0241
   10858.5    1303020       0.0892       0.1044       1.0000       0.2354    2047.2190       0.0000       0.0000       0.0246
   10859.0    1303080       0.0906       0.1093       1.0000       0.2281    1725.2980       0.0000       0.0000       0.0249
   10859.5    1303140       0.0897       0.1137       1.0000       0.2222    1586.0389       0.0000       0.0000       0.0253
   10860.0    1303200       0.0856       0.1170       1.0000       0.2145    1531.2791       0.0000       0.0000       0.0251
   10860.5    1303260       0.0843       0.1185       1.0000       0.2061    1353.8480       0.0000       0.0000       0.0244
   10861.0    1303320       0.0838       0.1212       1.0000       0.2046    1335.3040       0.0000       0.0000       0.0248
   10861.5    1303380       0.0865       0.1253       1.0000       0.2086    1341.0610       0.0000       0.0000       0.0261
   10862.0    1303440       0.0991       0.1266       1.0000       0.2099     992.3721       0.0000       0.0000       0.0266
   10862.5    1303500       0.1154       0.1343       1.0000       0.2073     620.9609       0.0000       0.0000       0.0278
   10863.0    1303560       0.1291       0.1444       1.0000       0.2051     418.0847       0.0000       0.0000       0.0296
   10863.5    1303620       0.1381       0.1517       1.0000       0.2003     303.8015       0.0000       0.0000       0.0304
   10864.0    1303680       0.1516       0.1554       1.0000       0.2080     246.9310       0.0000       0.0000       0.0323
   10864.5    1303740       0.1770       0.1775       1.0000       0.2183     154.8084       0.0000       0.0000       0.0387
