~VERSION INFORMATION
VERS.           2.0   :CWLS Log ASCII Standard - VERSION 2.0
WRAP.           NO    :One Line per depth step
PROD.  Schlumberger   :LAS Producer
PROG.  DLIS to ASCII 2.3                               :LAS Program name and version
CREA.        2019/04/03 19:50                          :LAS Creation date {YYYY/MM/DD hh:mm}
DLIS_CREA.  2009-Feb-18 14:27                          :DLIS Creation date and time {YYYY-MMM-DD hh:mm}
SOURCE.     WLC_PETRO_COMPUTED_OUTPUT_1.DLIS           :DLIS File Name
FILE-ID.     OUTPUT.logdata                            :File Identification Number
#--------------------------------------------------
~WELL INFORMATION
#MNEM.UNIT      DATA             DESCRIPTION
#---- ------ --------------   -----------------------------
STRT .F          657.0       :START DEPTH     
STOP .F        11567.5       :STOP DEPTH     
STEP .F            0.5       :STEP     
NULL .          -999.25      :NULL VALUE
COMP .        STATOILHYDRO                             :COMPANY
WELL .        15/9-F-4                                 :WELL
FLD  .        VOLVE                                    :FIELD
LOC  .                                                 :LOCATION
CNTY .        MAERSK INSPIRER                          :COUNTY
STAT .                                                 :STATE
CTRY .                                                 :COUNTRY
API  .                                                 :API NUMBER
UWI  .                                                 :UNIQUE WELL ID
DATE .                                                 :LOG DATE
SRVC .        CROCKER DATA PROCESSING                  :SERVICE COMPANY
LATI .DEG                                              :LATITUDE
LONG .DEG                                              :LONGITUDE
GDAT .                                                 :GeoDetic Datum
#-----------------------------------------------------------------------------
~PARAMETER INFORMATION
#MNEM.UNIT    VALUE                      DESCRIPTION
#---- -----   --------------------       ------------------------
CN   .        STATOILHYDRO               :Company
WN   .        15/9-F-4                   :Well Name
FN   .        VOLVE                      :Field
CTRY .        NORWAY                     :Country
COUN .        MAERSK INSPIRER            :County or Rig name
PDAT .        MSL                        :Perm. Datum
ELZ  .M          0.00000                 :Elev. Log Zero (wrt EPD)
R2   .        INPUT                      :R2
RUN  .                                   :RUN NUMBER
EPD  .                                   :Elevation of Permanent Datum above Mean Sea Level
LMF  .                                   :Logging Measured From (Name of Logging Elevation Reference)
APD  .                                   :Elevation of Depth Reference (LMF) above Permanent Datum
#-----------------------------------------------------------------------------
~CURVE INFORMATION
#MNEM.UNIT   API CODE                                  DESCRIPTION
#---- -----  --------                                  -----------------------
DEPTH.F                                                :DEPTH (BOREHOLE) {F10.1}
DEPTH..1IN                                             :Measured Depth {I11}
VSH  .V/V_DECIMAL                                      :VSH:UNKNOWN:rC:NONE:v1 {F13.4}
SW   .V/V_DECIMAL                                      :SW:UNKNOWN:rC:NONE:v1 {F13.4}
SAND_FLAG.UNKNOWN                                      :SAND_FLAG:UNKNOWN:rC:NONE:v1 {F13.4}
PHIF .V/V_DECIMAL                                      :PHIF:UNKNOWN:rC:NONE:v1 {F13.4}
KLOGH.MD                                               :KLOGH:UNKNOWN:rC:NONE:v2 {F13.4}
COAL_FLAG.UNKNOWN                                      :COAL_FLAG:UNKNOWN:rC:NONE:v1 {F13.4}
CARB_FLAG.UNKNOWN                                      :CARB_FLAG:UNKNOWN:rC:NONE:v1 {F13.4}
BVW  .V/V_DECIMAL                                      :BVW:UNKNOWN:rC:NONE:v1 {F13.4}
#-----------------------------------------------------------------------------
# 
#    DEPTH        DEPTH           VSH          SW        SAND_FLAG       PHIF        KLOGH      COAL_FLAG    CARB_FLAG       BVW
#
~A  
# ...
   11441.0    1372920       0.4356       0.7458       1.0000       0.1409       3.2943       0.0000       0.0000       0.1051
   11441.5    1372980       0.4351       0.7493       1.0000       0.1432       3.9099       0.0000       0.0000       0.1073
   11442.0    1373040       0.4402       0.7759       0.0000       0.1372       2.4537       0.0000       0.0000       0.1065
   11442.5    1373100       0.4421       0.8018       0.0000       0.1362       2.2481       0.0000       0.0000       0.1092
   11443.0    1373160       0.4476       0.8154       0.0000       0.1392       2.7257       0.0000       0.0000       0.1135
   11443.5    1373220       0.4580       0.8415       0.0000       0.1403       2.7767       0.0000       0.0000       0.1181
   11444.0    1373280       0.4384       0.8234       1.0000       0.1431       3.8066       0.0000       0.0000       0.1178
   11444.5    1373340       0.4258       0.8249       1.0000       0.1404       3.3654       0.0000       0.0000       0.1158
   11445.0    1373400       0.4172       0.8456       1.0000       0.1380       2.9546       0.0000       0.0000       0.1167
   11445.5    1373460       0.4406       0.8495       0.0000       0.1389       2.7747       0.0000       0.0000       0.1180
   11446.0    1373520       0.4488       0.8970       0.0000       0.1327       1.6718       0.0000       0.0000       0.1190
   11446.5    1373580       0.4430       1.0000       0.0000       0.0877       0.0626       0.0000       0.0000       0.0877
   11447.0    1373640       0.4352       1.0000       0.0000       0.0765       0.0287       0.0000       0.0000       0.0765
   11447.5    1373700       0.4246       1.0000       0.0000       0.0729       0.0235       0.0000       0.0000       0.0729
   11448.0    1373760       0.4166       1.0000       0.0000       0.0868       0.0683       0.0000       0.0000       0.0868
   11448.5    1373820       0.4036       0.8784       1.0000       0.1302       1.8035       0.0000       0.0000       0.1144
   11449.0    1373880       0.4091       1.0000       0.0000       0.0991       0.1764       0.0000       0.0000       0.0991
   11449.5    1373940       0.4130       1.0000       0.0000       0.0945       0.1226       0.0000       0.0000       0.0945
   11450.0    1374000       0.4189       1.0000       0.0000       0.0919       0.0985       0.0000       0.0000       0.0919
   11450.5    1374060       0.4180       1.0000       0.0000       0.0910       0.0926       0.0000       0.0000       0.0910
   11451.0    1374120       0.4259       1.0000       0.0000       0.0819       0.0453       0.0000       0.0000       0.0819
   11451.5    1374180       0.4263       1.0000       0.0000       0.0698       0.0184       0.0000       0.0000       0.0698
   11452.0    1374240       0.4210       1.0000       0.0000       0.0501       0.0045       0.0000       0.0000       0.0501
   11452.5    1374300       0.4130       1.0000       0.0000       0.0421       0.0026       0.0000       0.0000       0.0421
   11453.0    1374360       0.4042       1.0000       0.0000       0.0310       0.0012       0.0000       0.0000       0.0310
   11453.5    1374420       0.3968       1.0000       0.0000       0.0299       0.0012       0.0000       0.0000       0.0299
   11454.0    1374480       0.4233       1.0000       0.0000       0.0275       0.0010       0.0000       0.0000       0.0275
   11454.5    1374540       0.4491       1.0000       0.0000       0.0259       0.0010       0.0000       0.0000       0.0259
   11455.0    1374600       0.4731       1.0000       0.0000       0.0184       0.0010       0.0000       0.0000       0.0184
   11455.5    1374660       0.4555       1.0000       0.0000       0.0066       0.0010       0.0000       0.0000       0.0066
   11456.0    1374720       0.4395       1.0000       0.0000       0.0062       0.0010       0.0000       0.0000       0.0062
   11456.5    1374780       0.4199       1.0000       0.0000       0.0130       0.0010       0.0000       0.0000       0.0130
   11457.0    1374840       0.3938       1.0000       0.0000       0.0319       0.0014       0.0000       0.0000       0.0319
   11457.5    1374900       0.3778       1.0000       0.0000       0.0499       0.0056       0.0000       0.0000       0.0499
   11458.0    1374960       0.3540       0.8867       0.0000       0.0706       0.0297       0.0000       0.0000       0.0626
   11458.5    1375020       0.3539       0.8631       0.0000       0.0821       0.0693       0.0000       0.0000       0.0709
   11459.0    1375080       0.3553       0.9062       0.0000       0.0870       0.0988       0.0000       0.0000       0.0789
   11459.5    1375140       0.3692       0.7085       1.0000       0.1227       1.2642       0.0000       0.0000       0.0869
   11460.0    1375200       0.3690       0.7921       1.0000       0.1266       1.6907       0.0000       0.0000       0.1003
   11460.5    1375260       0.3627       0.8246       1.0000       0.1338       2.9704       0.0000       0.0000       0.1103
   11461.0    1375320       0.3643       0.8293       1.0000       0.1296       2.1666       0.0000       0.0000       0.1075
   11461.5    1375380       0.3566       0.8718       1.0000       0.1241       1.5024       0.0000       0.0000       0.1082
   11462.0    1375440       0.3514       0.9187       1.0000       0.1154       0.8190       0.0000       0.0000       0.1060
   11462.5    1375500       0.3423       0.9704       1.0000       0.1081       0.5044       0.0000       0.0000       0.1049
   11463.0    1375560       0.3397       1.0000       0.0000       0.0763       0.0492       0.0000       0.0000       0.0763
   11463.5    1375620       0.3371       0.9033       1.0000       0.1171       1.0030       0.0000       0.0000       0.1057
   11464.0    1375680       0.3345       0.8851       1.0000       0.1180       1.0908       0.0000       0.0000       0.1044
   11464.5    1375740       0.3329       0.8712       1.0000       0.1157       0.9294       0.0000       0.0000       0.1008
   11465.0    1375800       0.3276       0.8389       1.0000       0.1162       0.9956       0.0000       0.0000       0.0975
   11465.5    1375860       0.3192       0.9435       1.0000       0.1027       0.3864       0.0000       0.0000       0.0969
   11466.0    1375920       0.3221       1.0000       0.0000       0.0691       0.0319       0.0000       0.0000       0.0691
   11466.5    1375980       0.3259       1.0000       0.0000       0.0663       0.0254       0.0000       0.0000       0.0663
   11467.0    1376040       0.3277       1.0000       1.0000    -999.2500    -999.2500    -999.2500       0.0000       0.0663
   11467.5    1376100       0.3288       1.0000       1.0000    -999.2500    -999.2500    -999.2500       0.0000       0.0663
   11468.0    1376160       0.3234       1.0000       1.0000    -999.2500    -999.2500    -999.2500       0.0000       0.0663
   11468.5    1376220       0.3198       1.0000       1.0000    -999.2500    -999.2500    -999.2500       0.0000       0.0663
   11469.0    1376280       0.3121       1.0000       1.0000    -999.2500    -999.2500    -999.2500       0.0000       0.0663
   11469.5    1376340       0.3234       1.0000       1.0000    -999.2500    -999.2500    -999.2500       0.0000       0.0663
   11470.0    1376400       0.3298       1.0000       1.0000    -999.2500    -999.2500    -999.2500       0.0000       0.0663
   11470.5    1376460       0.3500       1.0000       1.0000    -999.2500    -999.2500    -999.2500       0.0000       0.0663
   11471.0    1376520       0.3654    -999.2500    -999.2500    -999.2500    -999.2500    -999.2500       0.0000    -999.2500
   11471.5    1376580       0.3895    -999.2500    -999.2500    -999.2500    -999.2500    -999.2500       0.0000    -999.2500
   11472.0    1376640       0.4155    -999.2500    -999.2500    -999.2500    -999.2500    -999.2500       0.0000    -999.2500
   11472.5    1376700       0.4400    -999.2500    -999.2500    -999.2500    -999.2500    -999.2500       0.0000    -999.2500
