~VERSION INFORMATION
VERS.           2.0   :CWLS Log ASCII Standard - VERSION 2.0
WRAP.           NO    :One Line per depth step
PROD.  Schlumberger   :LAS Producer
PROG.  DLIS to ASCII 2.3                               :LAS Program name and version
CREA.        2019/04/03 19:50                          :LAS Creation date {YYYY/MM/DD hh:mm}
DLIS_CREA.  2009-Feb-18 14:27                          :DLIS Creation date and time {YYYY-MMM-DD hh:mm}
SOURCE.     WLC_PETRO_COMPUTED_OUTPUT_1.DLIS           :DLIS File Name
FILE-ID.     OUTPUT.logdata                            :File Identification Number
#--------------------------------------------------
~WELL INFORMATION
#MNEM.UNIT      DATA             DESCRIPTION
#---- ------ --------------   -----------------------------
STRT .F          657.0       :START DEPTH     
STOP .F        11567.5       :STOP DEPTH     
STEP .F            0.5       :STEP     
NULL .          -999.25      :NULL VALUE
COMP .        STATOILHYDRO                             :COMPANY
WELL .        15/9-F-4                                 :WELL
FLD  .        VOLVE                                    :FIELD
LOC  .                                                 :LOCATION
CNTY .        MAERSK INSPIRER                          :COUNTY
STAT .                                                 :STATE
CTRY .                                                 :COUNTRY
API  .                                                 :API NUMBER
UWI  .                                                 :UNIQUE WELL ID
DATE .                                                 :LOG DATE
SRVC .        CROCKER DATA PROCESSING                  :SERVICE COMPANY
LATI .DEG                                              :LATITUDE
LONG .DEG                                              :LONGITUDE
GDAT .                                                 :GeoDetic Datum
#-----------------------------------------------------------------------------
~PARAMETER INFORMATION
#MNEM.UNIT    VALUE                      DESCRIPTION
#---- -----   --------------------       ------------------------
CN   .        STATOILHYDRO               :Company
WN   .        15/9-F-4                   :Well Name
FN   .        VOLVE                      :Field
CTRY .        NORWAY                     :Country
COUN .        MAERSK INSPIRER            :County or Rig name
PDAT .        MSL                        :Perm. Datum
ELZ  .M          0.00000                 :Elev. Log Zero (wrt EPD)
R2   .        INPUT                      :R2
RUN  .                                   :RUN NUMBER
EPD  .                                   :Elevation of Permanent Datum above Mean Sea Level
LMF  .                                   :Logging Measured From (Name of Logging Elevation Reference)
APD  .                                   :Elevation of Depth Reference (LMF) above Permanent Datum
#-----------------------------------------------------------------------------
~CURVE INFORMATION
#MNEM.UNIT   API CODE                                  DESCRIPTION
#---- -----  --------                                  -----------------------
DEPTH.F                                                :DEPTH (BOREHOLE) {F10.1}
DEPTH..1IN                                             :Measured Depth {I11}
VSH  .V/V_DECIMAL                                      :VSH:UNKNOWN:rC:NONE:v1 {F13.4}
SW   .V/V_DECIMAL                                      :SW:UNKNOWN:rC:NONE:v1 {F13.4}
SAND_FLAG.UNKNOWN                                      :SAND_FLAG:UNKNOWN:rC:NONE:v1 {F13.4}
PHIF .V/V_DECIMAL                                      :PHIF:UNKNOWN:rC:NONE:v1 {F13.4}
KLOGH.MD                                               :KLOGH:UNKNOWN:rC:NONE:v2 {F13.4}
COAL_FLAG.UNKNOWN                                      :COAL_FLAG:UNKNOWN:rC:NONE:v1 {F13.4}
CARB_FLAG.UNKNOWN                                      :CARB_FLAG:UNKNOWN:rC:NONE:v1 {F13.4}
BVW  .V/V_DECIMAL                                      :BVW:UNKNOWN:rC:NONE:v1 {F13.4}
#-----------------------------------------------------------------------------
# 
#    DEPTH        DEPTH           VSH          SW        SAND_FLAG       PHIF        KLOGH      COAL_FLAG    CARB_FLAG       BVW
#
~A  
# ...
   10577.0    1269240       0.2077       1.0000       1.0000       0.1095       9.4630       0.0000       0.0000       0.1095
   10577.5    1269300       0.2157       1.0000       1.0000       0.1169       8.8126       0.0000       0.0000       0.1169
   10578.0    1269360       0.2145       1.0000       1.0000       0.1465      15.6760       0.0000       0.0000       0.1465
   10578.5    1269420       0.2119       1.0000       1.0000       0.1637      23.0224       0.0000       0.0000       0.1637
   10579.0    1269480       0.2083       1.0000       1.0000       0.1639      25.3513       0.0000       0.0000       0.1639
   10579.5    1269540       0.2049       1.0000       1.0000       0.1669      29.2247       0.0000       0.0000       0.1669
   10580.0    1269600       0.1930       1.0000       1.0000       0.1599      35.0109       0.0000       0.0000       0.1599
   10580.5    1269660       0.1823       1.0000       1.0000       0.1604      46.4916       0.0000       0.0000       0.1604
   10581.0    1269720       0.1727       1.0000       1.0000       0.1505      49.7109       0.0000       0.0000       0.1505
   10581.5    1269780       0.1797       1.0000       1.0000       0.1546      44.7226       0.0000       0.0000       0.1546
   10582.0    1269840       0.1845       1.0000       1.0000       0.1529      38.2935       0.0000       0.0000       0.1529
   10582.5    1269900       0.1840       1.0000       1.0000       0.1419      31.6524       0.0000       0.0000       0.1419
   10583.0    1269960       0.1795       1.0000       1.0000       0.1110      20.1096       0.0000       0.0000       0.1110
   10583.5    1270020       0.1763       1.0000       0.0000       0.0880      14.3149       0.0000       0.0000       0.0880
   10584.0    1270080       0.1950       1.0000       0.0000       0.0905       9.2397       0.0000       0.0000       0.0905
   10584.5    1270140       0.2038       1.0000       1.0000       0.1120      10.9535       0.0000       0.0000       0.1120
   10585.0    1270200       0.2067       1.0000       1.0000       0.1290      13.8798       0.0000       0.0000       0.1290
   10585.5    1270260       0.1989       1.0000       1.0000       0.1006      10.0585       0.0000       0.0000       0.1006
   10586.0    1270320       0.1983       1.0000       0.0000       0.0883       8.1432       0.0000       0.0000       0.0883
   10586.5    1270380       0.2041       1.0000       0.0000       0.0754       5.5415       0.0000       0.0000       0.0754
   10587.0    1270440       0.2076       1.0000       1.0000       0.1172      10.9022       0.0000       0.0000       0.1172
   10587.5    1270500       0.2068       1.0000       1.0000       0.1378      16.2738       0.0000       0.0000       0.1378
   10588.0    1270560       0.2127       1.0000       1.0000       0.1618      21.7757       0.0000       0.0000       0.1618
   10588.5    1270620       0.2239       1.0000       1.0000       0.1649      17.2255       0.0000       0.0000       0.1649
   10589.0    1270680       0.2420       1.0000       1.0000       0.1649      10.8024       0.0000       0.0000       0.1649
   10589.5    1270740       0.2444       1.0000       1.0000       0.1539       8.2890       0.0000       0.0000       0.1539
   10590.0    1270800       0.2456       1.0000       1.0000       0.1452       6.8553       0.0000       0.0000       0.1452
   10590.5    1270860       0.2500       1.0000       1.0000       0.1370       5.2657       0.0000       0.0000       0.1370
   10591.0    1270920       0.2587       1.0000       1.0000       0.1304       3.7219       0.0000       0.0000       0.1304
   10591.5    1270980       0.2608       1.0000       1.0000       0.1251       3.1932       0.0000       0.0000       0.1251
   10592.0    1271040       0.2606       1.0000       1.0000       0.1167       2.7548       0.0000       0.0000       0.1167
   10592.5    1271100       0.2580       1.0000       1.0000       0.1120       2.7008       0.0000       0.0000       0.1120
   10593.0    1271160       0.2650       1.0000       1.0000       0.1168       2.4635       0.0000       0.0000       0.1168
   10593.5    1271220       0.2667       1.0000       1.0000       0.1250       2.7399       0.0000       0.0000       0.1250
   10594.0    1271280       0.2750       1.0000       1.0000       0.1377       2.7971       0.0000       0.0000       0.1377
   10594.5    1271340       0.2833       1.0000       1.0000       0.1405       2.3741       0.0000       0.0000       0.1405
   10595.0    1271400       0.2890       1.0000       1.0000       0.1461       2.2719       0.0000       0.0000       0.1461
   10595.5    1271460       0.3097       1.0000       1.0000       0.1407       1.2057       0.0000       0.0000       0.1407
   10596.0    1271520       0.3233       1.0000       1.0000       0.1424       0.8744       0.0000       0.0000       0.1424
   10596.5    1271580       0.3457       1.0000       1.0000       0.1384       0.4561       0.0000       0.0000       0.1384
   10597.0    1271640       0.3556       1.0000       1.0000       0.1352       0.3328       0.0000       0.0000       0.1352
   10597.5    1271700       0.3677       1.0000       1.0000       0.1083       0.1482       0.0000       0.0000       0.1083
   10598.0    1271760       0.3560       1.0000       0.0000       0.0477       0.0657       0.0000       0.0000       0.0477
   10598.5    1271820       0.3201       1.0000       0.0000       0.0383       0.1396       0.0000       1.0000       0.0383
   10599.0    1271880       0.2668       1.0000       0.0000       0.0289       0.4652       0.0000       1.0000       0.0289
   10599.5    1271940       0.2278       1.0000       0.0000       0.0195       1.0697       0.0000       1.0000       0.0195
   10600.0    1272000       0.2263       1.0000       0.0000       0.0101       0.9368       0.0000       0.0000       0.0101
   10600.5    1272060       0.2387       1.0000       0.0000       0.0925       3.1048       0.0000       0.0000       0.0925
   10601.0    1272120       0.2510       1.0000       1.0000       0.1352       4.9514       0.0000       0.0000       0.1352
   10601.5    1272180       0.2532       0.9448       1.0000       0.1566       6.9361       0.0000       0.0000       0.1479
   10602.0    1272240       0.2481       0.9313       1.0000       0.1665       9.5140       0.0000       0.0000       0.1551
   10602.5    1272300       0.2481       0.8826       1.0000       0.1749      11.1139       0.0000       0.0000       0.1544
   10603.0    1272360       0.2386       0.7352       1.0000       0.1937      20.0360       0.0000       0.0000       0.1424
   10603.5    1272420       0.2312       0.6647       1.0000       0.2028      28.7523       0.0000       0.0000       0.1348
   10604.0    1272480       0.2210       0.6747       1.0000       0.1951      32.4174       0.0000       0.0000       0.1316
   10604.5    1272540       0.2147       0.6992       1.0000       0.1818      29.9020       0.0000       0.0000       0.1271
   10605.0    1272600       0.2124       0.7214       1.0000       0.1705      25.7388       0.0000       0.0000       0.1230
   10605.5    1272660       0.2059       0.6995       1.0000       0.1710      30.7367       0.0000       0.0000       0.1196
   10606.0    1272720       0.2062       0.7367       1.0000       0.1605      25.1735       0.0000       0.0000       0.1183
   10606.5    1272780       0.2058       0.7337       1.0000       0.1637      26.9579       0.0000       0.0000       0.1201
   10607.0    1272840       0.2164       0.6871       1.0000       0.1723      24.0165       0.0000       0.0000       0.1184
   10607.5    1272900       0.2171       0.6399       1.0000       0.1754      24.9664       0.0000       0.0000       0.1122
   10608.0    1272960       0.2240       0.6549       1.0000       0.1619      16.2871       0.0000       0.0000       0.1060
   10608.5    1273020       0.2260       1.0000       1.0000       0.1026       5.1871       0.0000       0.0000       0.1026
