~VERSION INFORMATION
VERS.           2.0   :CWLS Log ASCII Standard - VERSION 2.0
WRAP.           NO    :One Line per depth step
PROD.  Schlumberger   :LAS Producer
PROG.  DLIS to ASCII 2.3                               :LAS Program name and version
CREA.        2019/04/03 19:50                          :LAS Creation date {YYYY/MM/DD hh:mm}
DLIS_CREA.  2009-Feb-18 14:27                          :DLIS Creation date and time {YYYY-MMM-DD hh:mm}
SOURCE.     WLC_PETRO_COMPUTED_OUTPUT_1.DLIS           :DLIS File Name
FILE-ID.     OUTPUT.logdata                            :File Identification Number
#--------------------------------------------------
~WELL INFORMATION
#MNEM.UNIT      DATA             DESCRIPTION
#---- ------ --------------   -----------------------------
STRT .F          657.0       :START DEPTH     
STOP .F        11567.5       :STOP DEPTH     
STEP .F            0.5       :STEP     
NULL .          -999.25      :NULL VALUE
COMP .        STATOILHYDRO                             :COMPANY
WELL .        15/9-F-4                                 :WELL
FLD  .        VOLVE                                    :FIELD
LOC  .                                                 :LOCATION
CNTY .        MAERSK INSPIRER                          :COUNTY
STAT .                                                 :STATE
CTRY .                                                 :COUNTRY
API  .                                                 :API NUMBER
UWI  .                                                 :UNIQUE WELL ID
DATE .                                                 :LOG DATE
SRVC .        CROCKER DATA PROCESSING                  :SERVICE COMPANY
LATI .DEG                                              :LATITUDE
LONG .DEG                                              :LONGITUDE
GDAT .                                                 :GeoDetic Datum
#-----------------------------------------------------------------------------
~PARAMETER INFORMATION
#MNEM.UNIT    VALUE                      DESCRIPTION
#---- -----   --------------------       ------------------------
CN   .        STATOILHYDRO               :Company
WN   .        15/9-F-4                   :Well Name
FN   .        VOLVE                      :Field
CTRY .        NORWAY                     :Country
COUN .        MAERSK INSPIRER            :County or Rig name
PDAT .        MSL                        :Perm. Datum
ELZ  .M          0.00000                 :Elev. Log Zero (wrt EPD)
R2   .        INPUT                      :R2
RUN  .                                   :RUN NUMBER
EPD  .                                   :Elevation of Permanent Datum above Mean Sea Level
LMF  .                                   :Logging Measured From (Name of Logging Elevation Reference)
APD  .                                   :Elevation of Depth Reference (LMF) above Permanent Datum
#-----------------------------------------------------------------------------
~CURVE INFORMATION
#MNEM.UNIT   API CODE                                  DESCRIPTION
#---- -----  --------                                  -----------------------
DEPTH.F                                                :DEPTH (BOREHOLE) {F10.1}
DEPTH..1IN                                             :Measured Depth {I11}
VSH  .V/V_DECIMAL                                      :VSH:UNKNOWN:rC:NONE:v1 {F13.4}
SW   .V/V_DECIMAL                                      :SW:UNKNOWN:rC:NONE:v1 {F13.4}
SAND_FLAG.UNKNOWN                                      :SAND_FLAG:UNKNOWN:rC:NONE:v1 {F13.4}
PHIF .V/V_DECIMAL                                      :PHIF:UNKNOWN:rC:NONE:v1 {F13.4}
KLOGH.MD                                               :KLOGH:UNKNOWN:rC:NONE:v2 {F13.4}
COAL_FLAG.UNKNOWN                                      :COAL_FLAG:UNKNOWN:rC:NONE:v1 {F13.4}
CARB_FLAG.UNKNOWN                                      :CARB_FLAG:UNKNOWN:rC:NONE:v1 {F13.4}
BVW  .V/V_DECIMAL                                      :BVW:UNKNOWN:rC:NONE:v1 {F13.4}
#-----------------------------------------------------------------------------
# 
#    DEPTH        DEPTH           VSH          SW        SAND_FLAG       PHIF        KLOGH      COAL_FLAG    CARB_FLAG       BVW
#
~A  
# ...
   10513.0    1261560       0.5997       1.0000       0.0000       0.1030       0.0010       0.0000       0.0000       0.1030
   10513.5    1261620       0.5996       1.0000       0.0000       0.1030       0.0010       0.0000       0.0000       0.1030
   10514.0    1261680       0.5803       1.0000       0.0000       0.0987       0.0010       0.0000       0.0000       0.0987
   10514.5    1261740       0.5554       1.0000       0.0000       0.0902       0.0010       0.0000       0.0000       0.0902
   10515.0    1261800       0.5478       1.0000       0.0000       0.0850       0.0010       0.0000       0.0000       0.0850
   10515.5    1261860       0.5487       1.0000       0.0000       0.0725       0.0010       0.0000       0.0000       0.0725
   10516.0    1261920       0.5535       1.0000       0.0000       0.0693       0.0010       0.0000       0.0000       0.0693
   10516.5    1261980       0.5559       1.0000       0.0000       0.0699       0.0010       0.0000       0.0000       0.0699
   10517.0    1262040       0.5780       1.0000       0.0000       0.0833       0.0010       0.0000       0.0000       0.0833
   10517.5    1262100       0.5957       1.0000       0.0000       0.0840       0.0010       0.0000       0.0000       0.0840
   10518.0    1262160       0.6251       1.0000       0.0000       0.0829       0.0010       0.0000       0.0000       0.0829
   10518.5    1262220       0.6310       1.0000       0.0000       0.0807       0.0010       0.0000       0.0000       0.0807
   10519.0    1262280       0.6514       1.0000       0.0000       0.0917       0.0010       0.0000       0.0000       0.0917
   10519.5    1262340       0.6590       1.0000       0.0000       0.0977       0.0010       0.0000       0.0000       0.0977
   10520.0    1262400       0.6584       1.0000       0.0000       0.0968       0.0010       0.0000       0.0000       0.0968
   10520.5    1262460       0.6452       1.0000       0.0000       0.0955       0.0010       0.0000       0.0000       0.0955
   10521.0    1262520       0.6389       1.0000       0.0000       0.0975       0.0010       0.0000       0.0000       0.0975
   10521.5    1262580       0.6333       1.0000       0.0000       0.1091       0.0010       0.0000       0.0000       0.1091
   10522.0    1262640       0.6379       1.0000       0.0000       0.1166       0.0010       0.0000       0.0000       0.1166
   10522.5    1262700       0.6371       1.0000       0.0000       0.1157       0.0010       0.0000       0.0000       0.1157
   10523.0    1262760       0.6538       1.0000       0.0000       0.1065       0.0010       0.0000       0.0000       0.1065
   10523.5    1262820       0.6513       1.0000       0.0000       0.0901       0.0010       0.0000       0.0000       0.0901
   10524.0    1262880       0.6421       1.0000       0.0000       0.0802       0.0010       0.0000       0.0000       0.0802
   10524.5    1262940       0.6111       1.0000       0.0000       0.0786       0.0010       0.0000       0.0000       0.0786
   10525.0    1263000       0.6043       1.0000       0.0000       0.0808       0.0010       0.0000       0.0000       0.0808
   10525.5    1263060       0.5940       1.0000       0.0000       0.0833       0.0010       0.0000       0.0000       0.0833
   10526.0    1263120       0.5969       1.0000       0.0000       0.0848       0.0010       0.0000       0.0000       0.0848
   10526.5    1263180       0.5921       1.0000       0.0000       0.0889       0.0010       0.0000       0.0000       0.0889
   10527.0    1263240       0.5959       1.0000       0.0000       0.0878       0.0010       0.0000       0.0000       0.0878
   10527.5    1263300       0.5965       1.0000       0.0000       0.0937       0.0010       0.0000       0.0000       0.0937
   10528.0    1263360       0.6011       1.0000       0.0000       0.1012       0.0010       0.0000       0.0000       0.1012
   10528.5    1263420       0.6046       1.0000       0.0000       0.1133       0.0010       0.0000       0.0000       0.1133
   10529.0    1263480       0.6141       1.0000       0.0000       0.1101       0.0010       0.0000       0.0000       0.1101
   10529.5    1263540       0.6148       1.0000       0.0000       0.1002       0.0010       0.0000       0.0000       0.1002
   10530.0    1263600       0.5977       1.0000       0.0000       0.0873       0.0010       0.0000       0.0000       0.0873
   10530.5    1263660       0.5997       1.0000       0.0000       0.0906       0.0010       0.0000       0.0000       0.0906
   10531.0    1263720       0.6074       1.0000       0.0000       0.0966       0.0010       0.0000       0.0000       0.0966
   10531.5    1263780       0.6152       1.0000       0.0000       0.0964       0.0010       0.0000       0.0000       0.0964
   10532.0    1263840       0.5989       1.0000       0.0000       0.0655       0.0010       0.0000       0.0000       0.0655
   10532.5    1263900       0.5664       1.0000       0.0000       0.0373       0.0010       0.0000       0.0000       0.0373
   10533.0    1263960       0.5373       1.0000       0.0000       0.0043       0.0010       0.0000       0.0000       0.0043
   10533.5    1264020       0.5032       1.0000       0.0000       0.0039       0.0010       0.0000       1.0000       0.0039
   10534.0    1264080       0.4756       1.0000       0.0000       0.0035       0.0010       0.0000       1.0000       0.0035
   10534.5    1264140       0.4821       1.0000       0.0000       0.0031       0.0010       0.0000       0.0000       0.0031
   10535.0    1264200       0.5145       1.0000       0.0000       0.0235       0.0010       0.0000       0.0000       0.0235
   10535.5    1264260       0.5673       1.0000       0.0000       0.0543       0.0010       0.0000       0.0000       0.0543
   10536.0    1264320       0.6204       1.0000       0.0000       0.0772       0.0010       0.0000       0.0000       0.0772
   10536.5    1264380       0.6656       1.0000       0.0000       0.0892       0.0010       0.0000       0.0000       0.0892
   10537.0    1264440       0.6863       1.0000       0.0000       0.0930       0.0010       0.0000       0.0000       0.0930
   10537.5    1264500       0.6660       1.0000       0.0000       0.0970       0.0010       0.0000       0.0000       0.0970
   10538.0    1264560       0.6425       1.0000       0.0000       0.0929       0.0010       0.0000       0.0000       0.0929
   10538.5    1264620       0.6232       1.0000       0.0000       0.0940       0.0010       0.0000       0.0000       0.0940
   10539.0    1264680       0.6305       1.0000       0.0000       0.0917       0.0010       0.0000       0.0000       0.0917
   10539.5    1264740       0.6099       1.0000       0.0000       0.1021       0.0010       0.0000       0.0000       0.1021
   10540.0    1264800       0.6076       1.0000       0.0000       0.1020       0.0010       0.0000       0.0000       0.1020
   10540.5    1264860       0.5949       1.0000       0.0000       0.1009       0.0010       0.0000       0.0000       0.1009
   10541.0    1264920       0.6040       1.0000       0.0000       0.0952       0.0010       0.0000       0.0000       0.0952
   10541.5    1264980       0.6069       1.0000       0.0000       0.0910       0.0010       0.0000       0.0000       0.0910
   10542.0    1265040       0.6140       1.0000       0.0000       0.0840       0.0010       0.0000       0.0000       0.0840
   10542.5    1265100       0.6154       1.0000       0.0000       0.0903       0.0010       0.0000       0.0000       0.0903
   10543.0    1265160       0.6196       1.0000       0.0000       0.0896       0.0010       0.0000       0.0000       0.0896
   10543.5    1265220       0.6229       1.0000       0.0000       0.0971       0.0010       0.0000       0.0000       0.0971
   10544.0    1265280       0.6428       1.0000       0.0000       0.0982       0.0010       0.0000       0.0000       0.0982
   10544.5    1265340       0.6535       1.0000       0.0000       0.1072       0.0010       0.0000       0.0000       0.1072
