~VERSION INFORMATION
VERS.           2.0   :CWLS Log ASCII Standard - VERSION 2.0
WRAP.           NO    :One Line per depth step
PROD.  Schlumberger   :LAS Producer
PROG.  DLIS to ASCII 2.3                               :LAS Program name and version
CREA.        2019/04/03 19:50                          :LAS Creation date {YYYY/MM/DD hh:mm}
DLIS_CREA.  2009-Feb-18 14:27                          :DLIS Creation date and time {YYYY-MMM-DD hh:mm}
SOURCE.     WLC_PETRO_COMPUTED_OUTPUT_1.DLIS           :DLIS File Name
FILE-ID.     OUTPUT.logdata                            :File Identification Number
#--------------------------------------------------
~WELL INFORMATION
#MNEM.UNIT      DATA             DESCRIPTION
#---- ------ --------------   -----------------------------
STRT .F          657.0       :START DEPTH     
STOP .F        11567.5       :STOP DEPTH     
STEP .F            0.5       :STEP     
NULL .          -999.25      :NULL VALUE
COMP .        STATOILHYDRO                             :COMPANY
WELL .        15/9-F-4                                 :WELL
FLD  .        VOLVE                                    :FIELD
LOC  .                                                 :LOCATION
CNTY .        MAERSK INSPIRER                          :COUNTY
STAT .                                                 :STATE
CTRY .                                                 :COUNTRY
API  .                                                 :API NUMBER
UWI  .                                                 :UNIQUE WELL ID
DATE .                                                 :LOG DATE
SRVC .        CROCKER DATA PROCESSING                  :SERVICE COMPANY
LATI .DEG                                              :LATITUDE
LONG .DEG                                              :LONGITUDE
GDAT .                                                 :GeoDetic Datum
#-----------------------------------------------------------------------------
~PARAMETER INFORMATION
#MNEM.UNIT    VALUE                      DESCRIPTION
#---- -----   --------------------       ------------------------
CN   .        STATOILHYDRO               :Company
WN   .        15/9-F-4                   :Well Name
FN   .        VOLVE                      :Field
CTRY .        NORWAY                     :Country
COUN .        MAERSK INSPIRER            :County or Rig name
PDAT .        MSL                        :Perm. Datum
ELZ  .M          0.00000                 :Elev. Log Zero (wrt EPD)
R2   .        INPUT                      :R2
RUN  .                                   :RUN NUMBER
EPD  .                                   :Elevation of Permanent Datum above Mean Sea Level
LMF  .                                   :Logging Measured From (Name of Logging Elevation Reference)
APD  .                                   :Elevation of Depth Reference (LMF) above Permanent Datum
#-----------------------------------------------------------------------------
~CURVE INFORMATION
#MNEM.UNIT   API CODE                                  DESCRIPTION
#---- -----  --------                                  -----------------------
DEPTH.F                                                :DEPTH (BOREHOLE) {F10.1}
DEPTH..1IN                                             :Measured Depth {I11}
VSH  .V/V_DECIMAL                                      :VSH:UNKNOWN:rC:NONE:v1 {F13.4}
SW   .V/V_DECIMAL                                      :SW:UNKNOWN:rC:NONE:v1 {F13.4}
SAND_FLAG.UNKNOWN                                      :SAND_FLAG:UNKNOWN:rC:NONE:v1 {F13.4}
PHIF .V/V_DECIMAL                                      :PHIF:UNKNOWN:rC:NONE:v1 {F13.4}
KLOGH.MD                                               :KLOGH:UNKNOWN:rC:NONE:v2 {F13.4}
COAL_FLAG.UNKNOWN                                      :COAL_FLAG:UNKNOWN:rC:NONE:v1 {F13.4}
CARB_FLAG.UNKNOWN                                      :CARB_FLAG:UNKNOWN:rC:NONE:v1 {F13.4}
BVW  .V/V_DECIMAL                                      :BVW:UNKNOWN:rC:NONE:v1 {F13.4}
#-----------------------------------------------------------------------------
# 
#    DEPTH        DEPTH           VSH          SW        SAND_FLAG       PHIF        KLOGH      COAL_FLAG    CARB_FLAG       BVW
#
~A  
# ...
   10321.0    1238520       0.7732       1.0000       0.0000       0.1305       0.0010       0.0000       0.0000       0.1305
   10321.5    1238580       0.7729       1.0000       0.0000       0.1281       0.0010       0.0000       0.0000       0.1281
   10322.0    1238640       0.7727       1.0000       0.0000       0.1194       0.0010       0.0000       0.0000       0.1194
   10322.5    1238700       0.7724       1.0000       0.0000       0.1155       0.0010       0.0000       0.0000       0.1155
   10323.0    1238760       0.7722       1.0000       0.0000       0.1163       0.0010       0.0000       0.0000       0.1163
   10323.5    1238820       0.7719       0.9995       0.0000       0.1213       0.0010       0.0000       0.0000       0.1212
   10324.0    1238880       0.7716       1.0000       0.0000       0.1236       0.0010       0.0000       0.0000       0.1236
   10324.5    1238940       0.7714       1.0000       0.0000       0.1264       0.0010       0.0000       0.0000       0.1264
   10325.0    1239000       0.7711       1.0000       0.0000       0.1204       0.0010       0.0000       0.0000       0.1204
   10325.5    1239060       0.7708       1.0000       0.0000       0.1093       0.0010       0.0000       0.0000       0.1093
   10326.0    1239120       0.7706       1.0000       0.0000       0.1069       0.0010       0.0000       0.0000       0.1069
   10326.5    1239180       0.7703       1.0000       0.0000       0.1046       0.0010       0.0000       0.0000       0.1046
   10327.0    1239240       0.7700       1.0000       0.0000       0.1104       0.0010       0.0000       0.0000       0.1104
   10327.5    1239300       0.7698       1.0000       0.0000       0.1111       0.0010       0.0000       0.0000       0.1111
   10328.0    1239360       0.7695       1.0000       0.0000       0.1120       0.0010       0.0000       0.0000       0.1120
   10328.5    1239420       0.7454       1.0000       0.0000       0.1151       0.0010       0.0000       0.0000       0.1151
   10329.0    1239480       0.7632       1.0000       0.0000       0.1151       0.0010       0.0000       0.0000       0.1151
   10329.5    1239540       0.7926       1.0000       0.0000       0.1257       0.0010       0.0000       0.0000       0.1257
   10330.0    1239600       0.7929       0.9955       0.0000       0.1343       0.0010       0.0000       0.0000       0.1337
   10330.5    1239660       0.7932       0.8376       0.0000       0.1490       0.0010       0.0000       0.0000       0.1248
   10331.0    1239720       0.7935       0.8579       0.0000       0.1524       0.0010       0.0000       0.0000       0.1307
   10331.5    1239780       0.7938       0.8541       0.0000       0.1497       0.0010       0.0000       0.0000       0.1279
   10332.0    1239840       0.7940       0.8545       0.0000       0.1441       0.0010       0.0000       0.0000       0.1231
   10332.5    1239900       0.7943       0.9020       0.0000       0.1428       0.0010       0.0000       0.0000       0.1288
   10333.0    1239960       0.7946       0.8950       0.0000       0.1448       0.0010       0.0000       0.0000       0.1296
   10333.5    1240020       0.7949       0.8602       0.0000       0.1464       0.0010       0.0000       0.0000       0.1260
   10334.0    1240080       0.7952       0.8143       0.0000       0.1466       0.0010       0.0000       0.0000       0.1194
   10334.5    1240140       0.7955       0.8010       0.0000       0.1484       0.0010       0.0000       0.0000       0.1189
   10335.0    1240200       0.7958       0.7477       0.0000       0.1513       0.0010       0.0000       0.0000       0.1131
   10335.5    1240260       0.7961       0.8313       0.0000       0.1544       0.0010       0.0000       0.0000       0.1284
   10336.0    1240320       0.7964       0.7745       0.0000       0.1613       0.0010       0.0000       0.0000       0.1249
   10336.5    1240380       0.7967       0.7557       0.0000       0.1664       0.0010       0.0000       0.0000       0.1258
   10337.0    1240440       0.7970       0.7141       0.0000       0.1719       0.0010       0.0000       0.0000       0.1228
   10337.5    1240500       0.7973       0.6913       0.0000       0.1733       0.0010       0.0000       0.0000       0.1198
   10338.0    1240560       0.7975       0.7100       0.0000       0.1698       0.0010       0.0000       0.0000       0.1206
   10338.5    1240620       0.7978       0.7396       0.0000       0.1626       0.0010       0.0000       0.0000       0.1202
   10339.0    1240680       0.7981       0.7879       0.0000       0.1499       0.0010       0.0000       0.0000       0.1181
   10339.5    1240740       0.7984       0.8265       0.0000       0.1425       0.0010       0.0000       0.0000       0.1177
   10340.0    1240800       0.7987       0.9126       0.0000       0.1414       0.0010       0.0000       0.0000       0.1291
   10340.5    1240860       0.7990       0.9376       0.0000       0.1489       0.0010       0.0000       0.0000       0.1396
   10341.0    1240920       0.7994       0.9139       0.0000       0.1517       0.0010       0.0000       0.0000       0.1387
   10341.5    1240980       0.7998       0.8244       0.0000       0.1534       0.0010       0.0000       0.0000       0.1264
   10342.0    1241040       0.7958       0.8487       0.0000       0.1508       0.0010       0.0000       0.0000       0.1280
   10342.5    1241100       0.7918       0.8733       0.0000       0.1455       0.0010       0.0000       0.0000       0.1270
   10343.0    1241160       0.7877       0.9440       0.0000       0.1360       0.0010       0.0000       0.0000       0.1283
   10343.5    1241220       0.7837       0.9739       0.0000       0.1298       0.0010       0.0000       0.0000       0.1264
   10344.0    1241280       0.7797       0.9494       0.0000       0.1299       0.0010       0.0000       0.0000       0.1233
   10344.5    1241340       0.7757       0.9469       0.0000       0.1261       0.0010       0.0000       0.0000       0.1195
   10345.0    1241400       0.7717       1.0000       0.0000       0.1155       0.0010       0.0000       0.0000       0.1155
   10345.5    1241460       0.7676       1.0000       0.0000       0.1154       0.0010       0.0000       0.0000       0.1154
   10346.0    1241520       0.7384       1.0000       0.0000       0.1184       0.0010       0.0000       0.0000       0.1184
   10346.5    1241580       0.7398       1.0000       0.0000       0.1262       0.0010       0.0000       0.0000       0.1262
   10347.0    1241640       0.7592       1.0000       0.0000       0.1228       0.0010       0.0000       0.0000       0.1228
   10347.5    1241700       0.7614       1.0000       0.0000       0.1286       0.0010       0.0000       0.0000       0.1286
   10348.0    1241760       0.7485       1.0000       0.0000       0.1293       0.0010       0.0000       0.0000       0.1293
   10348.5    1241820       0.7354       1.0000       0.0000       0.1316       0.0010       0.0000       0.0000       0.1316
   10349.0    1241880       0.7263       1.0000       0.0000       0.1230       0.0010       0.0000       0.0000       0.1230
   10349.5    1241940       0.7292       1.0000       0.0000       0.1202       0.0010       0.0000       0.0000       0.1202
   10350.0    1242000       0.7141       1.0000       0.0000       0.1175       0.0010       0.0000       0.0000       0.1175
   10350.5    1242060       0.7176       1.0000       0.0000       0.1189       0.0010       0.0000       0.0000       0.1189
   10351.0    1242120       0.7356       1.0000       0.0000       0.1246       0.0010       0.0000       0.0000       0.1246
   10351.5    1242180       0.7483       1.0000       0.0000       0.1293       0.0010       0.0000       0.0000       0.1293
   10352.0    1242240       0.7597       1.0000       0.0000       0.1346       0.0010       0.0000       0.0000       0.1346
   10352.5    1242300       0.7553       1.0000       0.0000       0.1320       0.0010       0.0000       0.0000       0.1320
