~VERSION INFORMATION
VERS.           2.0   :CWLS Log ASCII Standard - VERSION 2.0
WRAP.           NO    :One Line per depth step
PROD.  Schlumberger   :LAS Producer
PROG.  DLIS to ASCII 2.3                               :LAS Program name and version
CREA.        2019/04/03 19:50                          :LAS Creation date {YYYY/MM/DD hh:mm}
DLIS_CREA.  2009-Feb-18 14:27                          :DLIS Creation date and time {YYYY-MMM-DD hh:mm}
SOURCE.     WLC_PETRO_COMPUTED_OUTPUT_1.DLIS           :DLIS File Name
FILE-ID.     OUTPUT.logdata                            :File Identification Number
#--------------------------------------------------
~WELL INFORMATION
#MNEM.UNIT      DATA             DESCRIPTION
#---- ------ --------------   -----------------------------
STRT .F          657.0       :START DEPTH     
STOP .F        11567.5       :STOP DEPTH     
STEP .F            0.5       :STEP     
NULL .          -999.25      :NULL VALUE
COMP .        STATOILHYDRO                             :COMPANY
WELL .        15/9-F-4                                 :WELL
FLD  .        VOLVE                                    :FIELD
LOC  .                                                 :LOCATION
CNTY .        MAERSK INSPIRER                          :COUNTY
STAT .                                                 :STATE
CTRY .                                                 :COUNTRY
API  .                                                 :API NUMBER
UWI  .                                                 :UNIQUE WELL ID
DATE .                                                 :LOG DATE
SRVC .        CROCKER DATA PROCESSING                  :SERVICE COMPANY
LATI .DEG                                              :LATITUDE
LONG .DEG                                              :LONGITUDE
GDAT .                                                 :GeoDetic Datum
#-----------------------------------------------------------------------------
~PARAMETER INFORMATION
#MNEM.UNIT    VALUE                      DESCRIPTION
#---- -----   --------------------       ------------------------
CN   .        STATOILHYDRO               :Company
WN   .        15/9-F-4                   :Well Name
FN   .        VOLVE                      :Field
CTRY .        NORWAY                     :Country
COUN .        MAERSK INSPIRER            :County or Rig name
PDAT .        MSL                        :Perm. Datum
ELZ  .M          0.00000                 :Elev. Log Zero (wrt EPD)
R2   .        INPUT                      :R2
RUN  .                                   :RUN NUMBER
EPD  .                                   :Elevation of Permanent Datum above Mean Sea Level
LMF  .                                   :Logging Measured From (Name of Logging Elevation Reference)
APD  .                                   :Elevation of Depth Reference (LMF) above Permanent Datum
#-----------------------------------------------------------------------------
~CURVE INFORMATION
#MNEM.UNIT   API CODE                                  DESCRIPTION
#---- -----  --------                                  -----------------------
DEPTH.F                                                :DEPTH (BOREHOLE) {F10.1}
DEPTH..1IN                                             :Measured Depth {I11}
VSH  .V/V_DECIMAL                                      :VSH:UNKNOWN:rC:NONE:v1 {F13.4}
SW   .V/V_DECIMAL                                      :SW:UNKNOWN:rC:NONE:v1 {F13.4}
SAND_FLAG.UNKNOWN                                      :SAND_FLAG:UNKNOWN:rC:NONE:v1 {F13.4}
PHIF .V/V_DECIMAL                                      :PHIF:UNKNOWN:rC:NONE:v1 {F13.4}
KLOGH.MD                                               :KLOGH:UNKNOWN:rC:NONE:v2 {F13.4}
COAL_FLAG.UNKNOWN                                      :COAL_FLAG:UNKNOWN:rC:NONE:v1 {F13.4}
CARB_FLAG.UNKNOWN                                      :CARB_FLAG:UNKNOWN:rC:NONE:v1 {F13.4}
BVW  .V/V_DECIMAL                                      :BVW:UNKNOWN:rC:NONE:v1 {F13.4}
#-----------------------------------------------------------------------------
# 
#    DEPTH        DEPTH           VSH          SW        SAND_FLAG       PHIF        KLOGH      COAL_FLAG    CARB_FLAG       BVW
#
~A  
# ...
   10929.0    1311480       0.1171       0.3570       0.0000       0.0464      30.7075       0.0000       0.0000       0.0166
   10929.5    1311540       0.1208       0.2342       0.0000       0.0799      51.6150       0.0000       0.0000       0.0187
   10930.0    1311600       0.1267       0.1554       1.0000       0.1358     124.1265       0.0000       0.0000       0.0211
   10930.5    1311660       0.1280       0.1271       1.0000       0.1759     251.2350       0.0000       0.0000       0.0224
   10931.0    1311720       0.1195       0.1245       1.0000       0.1800     337.3826       0.0000       0.0000       0.0224
   10931.5    1311780       0.1215       0.1271       1.0000       0.1758     297.1177       0.0000       0.0000       0.0223
   10932.0    1311840       0.1227       0.1329       1.0000       0.1661     240.7735       0.0000       0.0000       0.0221
   10932.5    1311900       0.1264       0.1513       1.0000       0.1402     135.8969       0.0000       0.0000       0.0212
   10933.0    1311960       0.1233       0.1680       1.0000       0.1200     101.4408       0.0000       0.0000       0.0202
   10933.5    1312020       0.1188       0.1897       0.0000       0.1023      82.3412       0.0000       0.0000       0.0194
   10934.0    1312080       0.1282       0.2038       0.0000       0.0947      55.9955       0.0000       0.0000       0.0193
   10934.5    1312140       0.1288       0.1496       1.0000       0.1442     137.2871       0.0000       0.0000       0.0216
   10935.0    1312200       0.1449       0.1100       1.0000       0.2199     365.6247       0.0000       0.0000       0.0242
   10935.5    1312260       0.1463       0.0946       1.0000       0.2742     957.7239       0.0000       0.0000       0.0259
   10936.0    1312320       0.1578       0.0917       1.0000       0.2914     977.3044       0.0000       0.0000       0.0267
   10936.5    1312380       0.1468       0.0944       1.0000       0.2808    1070.1250       0.0000       0.0000       0.0265
   10937.0    1312440       0.1411       0.1054       1.0000       0.2474     669.7680       0.0000       0.0000       0.0261
   10937.5    1312500       0.1360       0.1236       1.0000       0.2027     335.0029       0.0000       0.0000       0.0251
   10938.0    1312560       0.1314       0.1368       1.0000       0.1760     230.8844       0.0000       0.0000       0.0241
   10938.5    1312620       0.1302       0.1418       1.0000       0.1691     209.3293       0.0000       0.0000       0.0240
   10939.0    1312680       0.1264       0.1312       1.0000       0.1869     320.8273       0.0000       0.0000       0.0245
   10939.5    1312740       0.1322       0.1258       1.0000       0.1999     351.0196       0.0000       0.0000       0.0252
   10940.0    1312800       0.1206       0.1202       1.0000       0.2132     603.8552       0.0000       0.0000       0.0256
   10940.5    1312860       0.1134       0.1207       1.0000       0.2125     718.2362       0.0000       0.0000       0.0256
   10941.0    1312920       0.1107       0.1184       1.0000       0.2194     876.4790       0.0000       0.0000       0.0260
   10941.5    1312980       0.1166       0.1163       1.0000       0.2243     822.2101       0.0000       0.0000       0.0261
   10942.0    1313040       0.1226       0.1137       1.0000       0.2292     772.5886       0.0000       0.0000       0.0261
   10942.5    1313100       0.1146       0.1087       1.0000       0.2346    1047.2120       0.0000       0.0000       0.0255
   10943.0    1313160       0.1115       0.1078       1.0000       0.2353    1149.4280       0.0000       0.0000       0.0254
   10943.5    1313220       0.1036       0.1051       1.0000       0.2403    1546.2620       0.0000       0.0000       0.0253
   10944.0    1313280       0.1004       0.1032       1.0000       0.2440    1797.9290       0.0000       0.0000       0.0252
   10944.5    1313340       0.0979       0.1056       1.0000       0.2398    1772.3230       0.0000       0.0000       0.0253
   10945.0    1313400       0.0944       0.1041       1.0000       0.2434    2072.9609       0.0000       0.0000       0.0253
   10945.5    1313460       0.0982       0.1064       1.0000       0.2354    1624.3140       0.0000       0.0000       0.0250
   10946.0    1313520       0.0974       0.1036       1.0000       0.2358    1670.5229       0.0000       0.0000       0.0244
   10946.5    1313580       0.1023       0.1058       1.0000       0.2284    1284.7500       0.0000       0.0000       0.0242
   10947.0    1313640       0.1014       0.1056       1.0000       0.2266    1271.4399       0.0000       0.0000       0.0239
   10947.5    1313700       0.1046       0.1061       1.0000       0.2188    1015.4160       0.0000       0.0000       0.0232
   10948.0    1313760       0.1005       0.1084       1.0000       0.2049     872.7209       0.0000       0.0000       0.0222
   10948.5    1313820       0.0942       0.1073       1.0000       0.2015     964.0253       0.0000       0.0000       0.0216
   10949.0    1313880       0.0838       0.1049       1.0000       0.1969    1159.4410       0.0000       0.0000       0.0206
   10949.5    1313940       0.0799       0.1057       1.0000       0.1975    1296.2410       0.0000       0.0000       0.0209
   10950.0    1314000       0.0736       0.1039       1.0000       0.1978    1535.3850       0.0000       0.0000       0.0205
   10950.5    1314060       0.0715       0.1011       1.0000       0.2064    1897.9110       0.0000       0.0000       0.0209
   10951.0    1314120       0.0763       0.1017       1.0000       0.2052    1638.5630       0.0000       0.0000       0.0209
   10951.5    1314180       0.0878       0.1026       1.0000       0.2077    1275.1210       0.0000       0.0000       0.0213
   10952.0    1314240       0.0896       0.1074       1.0000       0.2054    1166.4270       0.0000       0.0000       0.0221
   10952.5    1314300       0.0883       0.0957       1.0000       0.2045    1186.3730       0.0000       0.0000       0.0196
   10953.0    1314360       0.0856       0.0985       1.0000       0.2057    1302.2760       0.0000       0.0000       0.0203
   10953.5    1314420       0.0820       0.0992       1.0000       0.2095    1532.4630       0.0000       0.0000       0.0208
   10954.0    1314480       0.0779       0.1000       1.0000       0.2109    1743.2690       0.0000       0.0000       0.0211
   10954.5    1314540       0.0699       0.0995       1.0000       0.2090    2070.7129       0.0000       0.0000       0.0208
   10955.0    1314600       0.0636       0.1000       1.0000       0.2077    2380.3379       0.0000       0.0000       0.0208
   10955.5    1314660       0.0534       0.1003       1.0000       0.2119    3355.6990       0.0000       0.0000       0.0213
   10956.0    1314720       0.0558       0.0990       1.0000       0.2142    3282.5840       0.0000       0.0000       0.0212
   10956.5    1314780       0.0583       0.0993       1.0000       0.2190    3363.5901       0.0000       0.0000       0.0218
   10957.0    1314840       0.0595       0.0996       1.0000       0.2161    3089.1860       0.0000       0.0000       0.0215
   10957.5    1314900       0.0616       0.0999       1.0000       0.2154    2891.1560       0.0000       0.0000       0.0215
   10958.0    1314960       0.0661       0.1010       1.0000       0.2151    2555.7271       0.0000       0.0000       0.0217
   10958.5    1315020       0.0852       0.0998       1.0000       0.2218    1765.9980       0.0000       0.0000       0.0221
   10959.0    1315080       0.0978       0.0993       1.0000       0.2242    1333.5909       0.0000       0.0000       0.0223
   10959.5    1315140       0.1175       0.1045       1.0000       0.2209     755.7857       0.0000       0.0000       0.0231
   10960.0    1315200       0.1213       0.1083       1.0000       0.2160     625.5248       0.0000       0.0000       0.0234
   10960.5    1315260       0.1257       0.1100       1.0000       0.2158     555.8679       0.0000       0.0000       0.0237
