~VERSION INFORMATION
VERS.           2.0   :CWLS Log ASCII Standard - VERSION 2.0
WRAP.           NO    :One Line per depth step
PROD.  Schlumberger   :LAS Producer
PROG.  DLIS to ASCII 2.3                               :LAS Program name and version
CREA.        2019/04/03 19:50                          :LAS Creation date {YYYY/MM/DD hh:mm}
DLIS_CREA.  2009-Feb-18 14:27                          :DLIS Creation date and time {YYYY-MMM-DD hh:mm}
SOURCE.     WLC_PETRO_COMPUTED_OUTPUT_1.DLIS           :DLIS File Name
FILE-ID.     OUTPUT.logdata                            :File Identification Number
#--------------------------------------------------
~WELL INFORMATION
#MNEM.UNIT      DATA             DESCRIPTION
#---- ------ --------------   -----------------------------
STRT .F          657.0       :START DEPTH     
STOP .F        11567.5       :STOP DEPTH     
STEP .F            0.5       :STEP     
NULL .          -999.25      :NULL VALUE
COMP .        STATOILHYDRO                             :COMPANY
WELL .        15/9-F-4                                 :WELL
FLD  .        VOLVE                                    :FIELD
LOC  .                                                 :LOCATION
CNTY .        MAERSK INSPIRER                          :COUNTY
STAT .                                                 :STATE
CTRY .                                                 :COUNTRY
API  .                                                 :API NUMBER
UWI  .                                                 :UNIQUE WELL ID
DATE .                                                 :LOG DATE
SRVC .        CROCKER DATA PROCESSING                  :SERVICE COMPANY
LATI .DEG                                              :LATITUDE
LONG .DEG                                              :LONGITUDE
GDAT .                                                 :GeoDetic Datum
#-----------------------------------------------------------------------------
~PARAMETER INFORMATION
#MNEM.UNIT    VALUE                      DESCRIPTION
#---- -----   --------------------       ------------------------
CN   .        STATOILHYDRO               :Company
WN   .        15/9-F-4                   :Well Name
FN   .        VOLVE                      :Field
CTRY .        NORWAY                     :Country
COUN .        MAERSK INSPIRER            :County or Rig name
PDAT .        MSL                        :Perm. Datum
ELZ  .M          0.00000                 :Elev. Log Zero (wrt EPD)
R2   .        INPUT                      :R2
RUN  .                                   :RUN NUMBER
EPD  .                                   :Elevation of Permanent Datum above Mean Sea Level
LMF  .                                   :Logging Measured From (Name of Logging Elevation Reference)
APD  .                                   :Elevation of Depth Reference (LMF) above Permanent Datum
#-----------------------------------------------------------------------------
~CURVE INFORMATION
#MNEM.UNIT   API CODE                                  DESCRIPTION
#---- -----  --------                                  -----------------------
DEPTH.F                                                :DEPTH (BOREHOLE) {F10.1}
DEPTH..1IN                                             :Measured Depth {I11}
VSH  .V/V_DECIMAL                                      :VSH:UNKNOWN:rC:NONE:v1 {F13.4}
SW   .V/V_DECIMAL                                      :SW:UNKNOWN:rC:NONE:v1 {F13.4}
SAND_FLAG.UNKNOWN                                      :SAND_FLAG:UNKNOWN:rC:NONE:v1 {F13.4}
PHIF .V/V_DECIMAL                                      :PHIF:UNKNOWN:rC:NONE:v1 {F13.4}
KLOGH.MD                                               :KLOGH:UNKNOWN:rC:NONE:v2 {F13.4}
COAL_FLAG.UNKNOWN                                      :COAL_FLAG:UNKNOWN:rC:NONE:v1 {F13.4}
CARB_FLAG.UNKNOWN                                      :CARB_FLAG:UNKNOWN:rC:NONE:v1 {F13.4}
BVW  .V/V_DECIMAL                                      :BVW:UNKNOWN:rC:NONE:v1 {F13.4}
#-----------------------------------------------------------------------------
# 
#    DEPTH        DEPTH           VSH          SW        SAND_FLAG       PHIF        KLOGH      COAL_FLAG    CARB_FLAG       BVW
#
~A  
# ...
   11089.0    1330680       0.1724       1.0000       0.0000       0.0010       0.0010       1.0000       0.0000       1.0000
   11089.5    1330740       0.1589       1.0000       0.0000       0.0010       0.0010       1.0000       0.0000       1.0000
   11090.0    1330800       0.1503       0.2000       1.0000       0.2700    1400.0000       0.0000       0.0000       0.0327
   11090.5    1330860       0.1451       0.1700       1.0000       0.2720    1450.0000       0.0000       0.0000       0.0479
   11091.0    1330920       0.1410       0.1691       1.0000       0.2710    1477.9410       0.0000       0.0000       0.0491
   11091.5    1330980       0.1262       0.1681       1.0000       0.2720    1876.9810       0.0000       0.0000       0.0475
   11092.0    1331040       0.1134       0.1740       1.0000       0.2744    2249.3940       0.0000       0.0000       0.0477
   11092.5    1331100       0.1055       0.1785       1.0000       0.2719    2634.7380       0.0000       0.0000       0.0485
   11093.0    1331160       0.1121       0.1913       1.0000       0.2615    1832.4301       0.0000       0.0000       0.0500
   11093.5    1331220       0.1345       0.2088       1.0000       0.2503     837.2947       0.0000       0.0000       0.0523
   11094.0    1331280       0.1460       0.2209       1.0000       0.2418     531.3303       0.0000       0.0000       0.0534
   11094.5    1331340       0.1513       0.2259       1.0000       0.2387     437.8118       0.0000       0.0000       0.0539
   11095.0    1331400       0.1430       0.2314       1.0000       0.2404     560.7216       0.0000       0.0000       0.0556
   11095.5    1331460       0.1441       0.2376       1.0000       0.2379     519.6988       0.0000       0.0000       0.0565
   11096.0    1331520       0.1418       0.2416       1.0000       0.2334     507.6980       0.0000       0.0000       0.0564
   11096.5    1331580       0.1424       0.2339       1.0000       0.2393     557.5819       0.0000       0.0000       0.0560
   11097.0    1331640       0.1376       0.2321       1.0000       0.2356     588.2805       0.0000       0.0000       0.0547
   11097.5    1331700       0.1270       0.2330       1.0000       0.2380     811.0038       0.0000       0.0000       0.0555
   11098.0    1331760       0.1130       0.2449       1.0000       0.2298     999.5137       0.0000       0.0000       0.0563
   11098.5    1331820       0.0937       0.2570       1.0000       0.2167    1292.4690       0.0000       0.0000       0.0557
   11099.0    1331880       0.0904       0.2664       1.0000       0.2153    1372.0770       0.0000       0.0000       0.0574
   11099.5    1331940       0.1002       0.2771       1.0000       0.2173    1106.2050       0.0000       0.0000       0.0602
   11100.0    1332000       0.1166       0.2868       1.0000       0.2110     644.8664       0.0000       0.0000       0.0605
   11100.5    1332060       0.1211       0.2824       1.0000       0.2161     630.6174       0.0000       0.0000       0.0610
   11101.0    1332120       0.1235       0.2875       1.0000       0.2116     545.2269       0.0000       0.0000       0.0608
   11101.5    1332180       0.1301       0.3031       1.0000       0.2151     490.1849       0.0000       0.0000       0.0652
   11102.0    1332240       0.1364       0.3462       1.0000       0.2066     356.4310       0.0000       0.0000       0.0715
   11102.5    1332300       0.1398       0.4086       1.0000       0.2065     326.2924       0.0000       0.0000       0.0844
   11103.0    1332360       0.1393       0.4110       1.0000       0.2043     316.8162       0.0000       0.0000       0.0840
   11103.5    1332420       0.1480       0.3668       1.0000       0.2072     266.6868       0.0000       0.0000       0.0760
   11104.0    1332480       0.1420       0.3742       1.0000       0.2107     332.2715       0.0000       0.0000       0.0788
   11104.5    1332540       0.1352       0.3996       1.0000       0.2128     411.8361       0.0000       0.0000       0.0850
   11105.0    1332600       0.1329       0.4217       1.0000       0.2220     518.3376       0.0000       0.0000       0.0936
   11105.5    1332660       0.1457       0.4534       1.0000       0.2224     374.9173       0.0000       0.0000       0.1008
   11106.0    1332720       0.1599       0.4332       1.0000       0.2223     258.8383       0.0000       0.0000       0.0963
   11106.5    1332780       0.1591       0.3912       1.0000       0.2184     246.1972       0.0000       0.0000       0.0854
   11107.0    1332840       0.1552       0.3816       1.0000       0.2082     225.7141       0.0000       0.0000       0.0794
   11107.5    1332900       0.1502       0.3856       1.0000       0.2045     239.8438       0.0000       0.0000       0.0789
   11108.0    1332960       0.1605       0.3882       1.0000       0.2112     208.1374       0.0000       0.0000       0.0820
   11108.5    1333020       0.1660       0.3534       1.0000       0.2173     202.0360       0.0000       0.0000       0.0768
   11109.0    1333080       0.1714       0.3198       1.0000       0.2057     142.0020       0.0000       0.0000       0.0658
   11109.5    1333140       0.1741       0.3137       1.0000       0.2115     147.4212       0.0000       0.0000       0.0663
   11110.0    1333200       0.1748       0.3505       1.0000       0.2125     147.1693       0.0000       0.0000       0.0745
   11110.5    1333260       0.1825       0.3919       1.0000       0.2194     137.1440       0.0000       0.0000       0.0860
   11111.0    1333320       0.1807       0.3821       1.0000       0.2315     179.2639       0.0000       0.0000       0.0884
   11111.5    1333380       0.1924       0.3676       1.0000       0.2409     157.9838       0.0000       0.0000       0.0885
   11112.0    1333440       0.2013       0.4170       1.0000       0.2416     126.9764       0.0000       0.0000       0.1008
   11112.5    1333500       0.2110       0.4264       1.0000       0.2446     104.5421       0.0000       0.0000       0.1043
   11113.0    1333560       0.2113       0.4011       1.0000       0.2393      94.0936       0.0000       0.0000       0.0960
   11113.5    1333620       0.1990       0.3403       1.0000       0.2261     101.3190       0.0000       0.0000       0.0769
   11114.0    1333680       0.2065       0.3299       1.0000       0.2103      62.4022       0.0000       0.0000       0.0694
   11114.5    1333740       0.2149       0.3587       1.0000       0.1944      37.5048       0.0000       0.0000       0.0697
   11115.0    1333800       0.2630       0.4118       1.0000       0.1894       9.8650       0.0000       0.0000       0.0780
   11115.5    1333860       0.3605       0.4328       1.0000       0.1918       0.8333       0.0000       0.0000       0.0830
   11116.0    1333920       0.5714       0.4352       0.0000       0.1962       0.0039       0.0000       0.0000       0.0854
   11116.5    1333980       0.7913       0.4118       0.0000       0.2058       0.0010       0.0000       0.0000       0.0847
   11117.0    1334040       0.7780       0.4615       0.0000       0.2188       0.0010       0.0000       0.0000       0.1010
   11117.5    1334100       0.7647       0.6342       0.0000       0.1783       0.0010       0.0000       0.0000       0.1131
   11118.0    1334160       0.7515       0.5805       0.0000       0.2142       0.0010       0.0000       0.0000       0.1243
   11118.5    1334220       0.7382       0.5950       0.0000       0.2191       0.0010       0.0000       0.0000       0.1304
   11119.0    1334280       0.7249       0.5691       0.0000       0.2200       0.0010       0.0000       0.0000       0.1252
   11119.5    1334340       0.7117       0.5942       0.0000       0.2178       0.0010       0.0000       0.0000       0.1294
   11120.0    1334400       0.6984       0.5890       0.0000       0.2221       0.0010       0.0000       0.0000       0.1308
   11120.5    1334460       0.5360       0.4507       0.0000       0.2371       0.0207       0.0000       0.0000       0.1069
