~VERSION INFORMATION
VERS.           2.0   :CWLS Log ASCII Standard - VERSION 2.0
WRAP.           NO    :One Line per depth step
PROD.  Schlumberger   :LAS Producer
PROG.  DLIS to ASCII 2.3                               :LAS Program name and version
CREA.        2019/04/03 19:50                          :LAS Creation date {YYYY/MM/DD hh:mm}
DLIS_CREA.  2009-Feb-18 14:27                          :DLIS Creation date and time {YYYY-MMM-DD hh:mm}
SOURCE.     WLC_PETRO_COMPUTED_OUTPUT_1.DLIS           :DLIS File Name
FILE-ID.     OUTPUT.logdata                            :File Identification Number
#--------------------------------------------------
~WELL INFORMATION
#MNEM.UNIT      DATA             DESCRIPTION
#---- ------ --------------   -----------------------------
STRT .F          657.0       :START DEPTH     
STOP .F        11567.5       :STOP DEPTH     
STEP .F            0.5       :STEP     
NULL .          -999.25      :NULL VALUE
COMP .        STATOILHYDRO                             :COMPANY
WELL .        15/9-F-4                                 :WELL
FLD  .        VOLVE                                    :FIELD
LOC  .                                                 :LOCATION
CNTY .        MAERSK INSPIRER                          :COUNTY
STAT .                                                 :STATE
CTRY .                                                 :COUNTRY
API  .                                                 :API NUMBER
UWI  .                                                 :UNIQUE WELL ID
DATE .                                                 :LOG DATE
SRVC .        CROCKER DATA PROCESSING                  :SERVICE COMPANY
LATI .DEG                                              :LATITUDE
LONG .DEG                                              :LONGITUDE
GDAT .                                                 :GeoDetic Datum
#-----------------------------------------------------------------------------
~PARAMETER INFORMATION
#MNEM.UNIT    VALUE                      DESCRIPTION
#---- -----   --------------------       ------------------------
CN   .        STATOILHYDRO               :Company
WN   .        15/9-F-4                   :Well Name
FN   .        VOLVE                      :Field
CTRY .        NORWAY                     :Country
COUN .        MAERSK INSPIRER            :County or Rig name
PDAT .        MSL                        :Perm. Datum
ELZ  .M          0.00000                 :Elev. Log Zero (wrt EPD)
R2   .        INPUT                      :R2
RUN  .                                   :RUN NUMBER
EPD  .                                   :Elevation of Permanent Datum above Mean Sea Level
LMF  .                                   :Logging Measured From (Name of Logging Elevation Reference)
APD  .                                   :Elevation of Depth Reference (LMF) above Permanent Datum
#-----------------------------------------------------------------------------
~CURVE INFORMATION
#MNEM.UNIT   API CODE                                  DESCRIPTION
#---- -----  --------                                  -----------------------
DEPTH.F                                                :DEPTH (BOREHOLE) {F10.1}
DEPTH..1IN                                             :Measured Depth {I11}
VSH  .V/V_DECIMAL                                      :VSH:UNKNOWN:rC:NONE:v1 {F13.4}
SW   .V/V_DECIMAL                                      :SW:UNKNOWN:rC:NONE:v1 {F13.4}
SAND_FLAG.UNKNOWN                                      :SAND_FLAG:UNKNOWN:rC:NONE:v1 {F13.4}
PHIF .V/V_DECIMAL                                      :PHIF:UNKNOWN:rC:NONE:v1 {F13.4}
KLOGH.MD                                               :KLOGH:UNKNOWN:rC:NONE:v2 {F13.4}
COAL_FLAG.UNKNOWN                                      :COAL_FLAG:UNKNOWN:rC:NONE:v1 {F13.4}
CARB_FLAG.UNKNOWN                                      :CARB_FLAG:UNKNOWN:rC:NONE:v1 {F13.4}
BVW  .V/V_DECIMAL                                      :BVW:UNKNOWN:rC:NONE:v1 {F13.4}
#-----------------------------------------------------------------------------
# 
#    DEPTH        DEPTH           VSH          SW        SAND_FLAG       PHIF        KLOGH      COAL_FLAG    CARB_FLAG       BVW
#
~A  
# ...
   10673.0    1280760       0.1507       0.1370       1.0000       0.2440     489.9850       0.0000       0.0000       0.0334
   10673.5    1280820       0.1501       0.1496       1.0000       0.2210     325.6661       0.0000       0.0000       0.0331
   10674.0    1280880       0.1533       0.1508       1.0000       0.2177     282.7410       0.0000       0.0000       0.0328
   10674.5    1280940       0.1624       0.1534       1.0000       0.2137     207.2853       0.0000       0.0000       0.0328
   10675.0    1281000       0.1737       0.1451       1.0000       0.2340     225.4691       0.0000       0.0000       0.0339
   10675.5    1281060       0.1741       0.1455       1.0000       0.2434     265.3128       0.0000       0.0000       0.0354
   10676.0    1281120       0.1632       0.1425       1.0000       0.2433     351.0730       0.0000       0.0000       0.0347
   10676.5    1281180       0.1529       0.1402       1.0000       0.2452     473.2103       0.0000       0.0000       0.0344
   10677.0    1281240       0.1522       0.1441       1.0000       0.2381     423.0556       0.0000       0.0000       0.0343
   10677.5    1281300       0.1587       0.1448       1.0000       0.2386     361.1355       0.0000       0.0000       0.0345
   10678.0    1281360       0.1528       0.1464       1.0000       0.2399     431.3330       0.0000       0.0000       0.0351
   10678.5    1281420       0.1502       0.1501       1.0000       0.2324     400.5586       0.0000       0.0000       0.0349
   10679.0    1281480       0.1317       0.1466       1.0000       0.2348     675.6474       0.0000       0.0000       0.0344
   10679.5    1281540       0.1210       0.1464       1.0000       0.2315     839.7165       0.0000       0.0000       0.0339
   10680.0    1281600       0.1113       0.1451       1.0000       0.2330    1107.7820       0.0000       0.0000       0.0338
   10680.5    1281660       0.1175       0.1453       1.0000       0.2336     954.0032       0.0000       0.0000       0.0339
   10681.0    1281720       0.1236       0.1465       1.0000       0.2345     827.5638       0.0000       0.0000       0.0344
   10681.5    1281780       0.1299       0.1478       1.0000       0.2311     662.3192       0.0000       0.0000       0.0342
   10682.0    1281840       0.1289       0.1456       1.0000       0.2341     717.0112       0.0000       0.0000       0.0341
   10682.5    1281900       0.1233       0.1440       1.0000       0.2359     857.7036       0.0000       0.0000       0.0340
   10683.0    1281960       0.1174       0.1489       1.0000       0.2269     845.7733       0.0000       0.0000       0.0338
   10683.5    1282020       0.1307       0.1498       1.0000       0.2237     565.8984       0.0000       0.0000       0.0335
   10684.0    1282080       0.1418       0.1634       1.0000       0.2087     321.8604       0.0000       0.0000       0.0341
   10684.5    1282140       0.1579       0.1694       1.0000       0.1995     179.1520       0.0000       0.0000       0.0338
   10685.0    1282200       0.1616       0.1717       1.0000       0.2008     166.8449       0.0000       0.0000       0.0345
   10685.5    1282260       0.1710       0.1752       1.0000       0.2072     147.3440       0.0000       0.0000       0.0363
   10686.0    1282320       0.1721       0.1714       1.0000       0.2156     167.1904       0.0000       0.0000       0.0370
   10686.5    1282380       0.1731       0.1596       1.0000       0.2243     191.2958       0.0000       0.0000       0.0358
   10687.0    1282440       0.1788       0.1561       1.0000       0.2273     174.5278       0.0000       0.0000       0.0355
   10687.5    1282500       0.1873       0.1568       1.0000       0.2315     151.2271       0.0000       0.0000       0.0363
   10688.0    1282560       0.1846       0.1437       1.0000       0.2468     215.2087       0.0000       0.0000       0.0355
   10688.5    1282620       0.1686       0.1359       1.0000       0.2490     338.6114       0.0000       0.0000       0.0338
   10689.0    1282680       0.1484       0.1298       1.0000       0.2496     576.2984       0.0000       0.0000       0.0324
   10689.5    1282740       0.1449       0.1277       1.0000       0.2490     624.8047       0.0000       0.0000       0.0318
   10690.0    1282800       0.1575       0.1300       1.0000       0.2508     466.3890       0.0000       0.0000       0.0326
   10690.5    1282860       0.1651       0.1332       1.0000       0.2484     366.9273       0.0000       0.0000       0.0331
   10691.0    1282920       0.1515       0.1299       1.0000       0.2581     623.1316       0.0000       0.0000       0.0335
   10691.5    1282980       0.1359       0.1269       1.0000       0.2678    1113.6460       0.0000       0.0000       0.0340
   10692.0    1283040       0.1319       0.1277       1.0000       0.2670    1217.0540       0.0000       0.0000       0.0341
   10692.5    1283100       0.1423       0.1285       1.0000       0.2671     932.3676       0.0000       0.0000       0.0343
   10693.0    1283160       0.1442       0.1295       1.0000       0.2669     884.2198       0.0000       0.0000       0.0346
   10693.5    1283220       0.1433       0.1262       1.0000       0.2743    1038.2830       0.0000       0.0000       0.0346
   10694.0    1283280       0.1506       0.1262       1.0000       0.2737     849.3535       0.0000       0.0000       0.0345
   10694.5    1283340       0.1539       0.1233       1.0000       0.2799     875.1796       0.0000       0.0000       0.0345
   10695.0    1283400       0.1559       0.1230       1.0000       0.2778     800.5132       0.0000       0.0000       0.0342
   10695.5    1283460       0.1476       0.1266       1.0000       0.2669     810.6435       0.0000       0.0000       0.0338
   10696.0    1283520       0.1449       0.1288       1.0000       0.2654     844.6030       0.0000       0.0000       0.0342
   10696.5    1283580       0.1431       0.1306       1.0000       0.2690     945.1143       0.0000       0.0000       0.0351
   10697.0    1283640       0.1459       0.1323       1.0000       0.2656     826.7914       0.0000       0.0000       0.0351
   10697.5    1283700       0.1444       0.1399       1.0000       0.2495     639.4087       0.0000       0.0000       0.0349
   10698.0    1283760       0.1458       0.1525       1.0000       0.2251     392.7338       0.0000       0.0000       0.0343
   10698.5    1283820       0.1436       0.1660       1.0000       0.2008     265.8023       0.0000       0.0000       0.0333
   10699.0    1283880       0.1460       0.1772       1.0000       0.2018     254.9925       0.0000       0.0000       0.0358
   10699.5    1283940       0.1397       0.1793       1.0000       0.2265     472.3194       0.0000       0.0000       0.0406
   10700.0    1284000       0.1335       0.1581       1.0000       0.2482     825.2450       0.0000       0.0000       0.0392
   10700.5    1284060       0.1355       0.1432       1.0000       0.2576     933.7487       0.0000       0.0000       0.0369
   10701.0    1284120       0.1489       0.1403       1.0000       0.2644     747.6524       0.0000       0.0000       0.0371
   10701.5    1284180       0.1575       0.1379       1.0000       0.2664     621.5803       0.0000       0.0000       0.0367
   10702.0    1284240       0.1636       0.1359       1.0000       0.2686     552.8957       0.0000       0.0000       0.0365
   10702.5    1284300       0.1627       0.1350       1.0000       0.2691     570.9172       0.0000       0.0000       0.0363
   10703.0    1284360       0.1653       0.1361       1.0000       0.2683     527.1432       0.0000       0.0000       0.0365
   10703.5    1284420       0.1558       0.1358       1.0000       0.2704     698.6809       0.0000       0.0000       0.0367
   10704.0    1284480       0.1521       0.1362       1.0000       0.2717     789.2723       0.0000       0.0000       0.0370
   10704.5    1284540       0.1367       0.1346       1.0000       0.2765    1280.9570       0.0000       0.0000       0.0372
