~VERSION INFORMATION
VERS.           2.0   :CWLS Log ASCII Standard - VERSION 2.0
WRAP.           NO    :One Line per depth step
PROD.  Schlumberger   :LAS Producer
PROG.  DLIS to ASCII 2.3                               :LAS Program name and version
CREA.        2019/04/03 19:50                          :LAS Creation date {YYYY/MM/DD hh:mm}
DLIS_CREA.  2009-Feb-18 14:27                          :DLIS Creation date and time {YYYY-MMM-DD hh:mm}
SOURCE.     WLC_PETRO_COMPUTED_OUTPUT_1.DLIS           :DLIS File Name
FILE-ID.     OUTPUT.logdata                            :File Identification Number
#--------------------------------------------------
~WELL INFORMATION
#MNEM.UNIT      DATA             DESCRIPTION
#---- ------ --------------   -----------------------------
STRT .F          657.0       :START DEPTH     
STOP .F        11567.5       :STOP DEPTH     
STEP .F            0.5       :STEP     
NULL .          -999.25      :NULL VALUE
COMP .        STATOILHYDRO                             :COMPANY
WELL .        15/9-F-4                                 :WELL
FLD  .        VOLVE                                    :FIELD
LOC  .                                                 :LOCATION
CNTY .        MAERSK INSPIRER                          :COUNTY
STAT .                                                 :STATE
CTRY .                                                 :COUNTRY
API  .                                                 :API NUMBER
UWI  .                                                 :UNIQUE WELL ID
DATE .                                                 :LOG DATE
SRVC .        CROCKER DATA PROCESSING                  :SERVICE COMPANY
LATI .DEG                                              :LATITUDE
LONG .DEG                                              :LONGITUDE
GDAT .                                                 :GeoDetic Datum
#-----------------------------------------------------------------------------
~PARAMETER INFORMATION
#MNEM.UNIT    VALUE                      DESCRIPTION
#---- -----   --------------------       ------------------------
CN   .        STATOILHYDRO               :Company
WN   .        15/9-F-4                   :Well Name
FN   .        VOLVE                      :Field
CTRY .        NORWAY                     :Country
COUN .        MAERSK INSPIRER            :County or Rig name
PDAT .        MSL                        :Perm. Datum
ELZ  .M          0.00000                 :Elev. Log Zero (wrt EPD)
R2   .        INPUT                      :R2
RUN  .                                   :RUN NUMBER
EPD  .                                   :Elevation of Permanent Datum above Mean Sea Level
LMF  .                                   :Logging Measured From (Name of Logging Elevation Reference)
APD  .                                   :Elevation of Depth Reference (LMF) above Permanent Datum
#-----------------------------------------------------------------------------
~CURVE INFORMATION
#MNEM.UNIT   API CODE                                  DESCRIPTION
#---- -----  --------                                  -----------------------
DEPTH.F                                                :DEPTH (BOREHOLE) {F10.1}
DEPTH..1IN                                             :Measured Depth {I11}
VSH  .V/V_DECIMAL                                      :VSH:UNKNOWN:rC:NONE:v1 {F13.4}
SW   .V/V_DECIMAL                                      :SW:UNKNOWN:rC:NONE:v1 {F13.4}
SAND_FLAG.UNKNOWN                                      :SAND_FLAG:UNKNOWN:rC:NONE:v1 {F13.4}
PHIF .V/V_DECIMAL                                      :PHIF:UNKNOWN:rC:NONE:v1 {F13.4}
KLOGH.MD                                               :KLOGH:UNKNOWN:rC:NONE:v2 {F13.4}
COAL_FLAG.UNKNOWN                                      :COAL_FLAG:UNKNOWN:rC:NONE:v1 {F13.4}
CARB_FLAG.UNKNOWN                                      :CARB_FLAG:UNKNOWN:rC:NONE:v1 {F13.4}
BVW  .V/V_DECIMAL                                      :BVW:UNKNOWN:rC:NONE:v1 {F13.4}
#-----------------------------------------------------------------------------
# 
#    DEPTH        DEPTH           VSH          SW        SAND_FLAG       PHIF        KLOGH      COAL_FLAG    CARB_FLAG       BVW
#
~A  
# ...
   10257.0    1230840       0.7652       0.4643       0.0000       0.1885       0.0010       0.0000       0.0000       0.0875
   10257.5    1230900       0.7654       0.5308       0.0000       0.1846       0.0010       0.0000       0.0000       0.0980
   10258.0    1230960       0.7657       0.6730       0.0000       0.1778       0.0010       0.0000       0.0000       0.1197
   10258.5    1231020       0.7660       0.5832       0.0000       0.1787       0.0010       0.0000       0.0000       0.1042
   10259.0    1231080       0.7662       0.5597       0.0000       0.1836       0.0010       0.0000       0.0000       0.1028
   10259.5    1231140       0.7665       0.5960       0.0000       0.1905       0.0010       0.0000       0.0000       0.1136
   10260.0    1231200       0.7667       0.5035       0.0000       0.1919       0.0010       0.0000       0.0000       0.0966
   10260.5    1231260       0.7670       0.5163       0.0000       0.1917       0.0010       0.0000       0.0000       0.0990
   10261.0    1231320       0.7673       0.5777       0.0000       0.1850       0.0010       0.0000       0.0000       0.1069
   10261.5    1231380       0.7675       0.6503       0.0000       0.1751       0.0010       0.0000       0.0000       0.1138
   10262.0    1231440       0.7678       0.7253       0.0000       0.1613       0.0010       0.0000       0.0000       0.1170
   10262.5    1231500       0.7681       0.6121       0.0000       0.1578       0.0010       0.0000       0.0000       0.0966
   10263.0    1231560       0.7683       0.6001       0.0000       0.1574       0.0010       0.0000       0.0000       0.0945
   10263.5    1231620       0.7686       0.5828       0.0000       0.1586       0.0010       0.0000       0.0000       0.0924
   10264.0    1231680       0.7688       0.6057       0.0000       0.1587       0.0010       0.0000       0.0000       0.0961
   10264.5    1231740       0.7691       0.5874       0.0000       0.1553       0.0010       0.0000       0.0000       0.0912
   10265.0    1231800       0.7694       0.6172       0.0000       0.1495       0.0010       0.0000       0.0000       0.0922
   10265.5    1231860       0.7696       0.6728       0.0000       0.1420       0.0010       0.0000       0.0000       0.0955
   10266.0    1231920       0.7699       0.7199       0.0000       0.1396       0.0010       0.0000       0.0000       0.1005
   10266.5    1231980       0.7702       0.6948       0.0000       0.1370       0.0010       0.0000       0.0000       0.0952
   10267.0    1232040       0.7704       0.7483       0.0000       0.1437       0.0010       0.0000       0.0000       0.1076
   10267.5    1232100       0.7707       0.7399       0.0000       0.1469       0.0010       0.0000       0.0000       0.1087
   10268.0    1232160       0.7709       0.7372       0.0000       0.1490       0.0010       0.0000       0.0000       0.1099
   10268.5    1232220       0.7712       0.7715       0.0000       0.1455       0.0010       0.0000       0.0000       0.1123
   10269.0    1232280       0.7715       0.8031       0.0000       0.1463       0.0010       0.0000       0.0000       0.1175
   10269.5    1232340       0.7717       0.7999       0.0000       0.1467       0.0010       0.0000       0.0000       0.1174
   10270.0    1232400       0.7720       0.7364       0.0000       0.1592       0.0010       0.0000       0.0000       0.1172
   10270.5    1232460       0.7723       0.7432       0.0000       0.1606       0.0010       0.0000       0.0000       0.1194
   10271.0    1232520       0.7725       0.6878       0.0000       0.1664       0.0010       0.0000       0.0000       0.1144
   10271.5    1232580       0.7728       0.7199       0.0000       0.1587       0.0010       0.0000       0.0000       0.1143
   10272.0    1232640       0.7731       0.7544       0.0000       0.1518       0.0010       0.0000       0.0000       0.1145
   10272.5    1232700       0.7733       0.8614       0.0000       0.1411       0.0010       0.0000       0.0000       0.1215
   10273.0    1232760       0.7736       0.8051       0.0000       0.1494       0.0010       0.0000       0.0000       0.1203
   10273.5    1232820       0.7738       0.7461       0.0000       0.1592       0.0010       0.0000       0.0000       0.1188
   10274.0    1232880       0.7741       0.6810       0.0000       0.1636       0.0010       0.0000       0.0000       0.1114
   10274.5    1232940       0.7744       0.7915       0.0000       0.1497       0.0010       0.0000       0.0000       0.1185
   10275.0    1233000       0.7746       0.9067       0.0000       0.1368       0.0010       0.0000       0.0000       0.1240
   10275.5    1233060       0.7749       0.9530       0.0000       0.1280       0.0010       0.0000       0.0000       0.1219
   10276.0    1233120       0.7752       0.9184       0.0000       0.1273       0.0010       0.0000       0.0000       0.1169
   10276.5    1233180       0.7754       0.8791       0.0000       0.1302       0.0010       0.0000       0.0000       0.1144
   10277.0    1233240       0.7757       0.9022       0.0000       0.1318       0.0010       0.0000       0.0000       0.1189
   10277.5    1233300       0.7759       0.8472       0.0000       0.1353       0.0010       0.0000       0.0000       0.1146
   10278.0    1233360       0.7762       0.8331       0.0000       0.1328       0.0010       0.0000       0.0000       0.1106
   10278.5    1233420       0.7765       0.9453       0.0000       0.1289       0.0010       0.0000       0.0000       0.1218
   10279.0    1233480       0.7767       1.0000       0.0000       0.1257       0.0010       0.0000       0.0000       0.1257
   10279.5    1233540       0.7770       1.0000       0.0000       0.1235       0.0010       0.0000       0.0000       0.1235
   10280.0    1233600       0.7773       0.9797       0.0000       0.1270       0.0010       0.0000       0.0000       0.1244
   10280.5    1233660       0.7775       0.9390       0.0000       0.1255       0.0010       0.0000       0.0000       0.1179
   10281.0    1233720       0.7778       0.9113       0.0000       0.1213       0.0010       0.0000       0.0000       0.1105
   10281.5    1233780       0.7780       0.8887       0.0000       0.1254       0.0010       0.0000       0.0000       0.1114
   10282.0    1233840       0.7783       0.9403       0.0000       0.1290       0.0010       0.0000       0.0000       0.1213
   10282.5    1233900       0.7786       0.7436       0.0000       0.1411       0.0010       0.0000       0.0000       0.1049
   10283.0    1233960       0.7788       0.7997       0.0000       0.1413       0.0010       0.0000       0.0000       0.1130
   10283.5    1234020       0.7791       0.8738       0.0000       0.1419       0.0010       0.0000       0.0000       0.1240
   10284.0    1234080       0.7794       0.9036       0.0000       0.1252       0.0010       0.0000       0.0000       0.1132
   10284.5    1234140       0.7796       0.8520       0.0000       0.1113       0.0010       0.0000       0.0000       0.0948
   10285.0    1234200       0.7325       0.8322       0.0000       0.0985       0.0010       0.0000       0.0000       0.0820
   10285.5    1234260       0.7035       0.7502       0.0000       0.1012       0.0010       0.0000       0.0000       0.0759
   10286.0    1234320       0.6965       0.8027       0.0000       0.1056       0.0010       0.0000       0.0000       0.0848
   10286.5    1234380       0.6860       0.8301       0.0000       0.1091       0.0010       0.0000       0.0000       0.0906
   10287.0    1234440       0.6898       0.8334       0.0000       0.1080       0.0010       0.0000       0.0000       0.0900
   10287.5    1234500       0.6786       0.8944       0.0000       0.1060       0.0010       0.0000       0.0000       0.0948
   10288.0    1234560       0.6738       0.8935       0.0000       0.1053       0.0010       0.0000       0.0000       0.0941
   10288.5    1234620       0.6719       0.8051       0.0000       0.1118       0.0010       0.0000       0.0000       0.0900
