~VERSION INFORMATION
VERS.           2.0   :CWLS Log ASCII Standard - VERSION 2.0
WRAP.           NO    :One Line per depth step
PROD.  Schlumberger   :LAS Producer
PROG.  DLIS to ASCII 2.3                               :LAS Program name and version
CREA.        2019/04/03 19:50                          :LAS Creation date {YYYY/MM/DD hh:mm}
DLIS_CREA.  2009-Feb-18 14:27                          :DLIS Creation date and time {YYYY-MMM-DD hh:mm}
SOURCE.     WLC_PETRO_COMPUTED_OUTPUT_1.DLIS           :DLIS File Name
FILE-ID.     OUTPUT.logdata                            :File Identification Number
#--------------------------------------------------
~WELL INFORMATION
#MNEM.UNIT      DATA             DESCRIPTION
#---- ------ --------------   -----------------------------
STRT .F          657.0       :START DEPTH     
STOP .F        11567.5       :STOP DEPTH     
STEP .F            0.5       :STEP     
NULL .          -999.25      :NULL VALUE
COMP .        STATOILHYDRO                             :COMPANY
WELL .        15/9-F-4                                 :WELL
FLD  .        VOLVE                                    :FIELD
LOC  .                                                 :LOCATION
CNTY .        MAERSK INSPIRER                          :COUNTY
STAT .                                                 :STATE
CTRY .                                                 :COUNTRY
API  .                                                 :API NUMBER
UWI  .                                                 :UNIQUE WELL ID
DATE .                                                 :LOG DATE
SRVC .        CROCKER DATA PROCESSING                  :SERVICE COMPANY
LATI .DEG                                              :LATITUDE
LONG .DEG                                              :LONGITUDE
GDAT .                                                 :GeoDetic Datum
#-----------------------------------------------------------------------------
~PARAMETER INFORMATION
#MNEM.UNIT    VALUE                      DESCRIPTION
#---- -----   --------------------       ------------------------
CN   .        STATOILHYDRO               :Company
WN   .        15/9-F-4                   :Well Name
FN   .        VOLVE                      :Field
CTRY .        NORWAY                     :Country
COUN .        MAERSK INSPIRER            :County or Rig name
PDAT .        MSL                        :Perm. Datum
ELZ  .M          0.00000                 :Elev. Log Zero (wrt EPD)
R2   .        INPUT                      :R2
RUN  .                                   :RUN NUMBER
EPD  .                                   :Elevation of Permanent Datum above Mean Sea Level
LMF  .                                   :Logging Measured From (Name of Logging Elevation Reference)
APD  .                                   :Elevation of Depth Reference (LMF) above Permanent Datum
#-----------------------------------------------------------------------------
~CURVE INFORMATION
#MNEM.UNIT   API CODE                                  DESCRIPTION
#---- -----  --------                                  -----------------------
DEPTH.F                                                :DEPTH (BOREHOLE) {F10.1}
DEPTH..1IN                                             :Measured Depth {I11}
VSH  .V/V_DECIMAL                                      :VSH:UNKNOWN:rC:NONE:v1 {F13.4}
SW   .V/V_DECIMAL                                      :SW:UNKNOWN:rC:NONE:v1 {F13.4}
SAND_FLAG.UNKNOWN                                      :SAND_FLAG:UNKNOWN:rC:NONE:v1 {F13.4}
PHIF .V/V_DECIMAL                                      :PHIF:UNKNOWN:rC:NONE:v1 {F13.4}
KLOGH.MD                                               :KLOGH:UNKNOWN:rC:NONE:v2 {F13.4}
COAL_FLAG.UNKNOWN                                      :COAL_FLAG:UNKNOWN:rC:NONE:v1 {F13.4}
CARB_FLAG.UNKNOWN                                      :CARB_FLAG:UNKNOWN:rC:NONE:v1 {F13.4}
BVW  .V/V_DECIMAL                                      :BVW:UNKNOWN:rC:NONE:v1 {F13.4}
#-----------------------------------------------------------------------------
# 
#    DEPTH        DEPTH           VSH          SW        SAND_FLAG       PHIF        KLOGH      COAL_FLAG    CARB_FLAG       BVW
#
~A  
# ...
   10769.0    1292280       0.1758       0.1463       1.0000       0.2725     433.1131       0.0000       0.0000       0.0399
   10769.5    1292340       0.1809       0.1429       1.0000       0.2760     405.4673       0.0000       0.0000       0.0395
   10770.0    1292400       0.1881       0.1439       1.0000       0.2697     299.5594       0.0000       0.0000       0.0388
   10770.5    1292460       0.1841       0.1458       1.0000       0.2662     311.7906       0.0000       0.0000       0.0388
   10771.0    1292520       0.1778       0.1414       1.0000       0.2768     445.8399       0.0000       0.0000       0.0391
   10771.5    1292580       0.1744       0.1462       1.0000       0.2687     418.6625       0.0000       0.0000       0.0393
   10772.0    1292640       0.1758       0.1444       1.0000       0.2783     482.5424       0.0000       0.0000       0.0402
   10772.5    1292700       0.1728       0.1486       1.0000       0.2698     445.7399       0.0000       0.0000       0.0401
   10773.0    1292760       0.1680       0.1565       1.0000       0.2506     353.9696       0.0000       0.0000       0.0392
   10773.5    1292820       0.1667       0.1601       1.0000       0.2470     342.5459       0.0000       0.0000       0.0395
   10774.0    1292880       0.1798       0.1651       1.0000       0.2432     228.1258       0.0000       0.0000       0.0402
   10774.5    1292940       0.1918       0.1633       1.0000       0.2526     198.8409       0.0000       0.0000       0.0413
   10775.0    1293000       0.1946       0.1619       1.0000       0.2598     211.2524       0.0000       0.0000       0.0421
   10775.5    1293060       0.1912       0.1583       1.0000       0.2679     267.7558       0.0000       0.0000       0.0424
   10776.0    1293120       0.1810       0.1549       1.0000       0.2746     394.8105       0.0000       0.0000       0.0425
   10776.5    1293180       0.1729       0.1542       1.0000       0.2767     505.4375       0.0000       0.0000       0.0427
   10777.0    1293240       0.1564       0.1577       1.0000       0.2668     644.8864       0.0000       0.0000       0.0421
   10777.5    1293300       0.1554       0.1547       1.0000       0.2703     706.1086       0.0000       0.0000       0.0418
   10778.0    1293360       0.1589       0.1543       1.0000       0.2686     624.7531       0.0000       0.0000       0.0415
   10778.5    1293420       0.1691       0.1485       1.0000       0.2770     559.4774       0.0000       0.0000       0.0411
   10779.0    1293480       0.1730       0.1464       1.0000       0.2836     572.3463       0.0000       0.0000       0.0415
   10779.5    1293540       0.1674       0.1542       1.0000       0.2792     609.2182       0.0000       0.0000       0.0430
   10780.0    1293600       0.1659       0.1595       1.0000       0.2839     690.9033       0.0000       0.0000       0.0453
   10780.5    1293660       0.1718       0.1708       1.0000       0.2770     522.4565       0.0000       0.0000       0.0473
   10781.0    1293720       0.1906       0.1825       1.0000       0.2531     206.5734       0.0000       0.0000       0.0462
   10781.5    1293780       0.2214       0.1798       1.0000       0.2296      60.5857       0.0000       0.0000       0.0413
   10782.0    1293840       0.2391       0.2283       1.0000       0.1888      18.1175       0.0000       0.0000       0.0431
   10782.5    1293900       0.2492       0.3069       1.0000       0.1747      10.7408       0.0000       0.0000       0.0536
   10783.0    1293960       0.2593       0.4534       1.0000       0.1224       3.1617       0.0000       0.0000       0.0555
   10783.5    1294020       0.2655       0.6651       1.0000       0.1029       1.8831       0.0000       0.0000       0.0684
   10784.0    1294080       0.2711       0.8855       0.0000       0.0662       0.8292       0.0000       0.0000       0.0586
   10784.5    1294140       0.2546       1.0000       0.0000       0.0319       0.6745       0.0000       0.0000       0.0319
   10785.0    1294200       0.2431       1.0000       0.0000       0.0107       0.6149       0.0000       0.0000       0.0107
   10785.5    1294260       0.2313       1.0000       0.0000       0.0081       0.8990       0.0000       0.0000       0.0081
   10786.0    1294320       0.2151       1.0000       0.0000       0.0055       1.1831       0.0000       0.0000       0.0055
   10786.5    1294380       0.2038       1.0000       0.0000       0.0029       1.4673       0.0000       0.0000       0.0029
   10787.0    1294440       0.1986       1.0000       0.0000       0.0148       2.0861       0.0000       0.0000       0.0148
   10787.5    1294500       0.2210       1.0000       0.0000       0.0431       1.9741       0.0000       0.0000       0.0431
   10788.0    1294560       0.2356       0.6385       0.0000       0.1023       4.0240       0.0000       0.0000       0.0653
   10788.5    1294620       0.2680       0.5272       0.0000       0.1317       3.0011       0.0000       0.0000       0.0694
   10789.0    1294680       0.2970       0.7832       0.0000       0.0796       0.5428       0.0000       0.0000       0.0623
   10789.5    1294740       0.3265       0.9696       0.0000       0.0601       0.1772       0.0000       0.0000       0.0583
   10790.0    1294800       0.3425       1.0000       0.0000       0.0479       0.0937       0.0000       0.0000       0.0479
   10790.5    1294860       0.3268       1.0000       0.0000       0.0763       0.2367       0.0000       0.0000       0.0763
   10791.0    1294920       0.3072       0.9466       0.0000       0.0919       0.5235       0.0000       0.0000       0.0870
   10791.5    1294980       0.2892       1.0000       0.0000       0.0847       0.7302       0.0000       0.0000       0.0847
   10792.0    1295040       0.2879       1.0000       0.0000       0.0785       0.6739       0.0000       0.0000       0.0785
   10792.5    1295100       0.2926       1.0000       0.0000       0.0808       0.6220       0.0000       0.0000       0.0808
   10793.0    1295160       0.2709       1.0000       0.0000       0.0935       1.3759       0.0000       0.0000       0.0935
   10793.5    1295220       0.2651       1.0000       0.0000       0.0979       1.7329       0.0000       0.0000       0.0979
   10794.0    1295280       0.2684       1.0000       0.0000       0.0961       1.5387       0.0000       0.0000       0.0961
   10794.5    1295340       0.2869       1.0000       0.0000       0.0933       0.9060       0.0000       0.0000       0.0933
   10795.0    1295400       0.2750       0.9254       0.0000       0.0849       1.0548       0.0000       0.0000       0.0785
   10795.5    1295460       0.2497       1.0000       0.0000       0.0663       1.4435       0.0000       0.0000       0.0663
   10796.0    1295520       0.2096       1.0000       0.0000       0.0402       2.5091       0.0000       0.0000       0.0402
   10796.5    1295580       0.1745       1.0000       0.0000       0.0234       4.5634       0.0000       0.0000       0.0234
   10797.0    1295640       0.1430       1.0000       0.0000       0.0133       8.5215       0.0000       0.0000       0.0133
   10797.5    1295700       0.1252       0.6360       0.0000       0.0475      25.3920       0.0000       0.0000       0.0302
   10798.0    1295760       0.1205       0.6143       0.0000       0.0597      35.8621       0.0000       0.0000       0.0367
   10798.5    1295820       0.1271       0.5397       0.0000       0.0786      42.9269       0.0000       0.0000       0.0424
   10799.0    1295880       0.1485       0.5789       0.0000       0.0711      21.4710       0.0000       0.0000       0.0411
   10799.5    1295940       0.1785       0.3428       1.0000       0.1405      35.5457       0.0000       0.0000       0.0482
   10800.0    1296000       0.1947       0.4013       1.0000       0.1464      26.1234       0.0000       0.0000       0.0588
   10800.5    1296060       0.2050       0.5153       1.0000       0.1543      23.1322       0.0000       0.0000       0.0795
