~VERSION INFORMATION
VERS.           2.0   :CWLS Log ASCII Standard - VERSION 2.0
WRAP.           NO    :One Line per depth step
PROD.  Schlumberger   :LAS Producer
PROG.  DLIS to ASCII 2.3                               :LAS Program name and version
CREA.        2019/04/03 19:50                          :LAS Creation date {YYYY/MM/DD hh:mm}
DLIS_CREA.  2009-Feb-18 14:27                          :DLIS Creation date and time {YYYY-MMM-DD hh:mm}
SOURCE.     WLC_PETRO_COMPUTED_OUTPUT_1.DLIS           :DLIS File Name
FILE-ID.     OUTPUT.logdata                            :File Identification Number
#--------------------------------------------------
~WELL INFORMATION
#MNEM.UNIT      DATA             DESCRIPTION
#---- ------ --------------   -----------------------------
STRT .F          657.0       :START DEPTH     
STOP .F        11567.5       :STOP DEPTH     
STEP .F            0.5       :STEP     
NULL .          -999.25      :NULL VALUE
COMP .        STATOILHYDRO                             :COMPANY
WELL .        15/9-F-4                                 :WELL
FLD  .        VOLVE                                    :FIELD
LOC  .                                                 :LOCATION
CNTY .        MAERSK INSPIRER                          :COUNTY
STAT .                                                 :STATE
CTRY .                                                 :COUNTRY
API  .                                                 :API NUMBER
UWI  .                                                 :UNIQUE WELL ID
DATE .                                                 :LOG DATE
SRVC .        CROCKER DATA PROCESSING                  :SERVICE COMPANY
LATI .DEG                                              :LATITUDE
LONG .DEG                                              :LONGITUDE
GDAT .                                                 :GeoDetic Datum
#-----------------------------------------------------------------------------
~PARAMETER INFORMATION
#MNEM.UNIT    VALUE                      DESCRIPTION
#---- -----   --------------------       ------------------------
CN   .        STATOILHYDRO               :Company
WN   .        15/9-F-4                   :Well Name
FN   .        VOLVE                      :Field
CTRY .        NORWAY                     :Country
COUN .        MAERSK INSPIRER            :County or Rig name
PDAT .        MSL                        :Perm. Datum
ELZ  .M          0.00000                 :Elev. Log Zero (wrt EPD)
R2   .        INPUT                      :R2
RUN  .                                   :RUN NUMBER
EPD  .                                   :Elevation of Permanent Datum above Mean Sea Level
LMF  .                                   :Logging Measured From (Name of Logging Elevation Reference)
APD  .                                   :Elevation of Depth Reference (LMF) above Permanent Datum
#-----------------------------------------------------------------------------
~CURVE INFORMATION
#MNEM.UNIT   API CODE                                  DESCRIPTION
#---- -----  --------                                  -----------------------
DEPTH.F                                                :DEPTH (BOREHOLE) {F10.1}
DEPTH..1IN                                             :Measured Depth {I11}
VSH  .V/V_DECIMAL                                      :VSH:UNKNOWN:rC:NONE:v1 {F13.4}
SW   .V/V_DECIMAL                                      :SW:UNKNOWN:rC:NONE:v1 {F13.4}
SAND_FLAG.UNKNOWN                                      :SAND_FLAG:UNKNOWN:rC:NONE:v1 {F13.4}
PHIF .V/V_DECIMAL                                      :PHIF:UNKNOWN:rC:NONE:v1 {F13.4}
KLOGH.MD                                               :KLOGH:UNKNOWN:rC:NONE:v2 {F13.4}
COAL_FLAG.UNKNOWN                                      :COAL_FLAG:UNKNOWN:rC:NONE:v1 {F13.4}
CARB_FLAG.UNKNOWN                                      :CARB_FLAG:UNKNOWN:rC:NONE:v1 {F13.4}
BVW  .V/V_DECIMAL                                      :BVW:UNKNOWN:rC:NONE:v1 {F13.4}
#-----------------------------------------------------------------------------
# 
#    DEPTH        DEPTH           VSH          SW        SAND_FLAG       PHIF        KLOGH      COAL_FLAG    CARB_FLAG       BVW
#
~A  
# ...
   10417.0    1250040       0.6629       1.0000       0.0000       0.1170       0.0010       0.0000       0.0000       0.1170
   10417.5    1250100       0.6765       1.0000       0.0000       0.1139       0.0010       0.0000       0.0000       0.1139
   10418.0    1250160       0.6788       1.0000       0.0000       0.1117       0.0010       0.0000       0.0000       0.1117
   10418.5    1250220       0.6869       1.0000       0.0000       0.1130       0.0010       0.0000       0.0000       0.1130
   10419.0    1250280       0.6881       1.0000       0.0000       0.1199       0.0010       0.0000       0.0000       0.1199
   10419.5    1250340       0.6931       1.0000       0.0000       0.1190       0.0010       0.0000       0.0000       0.1190
   10420.0    1250400       0.7047       1.0000       0.0000       0.1227       0.0010       0.0000       0.0000       0.1227
   10420.5    1250460       0.6977       1.0000       0.0000       0.1177       0.0010       0.0000       0.0000       0.1177
   10421.0    1250520       0.7008       1.0000       0.0000       0.1233       0.0010       0.0000       0.0000       0.1233
   10421.5    1250580       0.7063       1.0000       0.0000       0.1214       0.0010       0.0000       0.0000       0.1214
   10422.0    1250640       0.7070       1.0000       0.0000       0.1231       0.0010       0.0000       0.0000       0.1231
   10422.5    1250700       0.6955       1.0000       0.0000       0.1221       0.0010       0.0000       0.0000       0.1221
   10423.0    1250760       0.6812       1.0000       0.0000       0.1254       0.0010       0.0000       0.0000       0.1254
   10423.5    1250820       0.6790       1.0000       0.0000       0.1282       0.0010       0.0000       0.0000       0.1282
   10424.0    1250880       0.6849       0.9806       0.0000       0.1349       0.0010       0.0000       0.0000       0.1323
   10424.5    1250940       0.6928       1.0000       0.0000       0.1305       0.0010       0.0000       0.0000       0.1305
   10425.0    1251000       0.6815       1.0000       0.0000       0.1254       0.0010       0.0000       0.0000       0.1254
   10425.5    1251060       0.6812       1.0000       0.0000       0.1243       0.0010       0.0000       0.0000       0.1243
   10426.0    1251120       0.6760       1.0000       0.0000       0.1253       0.0010       0.0000       0.0000       0.1253
   10426.5    1251180       0.7010       1.0000       0.0000       0.1293       0.0010       0.0000       0.0000       0.1293
   10427.0    1251240       0.7137       1.0000       0.0000       0.1217       0.0010       0.0000       0.0000       0.1217
   10427.5    1251300       0.7318       1.0000       0.0000       0.1162       0.0010       0.0000       0.0000       0.1162
   10428.0    1251360       0.7298       1.0000       0.0000       0.1128       0.0010       0.0000       0.0000       0.1128
   10428.5    1251420       0.7277       1.0000       0.0000       0.1137       0.0010       0.0000       0.0000       0.1137
   10429.0    1251480       0.7122       1.0000       0.0000       0.1172       0.0010       0.0000       0.0000       0.1172
   10429.5    1251540       0.7134       1.0000       0.0000       0.1187       0.0010       0.0000       0.0000       0.1187
   10430.0    1251600       0.7145       1.0000       0.0000       0.1225       0.0010       0.0000       0.0000       0.1225
   10430.5    1251660       0.6962       1.0000       0.0000       0.1199       0.0010       0.0000       0.0000       0.1199
   10431.0    1251720       0.6813       1.0000       0.0000       0.1190       0.0010       0.0000       0.0000       0.1190
   10431.5    1251780       0.6721       1.0000       0.0000       0.1212       0.0010       0.0000       0.0000       0.1212
   10432.0    1251840       0.6893       1.0000       0.0000       0.1201       0.0010       0.0000       0.0000       0.1201
   10432.5    1251900       0.6925       1.0000       0.0000       0.1195       0.0010       0.0000       0.0000       0.1195
   10433.0    1251960       0.6845       1.0000       0.0000       0.1138       0.0010       0.0000       0.0000       0.1138
   10433.5    1252020       0.6793       1.0000       0.0000       0.1218       0.0010       0.0000       0.0000       0.1218
   10434.0    1252080       0.6702       0.9883       0.0000       0.1250       0.0010       0.0000       0.0000       0.1235
   10434.5    1252140       0.6798       0.9652       0.0000       0.1305       0.0010       0.0000       0.0000       0.1260
   10435.0    1252200       0.6717       1.0000       0.0000       0.1222       0.0010       0.0000       0.0000       0.1222
   10435.5    1252260       0.6852       1.0000       0.0000       0.1158       0.0010       0.0000       0.0000       0.1158
   10436.0    1252320       0.6741       1.0000       0.0000       0.1092       0.0010       0.0000       0.0000       0.1092
   10436.5    1252380       0.6801       1.0000       0.0000       0.1065       0.0010       0.0000       0.0000       0.1065
   10437.0    1252440       0.6755       1.0000       0.0000       0.0998       0.0010       0.0000       0.0000       0.0998
   10437.5    1252500       0.6990       1.0000       0.0000       0.0979       0.0010       0.0000       0.0000       0.0979
   10438.0    1252560       0.7285       1.0000       0.0000       0.1028       0.0010       0.0000       0.0000       0.1028
   10438.5    1252620       0.7502       1.0000       0.0000       0.1078       0.0010       0.0000       0.0000       0.1078
   10439.0    1252680       0.7505       1.0000       0.0000       0.1126       0.0010       0.0000       0.0000       0.1126
   10439.5    1252740       0.7412       1.0000       0.0000       0.1169       0.0010       0.0000       0.0000       0.1169
   10440.0    1252800       0.7126       0.9931       0.0000       0.1242       0.0010       0.0000       0.0000       0.1234
   10440.5    1252860       0.6665       0.9943       0.0000       0.1226       0.0010       0.0000       0.0000       0.1219
   10441.0    1252920       0.6350       1.0000       0.0000       0.1205       0.0010       0.0000       0.0000       0.1205
   10441.5    1252980       0.6177       1.0000       0.0000       0.1187       0.0010       0.0000       0.0000       0.1187
   10442.0    1253040       0.6152       0.9611       0.0000       0.1215       0.0010       0.0000       0.0000       0.1168
   10442.5    1253100       0.6027       0.9937       0.0000       0.1170       0.0010       0.0000       0.0000       0.1163
   10443.0    1253160       0.6060       1.0000       0.0000       0.1150       0.0010       0.0000       0.0000       0.1150
   10443.5    1253220       0.6179       1.0000       0.0000       0.1113       0.0010       0.0000       0.0000       0.1113
   10444.0    1253280       0.6269       1.0000       0.0000       0.1182       0.0010       0.0000       0.0000       0.1182
   10444.5    1253340       0.6289       1.0000       0.0000       0.1197       0.0010       0.0000       0.0000       0.1197
   10445.0    1253400       0.6337       1.0000       0.0000       0.1233       0.0010       0.0000       0.0000       0.1233
   10445.5    1253460       0.6457       0.9271       0.0000       0.1289       0.0010       0.0000       0.0000       0.1195
   10446.0    1253520       0.6642       0.8945       0.0000       0.1401       0.0010       0.0000       0.0000       0.1253
   10446.5    1253580       0.6676       0.8418       0.0000       0.1460       0.0010       0.0000       0.0000       0.1229
   10447.0    1253640       0.6700       0.8512       0.0000       0.1436       0.0010       0.0000       0.0000       0.1222
   10447.5    1253700       0.6720       0.9191       0.0000       0.1365       0.0010       0.0000       0.0000       0.1255
   10448.0    1253760       0.6984       1.0000       0.0000       0.1189       0.0010       0.0000       0.0000       0.1189
   10448.5    1253820       0.6976       1.0000       0.0000       0.1205       0.0010       0.0000       0.0000       0.1205
